[
  {
    "code": 0,
    "type": "State",
    "location": {
      "lat": 13.9259486,
      "lng": -89.84113819999999
    },
    "districtList": [
      {
        "code": 0,
        "type": "City",
        "enNameLanguage": "Ashapuco",
        "location": {
          "lat": 13.95,
          "lng": -89.833
        },
        "keyAccentLanguage": "ashapuco"
      },
      {
        "code": 0,
        "type": "City",
        "enNameLanguage": "El Golandrino",
        "location": {
          "lat": 13.861,
          "lng": -90.01
        },
        "keyAccentLanguage": "el_golandrino"
      },
      {
        "code": 0,
        "type": "City",
        "enNameLanguage": "Desvio San Francisco",
        "location": {
          "lat": 13.807,
          "lng": -90.052
        },
        "keyAccentLanguage": "desvio_san_francisco"
      },
      {
        "code": 0,
        "type": "City",
        "enNameLanguage": "Cara Sucia",
        "location": {
          "lat": 13.783,
          "lng": -90.033
        },
        "keyAccentLanguage": "cara_sucia"
      },
      {
        "code": 0,
        "type": "City",
        "enNameLanguage": "El Conacaste",
        "location": {
          "lat": 14.05,
          "lng": -89.8
        },
        "keyAccentLanguage": "el_conacaste"
      },
      {
        "code": 0,
        "type": "City",
        "enNameLanguage": "El Anonal",
        "location": {
          "lat": 13.917,
          "lng": -89.767
        },
        "keyAccentLanguage": "el_anonal"
      },
      {
        "code": 0,
        "type": "City",
        "enNameLanguage": "Las Chinamas",
        "location": {
          "lat": 14,
          "lng": -89.883
        },
        "keyAccentLanguage": "las_chinamas"
      },
      {
        "code": 0,
        "type": "City",
        "enNameLanguage": "Cauta Arriba",
        "location": {
          "lat": 13.759,
          "lng": -89.866
        },
        "keyAccentLanguage": "cauta_arriba"
      },
      {
        "code": 0,
        "type": "City",
        "enNameLanguage": "Apaneca",
        "location": {
          "lat": 13.867,
          "lng": -89.8
        },
        "keyAccentLanguage": "apaneca"
      },
      {
        "code": 0,
        "type": "City",
        "enNameLanguage": "El Guisnay",
        "location": {
          "lat": 13.804,
          "lng": -90.04
        },
        "keyAccentLanguage": "el_guisnay"
      },
      {
        "code": 0,
        "type": "City",
        "enNameLanguage": "Atiquizaya",
        "location": {
          "lat": 13.964,
          "lng": -89.77
        },
        "keyAccentLanguage": "atiquizaya"
      },
      {
        "code": 0,
        "type": "City",
        "enNameLanguage": "Azacualpa",
        "location": {
          "lat": 13.783,
          "lng": -89.883
        },
        "keyAccentLanguage": "azacualpa"
      },
      {
        "code": 0,
        "type": "City",
        "enNameLanguage": "El Mojon",
        "location": {
          "lat": 13.967,
          "lng": -89.85
        },
        "keyAccentLanguage": "el_mojon"
      },
      {
        "code": 0,
        "type": "City",
        "enNameLanguage": "El Telpetate",
        "location": {
          "lat": 13.867,
          "lng": -90.055
        },
        "keyAccentLanguage": "el_telpetate"
      },
      {
        "code": 0,
        "type": "City",
        "enNameLanguage": "Ahuachapan",
        "location": {
          "lat": 13.919,
          "lng": -89.845
        },
        "keyAccentLanguage": "ahuachapan"
      },
      {
        "code": 0,
        "type": "City",
        "enNameLanguage": "El Martillo",
        "location": {
          "lat": 13.877,
          "lng": -90.058
        },
        "keyAccentLanguage": "el_martillo"
      },
      {
        "code": 0,
        "type": "City",
        "enNameLanguage": "El Coco",
        "location": {
          "lat": 13.758,
          "lng": -90.038
        },
        "keyAccentLanguage": "el_coco"
      },
      {
        "code": 0,
        "type": "City",
        "enNameLanguage": "Chagalapa",
        "location": {
          "lat": 13.847,
          "lng": -90.041
        },
        "keyAccentLanguage": "chagalapa"
      },
      {
        "code": 0,
        "type": "City",
        "enNameLanguage": "Agua Shuca",
        "location": {
          "lat": 13.917,
          "lng": -89.8
        },
        "keyAccentLanguage": "agua_shuca"
      },
      {
        "code": 0,
        "type": "City",
        "enNameLanguage": "Aguachapio",
        "location": {
          "lat": 13.767,
          "lng": -89.983
        },
        "keyAccentLanguage": "aguachapio"
      },
      {
        "code": 0,
        "type": "City",
        "enNameLanguage": "El Limo",
        "location": {
          "lat": 13.867,
          "lng": -89.883
        },
        "keyAccentLanguage": "el_limo"
      },
      {
        "code": 0,
        "type": "City",
        "enNameLanguage": "El Huiscoyol",
        "location": {
          "lat": 13.843,
          "lng": -90.033
        },
        "keyAccentLanguage": "el_huiscoyol"
      },
      {
        "code": 0,
        "type": "City",
        "enNameLanguage": "El Arado",
        "location": {
          "lat": 13.933,
          "lng": -89.717
        },
        "keyAccentLanguage": "el_arado"
      },
      {
        "code": 0,
        "type": "City",
        "enNameLanguage": "Concepcion De Ataco",
        "location": {
          "lat": 13.867,
          "lng": -89.85
        },
        "keyAccentLanguage": "concepcion_de_ataco"
      },
      {
        "code": 0,
        "type": "City",
        "enNameLanguage": "El Naranjito",
        "location": {
          "lat": 13.849,
          "lng": -89.869
        },
        "keyAccentLanguage": "el_naranjito"
      },
      {
        "code": 0,
        "type": "City",
        "enNameLanguage": "El Castano",
        "location": {
          "lat": 13.761,
          "lng": -90.1
        },
        "keyAccentLanguage": "el_castano"
      },
      {
        "code": 0,
        "type": "City",
        "enNameLanguage": "El Talpetate",
        "location": {
          "lat": 13.736,
          "lng": -90.004
        },
        "keyAccentLanguage": "el_talpetate"
      },
      {
        "code": 0,
        "type": "City",
        "enNameLanguage": "El Amatillo",
        "location": {
          "lat": 13.782,
          "lng": -90.107
        },
        "keyAccentLanguage": "el_amatillo"
      },
      {
        "code": 0,
        "type": "City",
        "enNameLanguage": "El Durazneno",
        "location": {
          "lat": 13.95,
          "lng": -90
        },
        "keyAccentLanguage": "el_durazneno"
      },
      {
        "code": 0,
        "type": "City",
        "enNameLanguage": "El Junquillo",
        "location": {
          "lat": 13.989,
          "lng": -89.838
        },
        "keyAccentLanguage": "el_junquillo"
      },
      {
        "code": 0,
        "type": "City",
        "enNameLanguage": "El Chaguite",
        "location": {
          "lat": 13.933,
          "lng": -90
        },
        "keyAccentLanguage": "el_chaguite"
      },
      {
        "code": 0,
        "type": "City",
        "enNameLanguage": "Faya",
        "location": {
          "lat": 13.739,
          "lng": -90.005
        },
        "keyAccentLanguage": "faya"
      },
      {
        "code": 0,
        "type": "City",
        "enNameLanguage": "El Espino",
        "location": {
          "lat": 13.95,
          "lng": -89.85
        },
        "keyAccentLanguage": "el_espino"
      },
      {
        "code": 0,
        "type": "City",
        "enNameLanguage": "El Camalote",
        "location": {
          "lat": 13.765,
          "lng": -90.027
        },
        "keyAccentLanguage": "el_camalote"
      },
      {
        "code": 0,
        "type": "City",
        "enNameLanguage": "El Palmo",
        "location": {
          "lat": 13.883,
          "lng": -89.95
        },
        "keyAccentLanguage": "el_palmo"
      },
      {
        "code": 0,
        "type": "City",
        "enNameLanguage": "El Corral",
        "location": {
          "lat": 13.8,
          "lng": -89.917
        },
        "keyAccentLanguage": "el_corral"
      },
      {
        "code": 0,
        "type": "City",
        "enNameLanguage": "Chancuyo",
        "location": {
          "lat": 13.933,
          "lng": -89.867
        },
        "keyAccentLanguage": "chancuyo"
      },
      {
        "code": 0,
        "type": "City",
        "enNameLanguage": "Jujutla",
        "location": {
          "lat": 13.786,
          "lng": -89.857
        },
        "keyAccentLanguage": "jujutla"
      },
      {
        "code": 0,
        "type": "City",
        "enNameLanguage": "El Portillo",
        "location": {
          "lat": 14.033,
          "lng": -89.783
        },
        "keyAccentLanguage": "el_portillo"
      },
      {
        "code": 0,
        "type": "City",
        "enNameLanguage": "El Arco",
        "location": {
          "lat": 13.833,
          "lng": -89.883
        },
        "keyAccentLanguage": "el_arco"
      },
      {
        "code": 0,
        "type": "City",
        "enNameLanguage": "El Capulin",
        "location": {
          "lat": 13.778,
          "lng": -90.104
        },
        "keyAccentLanguage": "el_capulin"
      },
      {
        "code": 0,
        "type": "City",
        "enNameLanguage": "Guaymango",
        "location": {
          "lat": 13.75,
          "lng": -89.85
        },
        "keyAccentLanguage": "guaymango"
      },
      {
        "code": 0,
        "type": "City",
        "enNameLanguage": "El Sunza",
        "location": {
          "lat": 13.908,
          "lng": -90.005
        },
        "keyAccentLanguage": "el_sunza"
      },
      {
        "code": 0,
        "type": "City",
        "enNameLanguage": "Chipilapa",
        "location": {
          "lat": 13.929,
          "lng": -89.791
        },
        "keyAccentLanguage": "chipilapa"
      },
      {
        "code": 0,
        "type": "City",
        "enNameLanguage": "Cuyanausul",
        "location": {
          "lat": 13.934,
          "lng": -89.774
        },
        "keyAccentLanguage": "cuyanausul"
      },
      {
        "code": 0,
        "type": "City",
        "enNameLanguage": "El Corozo",
        "location": {
          "lat": 13.802,
          "lng": -90.012
        },
        "keyAccentLanguage": "el_corozo"
      },
      {
        "code": 0,
        "type": "City",
        "enNameLanguage": "El Pital",
        "location": {
          "lat": 13.855,
          "lng": -90.071
        },
        "keyAccentLanguage": "el_pital"
      },
      {
        "code": 0,
        "type": "City",
        "enNameLanguage": "El Chino",
        "location": {
          "lat": 13.733,
          "lng": -90.05
        },
        "keyAccentLanguage": "el_chino"
      },
      {
        "code": 0,
        "type": "City",
        "enNameLanguage": "El Barro",
        "location": {
          "lat": 13.913,
          "lng": -89.827
        },
        "keyAccentLanguage": "el_barro"
      },
      {
        "code": 0,
        "type": "City",
        "enNameLanguage": "El Escalon",
        "location": {
          "lat": 13.733,
          "lng": -89.833
        },
        "keyAccentLanguage": "el_escalon"
      },
      {
        "code": 0,
        "type": "City",
        "enNameLanguage": "El Molino",
        "location": {
          "lat": 13.883,
          "lng": -89.85
        },
        "keyAccentLanguage": "el_molino"
      },
      {
        "code": 0,
        "type": "City",
        "enNameLanguage": "Barra De Santiago",
        "location": {
          "lat": 13.7,
          "lng": -89.983
        },
        "keyAccentLanguage": "barra_de_santiago"
      },
      {
        "code": 0,
        "type": "City",
        "enNameLanguage": "El Jicaro",
        "location": {
          "lat": 13.9,
          "lng": -89.95
        },
        "keyAccentLanguage": "el_jicaro"
      },
      {
        "code": 0,
        "type": "City",
        "enNameLanguage": "El Durazno",
        "location": {
          "lat": 13.8,
          "lng": -89.817
        },
        "keyAccentLanguage": "el_durazno"
      },
      {
        "code": 0,
        "type": "City",
        "enNameLanguage": "El Saitillal",
        "location": {
          "lat": 13.883,
          "lng": -89.817
        },
        "keyAccentLanguage": "el_saitillal"
      },
      {
        "code": 0,
        "type": "City",
        "enNameLanguage": "El Guayabo",
        "location": {
          "lat": 13.831,
          "lng": -90.104
        },
        "keyAccentLanguage": "el_guayabo"
      },
      {
        "code": 0,
        "type": "City",
        "enNameLanguage": "Turin",
        "location": {
          "lat": 13.967,
          "lng": -89.783
        },
        "keyAccentLanguage": "turin"
      },
      {
        "code": 0,
        "type": "City",
        "enNameLanguage": "El Porvenir",
        "location": {
          "lat": 13.723,
          "lng": -90.06
        },
        "keyAccentLanguage": "el_porvenir"
      },
      {
        "code": 0,
        "type": "City",
        "enNameLanguage": "El Jobo",
        "location": {
          "lat": 14.017,
          "lng": -89.9
        },
        "keyAccentLanguage": "el_jobo"
      },
      {
        "code": 0,
        "type": "City",
        "enNameLanguage": "El Refugio",
        "location": {
          "lat": 13.983,
          "lng": -89.7
        },
        "keyAccentLanguage": "el_refugio"
      },
      {
        "code": 0,
        "type": "City",
        "enNameLanguage": "San Jose El Naranjo",
        "location": {
          "lat": 13.767,
          "lng": -89.933
        },
        "keyAccentLanguage": "san_jose_el_naranjo"
      },
      {
        "code": 0,
        "type": "City",
        "enNameLanguage": "San Francisco Menendez",
        "location": {
          "lat": 13.85,
          "lng": -90.017
        },
        "keyAccentLanguage": "san_francisco_menendez"
      },
      {
        "code": 0,
        "type": "City",
        "enNameLanguage": "El Botoncillo",
        "location": {
          "lat": 13.74,
          "lng": -90.121
        },
        "keyAccentLanguage": "el_botoncillo"
      },
      {
        "code": 0,
        "type": "City",
        "enNameLanguage": "San Pedro Puxtla",
        "location": {
          "lat": 13.767,
          "lng": -89.817
        },
        "keyAccentLanguage": "san_pedro_puxtla"
      },
      {
        "code": 0,
        "type": "City",
        "enNameLanguage": "Tacuba",
        "location": {
          "lat": 13.899,
          "lng": -89.931
        },
        "keyAccentLanguage": "tacuba"
      },
      {
        "code": 0,
        "type": "City",
        "enNameLanguage": "El Sincuyo",
        "location": {
          "lat": 13.882,
          "lng": -89.946
        },
        "keyAccentLanguage": "el_sincuyo"
      },
      {
        "code": 0,
        "type": "City",
        "enNameLanguage": "El Sacramento",
        "location": {
          "lat": 13.853,
          "lng": -90.055
        },
        "keyAccentLanguage": "el_sacramento"
      },
      {
        "code": 0,
        "type": "City",
        "enNameLanguage": "El Amatal",
        "location": {
          "lat": 13.843,
          "lng": -90.051
        },
        "keyAccentLanguage": "el_amatal"
      },
      {
        "code": 0,
        "type": "City",
        "enNameLanguage": "El Palo Verde",
        "location": {
          "lat": 13.867,
          "lng": -89.8
        },
        "keyAccentLanguage": "el_palo_verde"
      },
      {
        "code": 0,
        "type": "City",
        "enNameLanguage": "El Nance",
        "location": {
          "lat": 13.733,
          "lng": -89.983
        },
        "keyAccentLanguage": "el_nance"
      },
      {
        "code": 0,
        "type": "City",
        "enNameLanguage": "Bola de Monte",
        "location": {
          "lat": 13.73,
          "lng": -90.098
        },
        "keyAccentLanguage": "bola_de_monte"
      },
      {
        "code": 0,
        "type": "City",
        "enNameLanguage": "El Tronconal",
        "location": {
          "lat": 13.869,
          "lng": -89.834
        },
        "keyAccentLanguage": "el_tronconal"
      },
      {
        "code": 0,
        "type": "City",
        "enNameLanguage": "El Jocotillo",
        "location": {
          "lat": 13.873,
          "lng": -90.076
        },
        "keyAccentLanguage": "el_jocotillo"
      },
      {
        "code": 0,
        "type": "City",
        "enNameLanguage": "El Naranjo",
        "location": {
          "lat": 13.772,
          "lng": -90.101
        },
        "keyAccentLanguage": "el_naranjo"
      },
      {
        "code": 0,
        "type": "City",
        "enNameLanguage": "Cauta Abajo",
        "location": {
          "lat": 13.733,
          "lng": -89.867
        },
        "keyAccentLanguage": "cauta_abajo"
      },
      {
        "code": 0,
        "type": "City",
        "enNameLanguage": "El Diamante",
        "location": {
          "lat": 13.781,
          "lng": -89.902
        },
        "keyAccentLanguage": "el_diamante"
      },
      {
        "code": 0,
        "type": "City",
        "enNameLanguage": "El Nispero",
        "location": {
          "lat": 13.865,
          "lng": -89.899
        },
        "keyAccentLanguage": "el_nispero"
      },
      {
        "code": 0,
        "type": "City",
        "enNameLanguage": "El Roble",
        "location": {
          "lat": 13.983,
          "lng": -89.817
        },
        "keyAccentLanguage": "el_roble"
      },
      {
        "code": 0,
        "type": "City",
        "enNameLanguage": "Concepcion",
        "location": {
          "lat": 13.817,
          "lng": -89.792
        },
        "keyAccentLanguage": "concepcion"
      },
      {
        "code": 0,
        "type": "City",
        "enNameLanguage": "El Sitio",
        "location": {
          "lat": 13.767,
          "lng": -89.933
        },
        "keyAccentLanguage": "el_sitio"
      },
      {
        "code": 0,
        "type": "City",
        "enNameLanguage": "Comapa",
        "location": {
          "lat": 13.983,
          "lng": -89.717
        },
        "keyAccentLanguage": "comapa"
      },
      {
        "code": 0,
        "type": "City",
        "enNameLanguage": "El Zarzal",
        "location": {
          "lat": 13.7,
          "lng": -89.833
        },
        "keyAccentLanguage": "el_zarzal"
      },
      {
        "code": 0,
        "type": "City",
        "enNameLanguage": "El Tamboral",
        "location": {
          "lat": 13.872,
          "lng": -90.07
        },
        "keyAccentLanguage": "el_tamboral"
      },
      {
        "code": 0,
        "type": "City",
        "enNameLanguage": "El Zapote",
        "location": {
          "lat": 13.704,
          "lng": -90.024
        },
        "keyAccentLanguage": "el_zapote"
      },
      {
        "code": 0,
        "type": "City",
        "enNameLanguage": "Escarbaderos",
        "location": {
          "lat": 14.033,
          "lng": -89.75
        },
        "keyAccentLanguage": "escarbaderos"
      },
      {
        "code": 0,
        "type": "City",
        "enNameLanguage": "El Ujushtal",
        "location": {
          "lat": 13.854,
          "lng": -90.067
        },
        "keyAccentLanguage": "el_ujushtal"
      },
      {
        "code": 0,
        "type": "City",
        "enNameLanguage": "El Tortuguero",
        "location": {
          "lat": 13.917,
          "lng": -89.75
        },
        "keyAccentLanguage": "el_tortuguero"
      },
      {
        "code": 0,
        "type": "City",
        "enNameLanguage": "El Cortez",
        "location": {
          "lat": 13.733,
          "lng": -89.817
        },
        "keyAccentLanguage": "el_cortez"
      },
      {
        "code": 0,
        "type": "City",
        "enNameLanguage": "El Resgate",
        "location": {
          "lat": 14.033,
          "lng": -89.75
        },
        "keyAccentLanguage": "el_resgate"
      },
      {
        "code": 0,
        "type": "City",
        "enNameLanguage": "El Paraiso",
        "location": {
          "lat": 13.949,
          "lng": -89.762
        },
        "keyAccentLanguage": "el_paraiso"
      },
      {
        "code": 0,
        "type": "City",
        "enNameLanguage": "El Tigre",
        "location": {
          "lat": 13.986,
          "lng": -89.911
        },
        "keyAccentLanguage": "el_tigre"
      },
      {
        "code": 0,
        "type": "City",
        "enNameLanguage": "San Lorenzo",
        "location": {
          "lat": 14.033,
          "lng": -89.783
        },
        "keyAccentLanguage": "san_lorenzo"
      },
      {
        "code": 0,
        "type": "City",
        "enNameLanguage": "El Carmen",
        "location": {
          "lat": 13.783,
          "lng": -89.833
        },
        "keyAccentLanguage": "el_carmen"
      },
      {
        "code": 0,
        "type": "City",
        "enNameLanguage": "Agua Fria",
        "location": {
          "lat": 13.902,
          "lng": -90
        },
        "keyAccentLanguage": "agua_fria"
      },
      {
        "code": 0,
        "type": "City",
        "enNameLanguage": "El Rosario",
        "location": {
          "lat": 13.75,
          "lng": -89.883
        },
        "keyAccentLanguage": "el_rosario"
      },
      {
        "code": 0,
        "type": "City",
        "enNameLanguage": "Calapa",
        "location": {
          "lat": 13.983,
          "lng": -89.917
        },
        "keyAccentLanguage": "calapa"
      },
      {
        "code": 0,
        "type": "City",
        "enNameLanguage": "El Jicaral",
        "location": {
          "lat": 14.05,
          "lng": -89.817
        },
        "keyAccentLanguage": "el_jicaral"
      },
      {
        "code": 0,
        "type": "City",
        "enNameLanguage": "El Tablon",
        "location": {
          "lat": 14.05,
          "lng": -89.8
        },
        "keyAccentLanguage": "el_tablon"
      },
      {
        "code": 0,
        "type": "City",
        "enNameLanguage": "El Chayal",
        "location": {
          "lat": 13.933,
          "lng": -89.75
        },
        "keyAccentLanguage": "el_chayal"
      },
      {
        "code": 0,
        "type": "City",
        "enNameLanguage": "El Rodeo",
        "location": {
          "lat": 13.942,
          "lng": -89.942
        },
        "keyAccentLanguage": "el_rodeo"
      }
    ],
    "enNameLanguage": "Ahuachap치n",
    "keyAccentLanguage": "ahuachap치n"
  },
  {
    "code": 0,
    "type": "State",
    "location": {
      "lat": 37.616035,
      "lng": -95.343248
    },
    "districtList": [
      {
        "code": 0,
        "type": "City",
        "enNameLanguage": "Cruz del Llano",
        "location": {
          "lat": 13.817,
          "lng": -88.867
        },
        "keyAccentLanguage": "cruz_del_llano"
      },
      {
        "code": 0,
        "type": "City",
        "enNameLanguage": "Cinquera",
        "location": {
          "lat": 13.883,
          "lng": -88.967
        },
        "keyAccentLanguage": "cinquera"
      },
      {
        "code": 0,
        "type": "City",
        "enNameLanguage": "Chapelcoro",
        "location": {
          "lat": 13.8,
          "lng": -88.617
        },
        "keyAccentLanguage": "chapelcoro"
      },
      {
        "code": 0,
        "type": "City",
        "enNameLanguage": "Carrasco",
        "location": {
          "lat": 13.867,
          "lng": -88.95
        },
        "keyAccentLanguage": "carrasco"
      },
      {
        "code": 0,
        "type": "City",
        "enNameLanguage": "Chamalistagua",
        "location": {
          "lat": 13.95,
          "lng": -88.85
        },
        "keyAccentLanguage": "chamalistagua"
      },
      {
        "code": 0,
        "type": "City",
        "enNameLanguage": "El Jocote",
        "location": {
          "lat": 13.8,
          "lng": -88.533
        },
        "keyAccentLanguage": "el_jocote"
      },
      {
        "code": 0,
        "type": "City",
        "enNameLanguage": "El Caracol",
        "location": {
          "lat": 13.933,
          "lng": -88.633
        },
        "keyAccentLanguage": "el_caracol"
      },
      {
        "code": 0,
        "type": "City",
        "enNameLanguage": "El Papalon",
        "location": {
          "lat": 13.967,
          "lng": -88.583
        },
        "keyAccentLanguage": "el_papalon"
      },
      {
        "code": 0,
        "type": "City",
        "enNameLanguage": "Cuyantepeque",
        "location": {
          "lat": 13.833,
          "lng": -88.617
        },
        "keyAccentLanguage": "cuyantepeque"
      },
      {
        "code": 0,
        "type": "City",
        "enNameLanguage": "El Banadero",
        "location": {
          "lat": 13.867,
          "lng": -88.667
        },
        "keyAccentLanguage": "el_banadero"
      },
      {
        "code": 0,
        "type": "City",
        "enNameLanguage": "El Ojushte",
        "location": {
          "lat": 13.917,
          "lng": -88.667
        },
        "keyAccentLanguage": "el_ojushte"
      },
      {
        "code": 0,
        "type": "City",
        "enNameLanguage": "El Bosque",
        "location": {
          "lat": 13.983,
          "lng": -88.683
        },
        "keyAccentLanguage": "el_bosque"
      },
      {
        "code": 0,
        "type": "City",
        "enNameLanguage": "Las Cuchillas",
        "location": {
          "lat": 13.9,
          "lng": -88.8
        },
        "keyAccentLanguage": "las_cuchillas"
      },
      {
        "code": 0,
        "type": "City",
        "enNameLanguage": "El Palomar",
        "location": {
          "lat": 13.983,
          "lng": -88.583
        },
        "keyAccentLanguage": "el_palomar"
      },
      {
        "code": 0,
        "type": "City",
        "enNameLanguage": "El Amate",
        "location": {
          "lat": 13.833,
          "lng": -88.733
        },
        "keyAccentLanguage": "el_amate"
      },
      {
        "code": 0,
        "type": "City",
        "enNameLanguage": "El Zope",
        "location": {
          "lat": 13.95,
          "lng": -88.6
        },
        "keyAccentLanguage": "el_zope"
      },
      {
        "code": 0,
        "type": "City",
        "enNameLanguage": "El Jicaro",
        "location": {
          "lat": 13.8,
          "lng": -88.717
        },
        "keyAccentLanguage": "el_jicaro"
      },
      {
        "code": 0,
        "type": "City",
        "enNameLanguage": "El Izcatal",
        "location": {
          "lat": 13.833,
          "lng": -88.733
        },
        "keyAccentLanguage": "el_izcatal"
      },
      {
        "code": 0,
        "type": "City",
        "enNameLanguage": "Guacotecti",
        "location": {
          "lat": 13.867,
          "lng": -88.65
        },
        "keyAccentLanguage": "guacotecti"
      },
      {
        "code": 0,
        "type": "City",
        "enNameLanguage": "La Chorrera Del Guayabo",
        "location": {
          "lat": 13.983,
          "lng": -88.75
        },
        "keyAccentLanguage": "la_chorrera_del_guayabo"
      },
      {
        "code": 0,
        "type": "City",
        "enNameLanguage": "El Camalote",
        "location": {
          "lat": 13.917,
          "lng": -88.683
        },
        "keyAccentLanguage": "el_camalote"
      },
      {
        "code": 0,
        "type": "City",
        "enNameLanguage": "El Carrizal",
        "location": {
          "lat": 13.833,
          "lng": -88.6
        },
        "keyAccentLanguage": "el_carrizal"
      },
      {
        "code": 0,
        "type": "City",
        "enNameLanguage": "Guiliguiste",
        "location": {
          "lat": 13.85,
          "lng": -88.95
        },
        "keyAccentLanguage": "guiliguiste"
      },
      {
        "code": 0,
        "type": "City",
        "enNameLanguage": "Canafistula",
        "location": {
          "lat": 13.75,
          "lng": -88.583
        },
        "keyAccentLanguage": "canafistula"
      },
      {
        "code": 0,
        "type": "City",
        "enNameLanguage": "Copinolapa",
        "location": {
          "lat": 13.9,
          "lng": -88.733
        },
        "keyAccentLanguage": "copinolapa"
      },
      {
        "code": 0,
        "type": "City",
        "enNameLanguage": "El Manguito",
        "location": {
          "lat": 13.95,
          "lng": -88.817
        },
        "keyAccentLanguage": "el_manguito"
      },
      {
        "code": 0,
        "type": "City",
        "enNameLanguage": "Corral de Piedras",
        "location": {
          "lat": 13.867,
          "lng": -88.767
        },
        "keyAccentLanguage": "corral_de_piedras"
      },
      {
        "code": 0,
        "type": "City",
        "enNameLanguage": "Chunte",
        "location": {
          "lat": 13.917,
          "lng": -88.583
        },
        "keyAccentLanguage": "chunte"
      },
      {
        "code": 0,
        "type": "City",
        "enNameLanguage": "Campamento Numero Dos",
        "location": {
          "lat": 13.983,
          "lng": -88.75
        },
        "keyAccentLanguage": "campamento_numero_dos"
      },
      {
        "code": 0,
        "type": "City",
        "enNameLanguage": "Los Portillos",
        "location": {
          "lat": 13.917,
          "lng": -88.55
        },
        "keyAccentLanguage": "los_portillos"
      },
      {
        "code": 0,
        "type": "City",
        "enNameLanguage": "El Mestizo",
        "location": {
          "lat": 13.917,
          "lng": -88.833
        },
        "keyAccentLanguage": "el_mestizo"
      },
      {
        "code": 0,
        "type": "City",
        "enNameLanguage": "El Tablon",
        "location": {
          "lat": 13.817,
          "lng": -88.65
        },
        "keyAccentLanguage": "el_tablon"
      },
      {
        "code": 0,
        "type": "City",
        "enNameLanguage": "Los Menjivar",
        "location": {
          "lat": 13.85,
          "lng": -88.833
        },
        "keyAccentLanguage": "los_menjivar"
      },
      {
        "code": 0,
        "type": "City",
        "enNameLanguage": "El Volcan",
        "location": {
          "lat": 13.9,
          "lng": -88.683
        },
        "keyAccentLanguage": "el_volcan"
      },
      {
        "code": 0,
        "type": "City",
        "enNameLanguage": "Huiscoyol",
        "location": {
          "lat": 13.917,
          "lng": -88.933
        },
        "keyAccentLanguage": "huiscoyol"
      },
      {
        "code": 0,
        "type": "City",
        "enNameLanguage": "El Cimarron",
        "location": {
          "lat": 13.983,
          "lng": -88.667
        },
        "keyAccentLanguage": "el_cimarron"
      },
      {
        "code": 0,
        "type": "City",
        "enNameLanguage": "El Limon",
        "location": {
          "lat": 13.9,
          "lng": -88.567
        },
        "keyAccentLanguage": "el_limon"
      },
      {
        "code": 0,
        "type": "City",
        "enNameLanguage": "El Limo",
        "location": {
          "lat": 13.983,
          "lng": -88.6
        },
        "keyAccentLanguage": "el_limo"
      },
      {
        "code": 0,
        "type": "City",
        "enNameLanguage": "Cerro Colorado",
        "location": {
          "lat": 13.783,
          "lng": -88.883
        },
        "keyAccentLanguage": "cerro_colorado"
      },
      {
        "code": 0,
        "type": "City",
        "enNameLanguage": "El Coco",
        "location": {
          "lat": 13.9,
          "lng": -88.917
        },
        "keyAccentLanguage": "el_coco"
      },
      {
        "code": 0,
        "type": "City",
        "enNameLanguage": "El Guiliguiste",
        "location": {
          "lat": 13.95,
          "lng": -88.533
        },
        "keyAccentLanguage": "el_guiliguiste"
      },
      {
        "code": 0,
        "type": "City",
        "enNameLanguage": "El Guineo",
        "location": {
          "lat": 13.883,
          "lng": -88.7
        },
        "keyAccentLanguage": "el_guineo"
      },
      {
        "code": 0,
        "type": "City",
        "enNameLanguage": "El Chaparral",
        "location": {
          "lat": 13.95,
          "lng": -88.533
        },
        "keyAccentLanguage": "el_chaparral"
      },
      {
        "code": 0,
        "type": "City",
        "enNameLanguage": "El Tempisque",
        "location": {
          "lat": 13.867,
          "lng": -88.633
        },
        "keyAccentLanguage": "el_tempisque"
      },
      {
        "code": 0,
        "type": "City",
        "enNameLanguage": "La Pinte",
        "location": {
          "lat": 13.983,
          "lng": -88.7
        },
        "keyAccentLanguage": "la_pinte"
      },
      {
        "code": 0,
        "type": "City",
        "enNameLanguage": "Tejutepeque",
        "location": {
          "lat": 13.85,
          "lng": -88.9
        },
        "keyAccentLanguage": "tejutepeque"
      },
      {
        "code": 0,
        "type": "City",
        "enNameLanguage": "Jutiapa",
        "location": {
          "lat": 13.883,
          "lng": -88.9
        },
        "keyAccentLanguage": "jutiapa"
      },
      {
        "code": 0,
        "type": "City",
        "enNameLanguage": "Las Dantas",
        "location": {
          "lat": 14,
          "lng": -88.633
        },
        "keyAccentLanguage": "las_dantas"
      },
      {
        "code": 0,
        "type": "City",
        "enNameLanguage": "Las Guarumas",
        "location": {
          "lat": 13.85,
          "lng": -88.567
        },
        "keyAccentLanguage": "las_guarumas"
      },
      {
        "code": 0,
        "type": "City",
        "enNameLanguage": "Los Llanitos",
        "location": {
          "lat": 13.85,
          "lng": -88.833
        },
        "keyAccentLanguage": "los_llanitos"
      },
      {
        "code": 0,
        "type": "City",
        "enNameLanguage": "Hacienda Vieja",
        "location": {
          "lat": 14,
          "lng": -88.7
        },
        "keyAccentLanguage": "hacienda_vieja"
      },
      {
        "code": 0,
        "type": "City",
        "enNameLanguage": "El Zapote",
        "location": {
          "lat": 13.867,
          "lng": -88.933
        },
        "keyAccentLanguage": "el_zapote"
      },
      {
        "code": 0,
        "type": "City",
        "enNameLanguage": "Curaren",
        "location": {
          "lat": 13.8,
          "lng": -88.583
        },
        "keyAccentLanguage": "curaren"
      },
      {
        "code": 0,
        "type": "City",
        "enNameLanguage": "Los Olotes",
        "location": {
          "lat": 13.9,
          "lng": -88.733
        },
        "keyAccentLanguage": "los_olotes"
      },
      {
        "code": 0,
        "type": "City",
        "enNameLanguage": "Sensuntepeque",
        "location": {
          "lat": 13.873,
          "lng": -88.629
        },
        "keyAccentLanguage": "sensuntepeque"
      },
      {
        "code": 0,
        "type": "City",
        "enNameLanguage": "El Jicarillo",
        "location": {
          "lat": 13.95,
          "lng": -88.533
        },
        "keyAccentLanguage": "el_jicarillo"
      },
      {
        "code": 0,
        "type": "City",
        "enNameLanguage": "Llano de la Hacienda",
        "location": {
          "lat": 13.817,
          "lng": -88.7
        },
        "keyAccentLanguage": "llano_de_la_hacienda"
      },
      {
        "code": 0,
        "type": "City",
        "enNameLanguage": "Llano Grande",
        "location": {
          "lat": 13.867,
          "lng": -88.617
        },
        "keyAccentLanguage": "llano_grande"
      },
      {
        "code": 0,
        "type": "City",
        "enNameLanguage": "Los Navarrete",
        "location": {
          "lat": 13.95,
          "lng": -88.8
        },
        "keyAccentLanguage": "los_navarrete"
      },
      {
        "code": 0,
        "type": "City",
        "enNameLanguage": "Los Jobos",
        "location": {
          "lat": 13.85,
          "lng": -88.683
        },
        "keyAccentLanguage": "los_jobos"
      },
      {
        "code": 0,
        "type": "City",
        "enNameLanguage": "El Rincon",
        "location": {
          "lat": 13.783,
          "lng": -88.883
        },
        "keyAccentLanguage": "el_rincon"
      },
      {
        "code": 0,
        "type": "City",
        "enNameLanguage": "El Cacao",
        "location": {
          "lat": 13.9,
          "lng": -88.95
        },
        "keyAccentLanguage": "el_cacao"
      },
      {
        "code": 0,
        "type": "City",
        "enNameLanguage": "El Potrero",
        "location": {
          "lat": 13.817,
          "lng": -88.667
        },
        "keyAccentLanguage": "el_potrero"
      },
      {
        "code": 0,
        "type": "City",
        "enNameLanguage": "Dolores",
        "location": {
          "lat": 13.783,
          "lng": -88.567
        },
        "keyAccentLanguage": "dolores"
      },
      {
        "code": 0,
        "type": "City",
        "enNameLanguage": "La Palanca",
        "location": {
          "lat": 13.833,
          "lng": -88.533
        },
        "keyAccentLanguage": "la_palanca"
      },
      {
        "code": 0,
        "type": "City",
        "enNameLanguage": "El Irayol",
        "location": {
          "lat": 13.9,
          "lng": -88.617
        },
        "keyAccentLanguage": "el_irayol"
      },
      {
        "code": 0,
        "type": "City",
        "enNameLanguage": "La Junta",
        "location": {
          "lat": 13.85,
          "lng": -88.5
        },
        "keyAccentLanguage": "la_junta"
      },
      {
        "code": 0,
        "type": "City",
        "enNameLanguage": "La Bermuda",
        "location": {
          "lat": 13.933,
          "lng": -88.633
        },
        "keyAccentLanguage": "la_bermuda"
      },
      {
        "code": 0,
        "type": "City",
        "enNameLanguage": "El Junquillo",
        "location": {
          "lat": 13.85,
          "lng": -88.733
        },
        "keyAccentLanguage": "el_junquillo"
      },
      {
        "code": 0,
        "type": "City",
        "enNameLanguage": "La Marana",
        "location": {
          "lat": 13.967,
          "lng": -88.783
        },
        "keyAccentLanguage": "la_marana"
      },
      {
        "code": 0,
        "type": "City",
        "enNameLanguage": "Las Minas",
        "location": {
          "lat": 13.9,
          "lng": -88.833
        },
        "keyAccentLanguage": "las_minas"
      },
      {
        "code": 0,
        "type": "City",
        "enNameLanguage": "La Uvilla",
        "location": {
          "lat": 13.967,
          "lng": -88.617
        },
        "keyAccentLanguage": "la_uvilla"
      },
      {
        "code": 0,
        "type": "City",
        "enNameLanguage": "El Pepeto",
        "location": {
          "lat": 13.817,
          "lng": -88.633
        },
        "keyAccentLanguage": "el_pepeto"
      },
      {
        "code": 0,
        "type": "City",
        "enNameLanguage": "Los Hoyos",
        "location": {
          "lat": 13.85,
          "lng": -88.8
        },
        "keyAccentLanguage": "los_hoyos"
      },
      {
        "code": 0,
        "type": "City",
        "enNameLanguage": "Los Ranchos",
        "location": {
          "lat": 13.917,
          "lng": -88.717
        },
        "keyAccentLanguage": "los_ranchos"
      },
      {
        "code": 0,
        "type": "City",
        "enNameLanguage": "El Platanar",
        "location": {
          "lat": 13.883,
          "lng": -88.883
        },
        "keyAccentLanguage": "el_platanar"
      },
      {
        "code": 0,
        "type": "City",
        "enNameLanguage": "La Siguanaba",
        "location": {
          "lat": 13.967,
          "lng": -88.667
        },
        "keyAccentLanguage": "la_siguanaba"
      },
      {
        "code": 0,
        "type": "City",
        "enNameLanguage": "Llano Largo",
        "location": {
          "lat": 13.917,
          "lng": -88.85
        },
        "keyAccentLanguage": "llano_largo"
      },
      {
        "code": 0,
        "type": "City",
        "enNameLanguage": "Azacualpa",
        "location": {
          "lat": 13.883,
          "lng": -88.833
        },
        "keyAccentLanguage": "azacualpa"
      },
      {
        "code": 0,
        "type": "City",
        "enNameLanguage": "La Ermita",
        "location": {
          "lat": 13.833,
          "lng": -88.9
        },
        "keyAccentLanguage": "la_ermita"
      },
      {
        "code": 0,
        "type": "City",
        "enNameLanguage": "Las Delicias",
        "location": {
          "lat": 13.917,
          "lng": -88.533
        },
        "keyAccentLanguage": "las_delicias"
      },
      {
        "code": 0,
        "type": "City",
        "enNameLanguage": "El Jobito",
        "location": {
          "lat": 13.833,
          "lng": -88.683
        },
        "keyAccentLanguage": "el_jobito"
      },
      {
        "code": 0,
        "type": "City",
        "enNameLanguage": "La Canada",
        "location": {
          "lat": 13.933,
          "lng": -88.6
        },
        "keyAccentLanguage": "la_canada"
      },
      {
        "code": 0,
        "type": "City",
        "enNameLanguage": "Agua Zarca",
        "location": {
          "lat": 13.8,
          "lng": -88.867
        },
        "keyAccentLanguage": "agua_zarca"
      },
      {
        "code": 0,
        "type": "City",
        "enNameLanguage": "Caleras",
        "location": {
          "lat": 13.9,
          "lng": -88.95
        },
        "keyAccentLanguage": "caleras"
      },
      {
        "code": 0,
        "type": "City",
        "enNameLanguage": "Victoria",
        "location": {
          "lat": 13.95,
          "lng": -88.633
        },
        "keyAccentLanguage": "victoria"
      },
      {
        "code": 0,
        "type": "City",
        "enNameLanguage": "Ilobasco",
        "location": {
          "lat": 13.839,
          "lng": -88.852
        },
        "keyAccentLanguage": "ilobasco"
      },
      {
        "code": 0,
        "type": "City",
        "enNameLanguage": "Lomas de Pena",
        "location": {
          "lat": 13.817,
          "lng": -88.9
        },
        "keyAccentLanguage": "lomas_de_pena"
      },
      {
        "code": 0,
        "type": "City",
        "enNameLanguage": "La Calera",
        "location": {
          "lat": 13.95,
          "lng": -88.733
        },
        "keyAccentLanguage": "la_calera"
      },
      {
        "code": 0,
        "type": "City",
        "enNameLanguage": "La Dubona",
        "location": {
          "lat": 13.817,
          "lng": -88.55
        },
        "keyAccentLanguage": "la_dubona"
      },
      {
        "code": 0,
        "type": "City",
        "enNameLanguage": "Concepcion",
        "location": {
          "lat": 13.867,
          "lng": -88.867
        },
        "keyAccentLanguage": "concepcion"
      },
      {
        "code": 0,
        "type": "City",
        "enNameLanguage": "La Joya",
        "location": {
          "lat": 13.933,
          "lng": -88.55
        },
        "keyAccentLanguage": "la_joya"
      },
      {
        "code": 0,
        "type": "City",
        "enNameLanguage": "Buenos Aires",
        "location": {
          "lat": 13.867,
          "lng": -88.8
        },
        "keyAccentLanguage": "buenos_aires"
      },
      {
        "code": 0,
        "type": "City",
        "enNameLanguage": "El Nispero",
        "location": {
          "lat": 13.983,
          "lng": -88.683
        },
        "keyAccentLanguage": "el_nispero"
      },
      {
        "code": 0,
        "type": "City",
        "enNameLanguage": "El Aguacate",
        "location": {
          "lat": 13.867,
          "lng": -88.6
        },
        "keyAccentLanguage": "el_aguacate"
      },
      {
        "code": 0,
        "type": "City",
        "enNameLanguage": "Las Huertas",
        "location": {
          "lat": 13.9,
          "lng": -88.8
        },
        "keyAccentLanguage": "las_huertas"
      },
      {
        "code": 0,
        "type": "City",
        "enNameLanguage": "La Trinidad",
        "location": {
          "lat": 13.933,
          "lng": -88.717
        },
        "keyAccentLanguage": "la_trinidad"
      },
      {
        "code": 0,
        "type": "City",
        "enNameLanguage": "La Montanita",
        "location": {
          "lat": 13.933,
          "lng": -88.6
        },
        "keyAccentLanguage": "la_montanita"
      },
      {
        "code": 0,
        "type": "City",
        "enNameLanguage": "San Isidro",
        "location": {
          "lat": 13.833,
          "lng": -88.717
        },
        "keyAccentLanguage": "san_isidro"
      },
      {
        "code": 0,
        "type": "City",
        "enNameLanguage": "Las Marias",
        "location": {
          "lat": 13.867,
          "lng": -88.55
        },
        "keyAccentLanguage": "las_marias"
      }
    ],
    "enNameLanguage": "Caba침as",
    "keyAccentLanguage": "caba침as"
  },
  {
    "code": 0,
    "type": "State",
    "location": {
      "lat": 14.0164187,
      "lng": -88.91264489999999
    },
    "districtList": [
      {
        "code": 0,
        "type": "City",
        "enNameLanguage": "El Cobanito",
        "location": {
          "lat": 14.083,
          "lng": -89.117
        },
        "keyAccentLanguage": "el_cobanito"
      },
      {
        "code": 0,
        "type": "City",
        "enNameLanguage": "Arcatao",
        "location": {
          "lat": 14.081,
          "lng": -88.75
        },
        "keyAccentLanguage": "arcatao"
      },
      {
        "code": 0,
        "type": "City",
        "enNameLanguage": "Aguacatal",
        "location": {
          "lat": 14.333,
          "lng": -89.117
        },
        "keyAccentLanguage": "aguacatal"
      },
      {
        "code": 0,
        "type": "City",
        "enNameLanguage": "El Roblito",
        "location": {
          "lat": 14.283,
          "lng": -89.233
        },
        "keyAccentLanguage": "el_roblito"
      },
      {
        "code": 0,
        "type": "City",
        "enNameLanguage": "Carolina",
        "location": {
          "lat": 13.95,
          "lng": -88.867
        },
        "keyAccentLanguage": "carolina"
      },
      {
        "code": 0,
        "type": "City",
        "enNameLanguage": "Aposentos",
        "location": {
          "lat": 14.2,
          "lng": -89.117
        },
        "keyAccentLanguage": "aposentos"
      },
      {
        "code": 0,
        "type": "City",
        "enNameLanguage": "Aldeita",
        "location": {
          "lat": 14.133,
          "lng": -89.117
        },
        "keyAccentLanguage": "aldeita"
      },
      {
        "code": 0,
        "type": "City",
        "enNameLanguage": "El Chupadero",
        "location": {
          "lat": 14.233,
          "lng": -88.983
        },
        "keyAccentLanguage": "el_chupadero"
      },
      {
        "code": 0,
        "type": "City",
        "enNameLanguage": "Aldea Vieja",
        "location": {
          "lat": 14.05,
          "lng": -88.85
        },
        "keyAccentLanguage": "aldea_vieja"
      },
      {
        "code": 0,
        "type": "City",
        "enNameLanguage": "Alto El Sitio",
        "location": {
          "lat": 13.983,
          "lng": -88.883
        },
        "keyAccentLanguage": "alto_el_sitio"
      },
      {
        "code": 0,
        "type": "City",
        "enNameLanguage": "Guachipilin",
        "location": {
          "lat": 14.167,
          "lng": -88.967
        },
        "keyAccentLanguage": "guachipilin"
      },
      {
        "code": 0,
        "type": "City",
        "enNameLanguage": "Comalapa",
        "location": {
          "lat": 14.133,
          "lng": -88.95
        },
        "keyAccentLanguage": "comalapa"
      },
      {
        "code": 0,
        "type": "City",
        "enNameLanguage": "El Cipres",
        "location": {
          "lat": 14.183,
          "lng": -88.9
        },
        "keyAccentLanguage": "el_cipres"
      },
      {
        "code": 0,
        "type": "City",
        "enNameLanguage": "Copalio",
        "location": {
          "lat": 14,
          "lng": -88.783
        },
        "keyAccentLanguage": "copalio"
      },
      {
        "code": 0,
        "type": "City",
        "enNameLanguage": "El Zacamil",
        "location": {
          "lat": 14.067,
          "lng": -88.783
        },
        "keyAccentLanguage": "el_zacamil"
      },
      {
        "code": 0,
        "type": "City",
        "enNameLanguage": "Chilamates",
        "location": {
          "lat": 14.05,
          "lng": -89.217
        },
        "keyAccentLanguage": "chilamates"
      },
      {
        "code": 0,
        "type": "City",
        "enNameLanguage": "Escalante",
        "location": {
          "lat": 14,
          "lng": -88.717
        },
        "keyAccentLanguage": "escalante"
      },
      {
        "code": 0,
        "type": "City",
        "enNameLanguage": "Candelaria",
        "location": {
          "lat": 13.967,
          "lng": -88.867
        },
        "keyAccentLanguage": "candelaria"
      },
      {
        "code": 0,
        "type": "City",
        "enNameLanguage": "El Portezuelo",
        "location": {
          "lat": 14.15,
          "lng": -89.267
        },
        "keyAccentLanguage": "el_portezuelo"
      },
      {
        "code": 0,
        "type": "City",
        "enNameLanguage": "El Cerron",
        "location": {
          "lat": 14.267,
          "lng": -89.017
        },
        "keyAccentLanguage": "el_cerron"
      },
      {
        "code": 0,
        "type": "City",
        "enNameLanguage": "El Gramal",
        "location": {
          "lat": 14,
          "lng": -88.917
        },
        "keyAccentLanguage": "el_gramal"
      },
      {
        "code": 0,
        "type": "City",
        "enNameLanguage": "Agua Zarca",
        "location": {
          "lat": 14.133,
          "lng": -89.217
        },
        "keyAccentLanguage": "agua_zarca"
      },
      {
        "code": 0,
        "type": "City",
        "enNameLanguage": "Agua Fria",
        "location": {
          "lat": 14.233,
          "lng": -89.25
        },
        "keyAccentLanguage": "agua_fria"
      },
      {
        "code": 0,
        "type": "City",
        "enNameLanguage": "Chilincito",
        "location": {
          "lat": 14.117,
          "lng": -89.367
        },
        "keyAccentLanguage": "chilincito"
      },
      {
        "code": 0,
        "type": "City",
        "enNameLanguage": "Cerro Grande",
        "location": {
          "lat": 14.083,
          "lng": -88.783
        },
        "keyAccentLanguage": "cerro_grande"
      },
      {
        "code": 0,
        "type": "City",
        "enNameLanguage": "Cuesta de Marina",
        "location": {
          "lat": 14,
          "lng": -88.983
        },
        "keyAccentLanguage": "cuesta_de_marina"
      },
      {
        "code": 0,
        "type": "City",
        "enNameLanguage": "Alvarenga",
        "location": {
          "lat": 14,
          "lng": -88.8
        },
        "keyAccentLanguage": "alvarenga"
      },
      {
        "code": 0,
        "type": "City",
        "enNameLanguage": "El Roblar",
        "location": {
          "lat": 14.3,
          "lng": -89.033
        },
        "keyAccentLanguage": "el_roblar"
      },
      {
        "code": 0,
        "type": "City",
        "enNameLanguage": "Eramon",
        "location": {
          "lat": 14.033,
          "lng": -88.75
        },
        "keyAccentLanguage": "eramon"
      },
      {
        "code": 0,
        "type": "City",
        "enNameLanguage": "Carasque",
        "location": {
          "lat": 14.067,
          "lng": -88.783
        },
        "keyAccentLanguage": "carasque"
      },
      {
        "code": 0,
        "type": "City",
        "enNameLanguage": "Encumbrado",
        "location": {
          "lat": 14.233,
          "lng": -89.25
        },
        "keyAccentLanguage": "encumbrado"
      },
      {
        "code": 0,
        "type": "City",
        "enNameLanguage": "El Ocotal",
        "location": {
          "lat": 14.2,
          "lng": -88.983
        },
        "keyAccentLanguage": "el_ocotal"
      },
      {
        "code": 0,
        "type": "City",
        "enNameLanguage": "Citala",
        "location": {
          "lat": 14.367,
          "lng": -89.217
        },
        "keyAccentLanguage": "citala"
      },
      {
        "code": 0,
        "type": "City",
        "enNameLanguage": "Azacualpa",
        "location": {
          "lat": 13.983,
          "lng": -88.983
        },
        "keyAccentLanguage": "azacualpa"
      },
      {
        "code": 0,
        "type": "City",
        "enNameLanguage": "Agua Caliente",
        "location": {
          "lat": 14.183,
          "lng": -89.233
        },
        "keyAccentLanguage": "agua_caliente"
      },
      {
        "code": 0,
        "type": "City",
        "enNameLanguage": "El Gavilan",
        "location": {
          "lat": 14.05,
          "lng": -89.417
        },
        "keyAccentLanguage": "el_gavilan"
      },
      {
        "code": 0,
        "type": "City",
        "enNameLanguage": "El Izotal",
        "location": {
          "lat": 14.267,
          "lng": -89.1
        },
        "keyAccentLanguage": "el_izotal"
      },
      {
        "code": 0,
        "type": "City",
        "enNameLanguage": "Nueva Trinidad",
        "location": {
          "lat": 14.067,
          "lng": -88.8
        },
        "keyAccentLanguage": "nueva_trinidad"
      },
      {
        "code": 0,
        "type": "City",
        "enNameLanguage": "El Sicahuital",
        "location": {
          "lat": 14,
          "lng": -88.833
        },
        "keyAccentLanguage": "el_sicahuital"
      },
      {
        "code": 0,
        "type": "City",
        "enNameLanguage": "El Conacaste",
        "location": {
          "lat": 14.083,
          "lng": -88.867
        },
        "keyAccentLanguage": "el_conacaste"
      },
      {
        "code": 0,
        "type": "City",
        "enNameLanguage": "El Pepeto",
        "location": {
          "lat": 14.1,
          "lng": -88.967
        },
        "keyAccentLanguage": "el_pepeto"
      },
      {
        "code": 0,
        "type": "City",
        "enNameLanguage": "El Mojon",
        "location": {
          "lat": 14.017,
          "lng": -88.867
        },
        "keyAccentLanguage": "el_mojon"
      },
      {
        "code": 0,
        "type": "City",
        "enNameLanguage": "Cuevitas",
        "location": {
          "lat": 14.2,
          "lng": -88.967
        },
        "keyAccentLanguage": "cuevitas"
      },
      {
        "code": 0,
        "type": "City",
        "enNameLanguage": "El Carrizal",
        "location": {
          "lat": 14.2,
          "lng": -89.083
        },
        "keyAccentLanguage": "el_carrizal"
      },
      {
        "code": 0,
        "type": "City",
        "enNameLanguage": "San Francisco Morazan",
        "location": {
          "lat": 14.183,
          "lng": -89.05
        },
        "keyAccentLanguage": "san_francisco_morazan"
      },
      {
        "code": 0,
        "type": "City",
        "enNameLanguage": "El Transito",
        "location": {
          "lat": 14.15,
          "lng": -89.1
        },
        "keyAccentLanguage": "el_transito"
      },
      {
        "code": 0,
        "type": "City",
        "enNameLanguage": "El Sicahuite",
        "location": {
          "lat": 14.117,
          "lng": -88.917
        },
        "keyAccentLanguage": "el_sicahuite"
      },
      {
        "code": 0,
        "type": "City",
        "enNameLanguage": "San Antonio De La Cruz",
        "location": {
          "lat": 14.017,
          "lng": -88.783
        },
        "keyAccentLanguage": "san_antonio_de_la_cruz"
      },
      {
        "code": 0,
        "type": "City",
        "enNameLanguage": "El Jocotillo",
        "location": {
          "lat": 14.1,
          "lng": -88.983
        },
        "keyAccentLanguage": "el_jocotillo"
      },
      {
        "code": 0,
        "type": "City",
        "enNameLanguage": "Corral Falso",
        "location": {
          "lat": 13.95,
          "lng": -88.883
        },
        "keyAccentLanguage": "corral_falso"
      },
      {
        "code": 0,
        "type": "City",
        "enNameLanguage": "Tejutla",
        "location": {
          "lat": 14.172,
          "lng": -89.101
        },
        "keyAccentLanguage": "tejutla"
      },
      {
        "code": 0,
        "type": "City",
        "enNameLanguage": "Concepcion Quezaltepeque",
        "location": {
          "lat": 14.083,
          "lng": -88.95
        },
        "keyAccentLanguage": "concepcion_quezaltepeque"
      },
      {
        "code": 0,
        "type": "City",
        "enNameLanguage": "San Jose Las Flores",
        "location": {
          "lat": 14.05,
          "lng": -88.833
        },
        "keyAccentLanguage": "san_jose_las_flores"
      },
      {
        "code": 0,
        "type": "City",
        "enNameLanguage": "El Zapotal",
        "location": {
          "lat": 14.117,
          "lng": -88.867
        },
        "keyAccentLanguage": "el_zapotal"
      },
      {
        "code": 0,
        "type": "City",
        "enNameLanguage": "Chiapas",
        "location": {
          "lat": 14.033,
          "lng": -88.883
        },
        "keyAccentLanguage": "chiapas"
      },
      {
        "code": 0,
        "type": "City",
        "enNameLanguage": "El Morro",
        "location": {
          "lat": 14.15,
          "lng": -88.95
        },
        "keyAccentLanguage": "el_morro"
      },
      {
        "code": 0,
        "type": "City",
        "enNameLanguage": "Estanzuelas",
        "location": {
          "lat": 14.133,
          "lng": -89.083
        },
        "keyAccentLanguage": "estanzuelas"
      },
      {
        "code": 0,
        "type": "City",
        "enNameLanguage": "El Terrero",
        "location": {
          "lat": 14.217,
          "lng": -89.05
        },
        "keyAccentLanguage": "el_terrero"
      },
      {
        "code": 0,
        "type": "City",
        "enNameLanguage": "El Salamar",
        "location": {
          "lat": 14.017,
          "lng": -89
        },
        "keyAccentLanguage": "el_salamar"
      },
      {
        "code": 0,
        "type": "City",
        "enNameLanguage": "Coyolar",
        "location": {
          "lat": 14.1,
          "lng": -88.85
        },
        "keyAccentLanguage": "coyolar"
      },
      {
        "code": 0,
        "type": "City",
        "enNameLanguage": "El Tablon",
        "location": {
          "lat": 14.083,
          "lng": -89.067
        },
        "keyAccentLanguage": "el_tablon"
      },
      {
        "code": 0,
        "type": "City",
        "enNameLanguage": "Campamento Numero Uno",
        "location": {
          "lat": 13.983,
          "lng": -88.767
        },
        "keyAccentLanguage": "campamento_numero_uno"
      },
      {
        "code": 0,
        "type": "City",
        "enNameLanguage": "Nombre De Jesus",
        "location": {
          "lat": 14,
          "lng": -88.733
        },
        "keyAccentLanguage": "nombre_de_jesus"
      },
      {
        "code": 0,
        "type": "City",
        "enNameLanguage": "El Chilamate",
        "location": {
          "lat": 14.1,
          "lng": -89
        },
        "keyAccentLanguage": "el_chilamate"
      },
      {
        "code": 0,
        "type": "City",
        "enNameLanguage": "San Jose Cancasque",
        "location": {
          "lat": 13.983,
          "lng": -88.85
        },
        "keyAccentLanguage": "san_jose_cancasque"
      },
      {
        "code": 0,
        "type": "City",
        "enNameLanguage": "El Poy",
        "location": {
          "lat": 14.318,
          "lng": -89.168
        },
        "keyAccentLanguage": "el_poy"
      },
      {
        "code": 0,
        "type": "City",
        "enNameLanguage": "San Luis Del Carmen",
        "location": {
          "lat": 13.967,
          "lng": -88.967
        },
        "keyAccentLanguage": "san_luis_del_carmen"
      },
      {
        "code": 0,
        "type": "City",
        "enNameLanguage": "Las Vueltas",
        "location": {
          "lat": 14.1,
          "lng": -88.883
        },
        "keyAccentLanguage": "las_vueltas"
      },
      {
        "code": 0,
        "type": "City",
        "enNameLanguage": "El Comun",
        "location": {
          "lat": 14.2,
          "lng": -89.033
        },
        "keyAccentLanguage": "el_comun"
      },
      {
        "code": 0,
        "type": "City",
        "enNameLanguage": "Potonico",
        "location": {
          "lat": 13.967,
          "lng": -88.9
        },
        "keyAccentLanguage": "potonico"
      },
      {
        "code": 0,
        "type": "City",
        "enNameLanguage": "Nueva Concepcion",
        "location": {
          "lat": 14.125,
          "lng": -89.295
        },
        "keyAccentLanguage": "nueva_concepcion"
      },
      {
        "code": 0,
        "type": "City",
        "enNameLanguage": "San Antonio Los Ranchos",
        "location": {
          "lat": 14,
          "lng": -88.9
        },
        "keyAccentLanguage": "san_antonio_los_ranchos"
      },
      {
        "code": 0,
        "type": "City",
        "enNameLanguage": "San Isidro Labrador",
        "location": {
          "lat": 14,
          "lng": -88.85
        },
        "keyAccentLanguage": "san_isidro_labrador"
      },
      {
        "code": 0,
        "type": "City",
        "enNameLanguage": "El Achiotal",
        "location": {
          "lat": 14.083,
          "lng": -88.75
        },
        "keyAccentLanguage": "el_achiotal"
      },
      {
        "code": 0,
        "type": "City",
        "enNameLanguage": "El Limon",
        "location": {
          "lat": 14.05,
          "lng": -89
        },
        "keyAccentLanguage": "el_limon"
      },
      {
        "code": 0,
        "type": "City",
        "enNameLanguage": "La Reina",
        "location": {
          "lat": 14.2,
          "lng": -89.15
        },
        "keyAccentLanguage": "la_reina"
      },
      {
        "code": 0,
        "type": "City",
        "enNameLanguage": "El Tigre",
        "location": {
          "lat": 14.167,
          "lng": -89.183
        },
        "keyAccentLanguage": "el_tigre"
      },
      {
        "code": 0,
        "type": "City",
        "enNameLanguage": "Dulce Nombre De Maria",
        "location": {
          "lat": 14.15,
          "lng": -89.017
        },
        "keyAccentLanguage": "dulce_nombre_de_maria"
      },
      {
        "code": 0,
        "type": "City",
        "enNameLanguage": "El Matazano",
        "location": {
          "lat": 14,
          "lng": -88.95
        },
        "keyAccentLanguage": "el_matazano"
      },
      {
        "code": 0,
        "type": "City",
        "enNameLanguage": "El Panal",
        "location": {
          "lat": 14.3,
          "lng": -89.217
        },
        "keyAccentLanguage": "el_panal"
      },
      {
        "code": 0,
        "type": "City",
        "enNameLanguage": "Aguaje Escondido",
        "location": {
          "lat": 14.1,
          "lng": -89.167
        },
        "keyAccentLanguage": "aguaje_escondido"
      },
      {
        "code": 0,
        "type": "City",
        "enNameLanguage": "San Miguel De Mercedes",
        "location": {
          "lat": 14.017,
          "lng": -88.933
        },
        "keyAccentLanguage": "san_miguel_de_mercedes"
      },
      {
        "code": 0,
        "type": "City",
        "enNameLanguage": "El Zapote",
        "location": {
          "lat": 14.033,
          "lng": -88.783
        },
        "keyAccentLanguage": "el_zapote"
      },
      {
        "code": 0,
        "type": "City",
        "enNameLanguage": "El Nisperal",
        "location": {
          "lat": 14.167,
          "lng": -89.267
        },
        "keyAccentLanguage": "el_nisperal"
      },
      {
        "code": 0,
        "type": "City",
        "enNameLanguage": "El Rosario",
        "location": {
          "lat": 14.117,
          "lng": -88.95
        },
        "keyAccentLanguage": "el_rosario"
      },
      {
        "code": 0,
        "type": "City",
        "enNameLanguage": "San Francisco Lempa",
        "location": {
          "lat": 13.967,
          "lng": -89
        },
        "keyAccentLanguage": "san_francisco_lempa"
      },
      {
        "code": 0,
        "type": "City",
        "enNameLanguage": "El Llano",
        "location": {
          "lat": 13.967,
          "lng": -88.983
        },
        "keyAccentLanguage": "el_llano"
      },
      {
        "code": 0,
        "type": "City",
        "enNameLanguage": "El Paraiso",
        "location": {
          "lat": 14.1,
          "lng": -89.067
        },
        "keyAccentLanguage": "el_paraiso"
      },
      {
        "code": 0,
        "type": "City",
        "enNameLanguage": "San Ignacio",
        "location": {
          "lat": 14.333,
          "lng": -89.183
        },
        "keyAccentLanguage": "san_ignacio"
      },
      {
        "code": 0,
        "type": "City",
        "enNameLanguage": "El Camalote",
        "location": {
          "lat": 14.083,
          "lng": -88.75
        },
        "keyAccentLanguage": "el_camalote"
      },
      {
        "code": 0,
        "type": "City",
        "enNameLanguage": "Concepcion",
        "location": {
          "lat": 13.983,
          "lng": -88.8
        },
        "keyAccentLanguage": "concepcion"
      },
      {
        "code": 0,
        "type": "City",
        "enNameLanguage": "San Rafael",
        "location": {
          "lat": 14.133,
          "lng": -89.033
        },
        "keyAccentLanguage": "san_rafael"
      },
      {
        "code": 0,
        "type": "City",
        "enNameLanguage": "La Palma",
        "location": {
          "lat": 14.317,
          "lng": -89.167
        },
        "keyAccentLanguage": "la_palma"
      },
      {
        "code": 0,
        "type": "City",
        "enNameLanguage": "Chalatenango",
        "location": {
          "lat": 14.038,
          "lng": -88.941
        },
        "keyAccentLanguage": "chalatenango"
      },
      {
        "code": 0,
        "type": "City",
        "enNameLanguage": "El Dorado",
        "location": {
          "lat": 14.05,
          "lng": -89
        },
        "keyAccentLanguage": "el_dorado"
      },
      {
        "code": 0,
        "type": "City",
        "enNameLanguage": "San Fernando",
        "location": {
          "lat": 14.3,
          "lng": -89.033
        },
        "keyAccentLanguage": "san_fernando"
      },
      {
        "code": 0,
        "type": "City",
        "enNameLanguage": "Ojos De Agua",
        "location": {
          "lat": 14.133,
          "lng": -88.867
        },
        "keyAccentLanguage": "ojos_de_agua"
      },
      {
        "code": 0,
        "type": "City",
        "enNameLanguage": "Santa Rita",
        "location": {
          "lat": 14.133,
          "lng": -89
        },
        "keyAccentLanguage": "santa_rita"
      },
      {
        "code": 0,
        "type": "City",
        "enNameLanguage": "La Laguna",
        "location": {
          "lat": 14.167,
          "lng": -88.95
        },
        "keyAccentLanguage": "la_laguna"
      },
      {
        "code": 0,
        "type": "City",
        "enNameLanguage": "El Cerron",
        "location": {
          "lat": 14.267,
          "lng": -89.017
        },
        "keyAccentLanguage": "el_cerron"
      }
    ],
    "enNameLanguage": "Chalatenango",
    "keyAccentLanguage": "chalatenango"
  },
  {
    "code": 0,
    "type": "State",
    "location": {
      "lat": 13.8661957,
      "lng": -89.0561532
    },
    "districtList": [
      {
        "code": 0,
        "type": "City",
        "enNameLanguage": "El Rodeo",
        "location": {
          "lat": 13.8661957,
          "lng": -89.0561532
        },
        "keyAccentLanguage": "el_rodeo"
      },
      {
        "code": 0,
        "type": "City",
        "enNameLanguage": "Corozal",
        "location": {
          "lat": 18.3434921,
          "lng": -66.32152239999999
        },
        "keyAccentLanguage": "corozal"
      },
      {
        "code": 0,
        "type": "City",
        "enNameLanguage": "El Carmen",
        "location": {
          "lat": 13.7250533,
          "lng": -88.9042582
        },
        "keyAccentLanguage": "el_carmen"
      },
      {
        "code": 0,
        "type": "City",
        "enNameLanguage": "Istagua",
        "location": {
          "lat": 13.8110465,
          "lng": -89.0346588
        },
        "keyAccentLanguage": "istagua"
      },
      {
        "code": 0,
        "type": "City",
        "enNameLanguage": "Milingo",
        "location": {
          "lat": 13.9154007,
          "lng": -89.0346588
        },
        "keyAccentLanguage": "milingo"
      },
      {
        "code": 0,
        "type": "City",
        "enNameLanguage": "Oratorio De Concepcion",
        "location": {
          "lat": 13.8183783,
          "lng": -89.05734700000001
        },
        "keyAccentLanguage": "oratorio_de_concepcion"
      },
      {
        "code": 0,
        "type": "City",
        "enNameLanguage": "Ichanquezo",
        "location": {
          "lat": 13.8700246,
          "lng": -89.0538997
        },
        "keyAccentLanguage": "ichanquezo"
      },
      {
        "code": 0,
        "type": "City",
        "enNameLanguage": "El Tablon",
        "location": {
          "lat": 13.983,
          "lng": -89.033
        },
        "keyAccentLanguage": "el_tablon"
      },
      {
        "code": 0,
        "type": "City",
        "enNameLanguage": "Cojutepeque",
        "location": {
          "lat": 13.722,
          "lng": -88.936
        },
        "keyAccentLanguage": "cojutepeque"
      },
      {
        "code": 0,
        "type": "City",
        "enNameLanguage": "Consolacion",
        "location": {
          "lat": 13.983,
          "lng": -89.078
        },
        "keyAccentLanguage": "consolacion"
      },
      {
        "code": 0,
        "type": "City",
        "enNameLanguage": "San Jose Guayabal",
        "location": {
          "lat": 13.833,
          "lng": -89.1
        },
        "keyAccentLanguage": "san_jose_guayabal"
      },
      {
        "code": 0,
        "type": "City",
        "enNameLanguage": "Suchitoto",
        "location": {
          "lat": 13.934,
          "lng": -89.024
        },
        "keyAccentLanguage": "suchitoto"
      },
      {
        "code": 0,
        "type": "City",
        "enNameLanguage": "El Espinal",
        "location": {
          "lat": 13.75,
          "lng": -88.867
        },
        "keyAccentLanguage": "el_espinal"
      },
      {
        "code": 0,
        "type": "City",
        "enNameLanguage": "El Pital",
        "location": {
          "lat": 13.95,
          "lng": -88.967
        },
        "keyAccentLanguage": "el_pital"
      },
      {
        "code": 0,
        "type": "City",
        "enNameLanguage": "San Rafael Cedros",
        "location": {
          "lat": 13.733,
          "lng": -88.883
        },
        "keyAccentLanguage": "san_rafael_cedros"
      },
      {
        "code": 0,
        "type": "City",
        "enNameLanguage": "Miraflor Arriba",
        "location": {
          "lat": 13.683,
          "lng": -88.95
        },
        "keyAccentLanguage": "miraflor_arriba"
      },
      {
        "code": 0,
        "type": "City",
        "enNameLanguage": "El Platanar",
        "location": {
          "lat": 13.945,
          "lng": -89.063
        },
        "keyAccentLanguage": "el_platanar"
      },
      {
        "code": 0,
        "type": "City",
        "enNameLanguage": "Estanzuelas",
        "location": {
          "lat": 13.917,
          "lng": -89.05
        },
        "keyAccentLanguage": "estanzuelas"
      },
      {
        "code": 0,
        "type": "City",
        "enNameLanguage": "Palacios",
        "location": {
          "lat": 13.84,
          "lng": -89.074
        },
        "keyAccentLanguage": "palacios"
      },
      {
        "code": 0,
        "type": "City",
        "enNameLanguage": "El Copinol",
        "location": {
          "lat": 13.95,
          "lng": -88.967
        },
        "keyAccentLanguage": "el_copinol"
      },
      {
        "code": 0,
        "type": "City",
        "enNameLanguage": "El Caulote",
        "location": {
          "lat": 13.933,
          "lng": -89.017
        },
        "keyAccentLanguage": "el_caulote"
      },
      {
        "code": 0,
        "type": "City",
        "enNameLanguage": "Copinol",
        "location": {
          "lat": 13.75,
          "lng": -88.883
        },
        "keyAccentLanguage": "copinol"
      },
      {
        "code": 0,
        "type": "City",
        "enNameLanguage": "El Sitio",
        "location": {
          "lat": 13.95,
          "lng": -88.983
        },
        "keyAccentLanguage": "el_sitio"
      },
      {
        "code": 0,
        "type": "City",
        "enNameLanguage": "Montepeque",
        "location": {
          "lat": 13.836,
          "lng": -89.091
        },
        "keyAccentLanguage": "montepeque"
      },
      {
        "code": 0,
        "type": "City",
        "enNameLanguage": "El Jocotal",
        "location": {
          "lat": 13.933,
          "lng": -88.95
        },
        "keyAccentLanguage": "el_jocotal"
      },
      {
        "code": 0,
        "type": "City",
        "enNameLanguage": "Ajuluco",
        "location": {
          "lat": 13.817,
          "lng": -88.933
        },
        "keyAccentLanguage": "ajuluco"
      },
      {
        "code": 0,
        "type": "City",
        "enNameLanguage": "Haciendita",
        "location": {
          "lat": 13.967,
          "lng": -89.117
        },
        "keyAccentLanguage": "haciendita"
      },
      {
        "code": 0,
        "type": "City",
        "enNameLanguage": "San Cristobal",
        "location": {
          "lat": 13.7,
          "lng": -88.9
        },
        "keyAccentLanguage": "san_cristobal"
      },
      {
        "code": 0,
        "type": "City",
        "enNameLanguage": "Copapayo",
        "location": {
          "lat": 13.933,
          "lng": -88.967
        },
        "keyAccentLanguage": "copapayo"
      },
      {
        "code": 0,
        "type": "City",
        "enNameLanguage": "Las Caricias",
        "location": {
          "lat": 13.867,
          "lng": -88.967
        },
        "keyAccentLanguage": "las_caricias"
      },
      {
        "code": 0,
        "type": "City",
        "enNameLanguage": "El Zapote",
        "location": {
          "lat": 13.946,
          "lng": -89.098
        },
        "keyAccentLanguage": "el_zapote"
      },
      {
        "code": 0,
        "type": "City",
        "enNameLanguage": "San Bartolome Perulapia",
        "location": {
          "lat": 13.767,
          "lng": -89.05
        },
        "keyAccentLanguage": "san_bartolome_perulapia"
      },
      {
        "code": 0,
        "type": "City",
        "enNameLanguage": "Concepcion",
        "location": {
          "lat": 13.7,
          "lng": -88.967
        },
        "keyAccentLanguage": "concepcion"
      },
      {
        "code": 0,
        "type": "City",
        "enNameLanguage": "Copalchan",
        "location": {
          "lat": 13.85,
          "lng": -88.967
        },
        "keyAccentLanguage": "copalchan"
      },
      {
        "code": 0,
        "type": "City",
        "enNameLanguage": "El Salitre",
        "location": {
          "lat": 14,
          "lng": -89.033
        },
        "keyAccentLanguage": "el_salitre"
      },
      {
        "code": 0,
        "type": "City",
        "enNameLanguage": "El Centro",
        "location": {
          "lat": 13.733,
          "lng": -88.967
        },
        "keyAccentLanguage": "el_centro"
      },
      {
        "code": 0,
        "type": "City",
        "enNameLanguage": "Hacienda Concepcion",
        "location": {
          "lat": 13.95,
          "lng": -89.033
        },
        "keyAccentLanguage": "hacienda_concepcion"
      },
      {
        "code": 0,
        "type": "City",
        "enNameLanguage": "Cujuapa",
        "location": {
          "lat": 13.7,
          "lng": -88.983
        },
        "keyAccentLanguage": "cujuapa"
      },
      {
        "code": 0,
        "type": "City",
        "enNameLanguage": "Colima",
        "location": {
          "lat": 14.05,
          "lng": -89.133
        },
        "keyAccentLanguage": "colima"
      },
      {
        "code": 0,
        "type": "City",
        "enNameLanguage": "El Pepeto",
        "location": {
          "lat": 13.85,
          "lng": -88.983
        },
        "keyAccentLanguage": "el_pepeto"
      },
      {
        "code": 0,
        "type": "City",
        "enNameLanguage": "Los Menjivar",
        "location": {
          "lat": 13.964,
          "lng": -89.003
        },
        "keyAccentLanguage": "los_menjivar"
      },
      {
        "code": 0,
        "type": "City",
        "enNameLanguage": "Aguacayo",
        "location": {
          "lat": 13.928,
          "lng": -89.049
        },
        "keyAccentLanguage": "aguacayo"
      },
      {
        "code": 0,
        "type": "City",
        "enNameLanguage": "El Espino",
        "location": {
          "lat": 13.75,
          "lng": -89.017
        },
        "keyAccentLanguage": "el_espino"
      },
      {
        "code": 0,
        "type": "City",
        "enNameLanguage": "El Limon",
        "location": {
          "lat": 13.767,
          "lng": -88.983
        },
        "keyAccentLanguage": "el_limon"
      },
      {
        "code": 0,
        "type": "City",
        "enNameLanguage": "Jinuco",
        "location": {
          "lat": 13.717,
          "lng": -88.95
        },
        "keyAccentLanguage": "jinuco"
      },
      {
        "code": 0,
        "type": "City",
        "enNameLanguage": "Finca Victoria",
        "location": {
          "lat": 13.85,
          "lng": -89.1
        },
        "keyAccentLanguage": "finca_victoria"
      },
      {
        "code": 0,
        "type": "City",
        "enNameLanguage": "El Paraiso",
        "location": {
          "lat": 13.767,
          "lng": -89.033
        },
        "keyAccentLanguage": "el_paraiso"
      },
      {
        "code": 0,
        "type": "City",
        "enNameLanguage": "Huisiltepeque",
        "location": {
          "lat": 13.8,
          "lng": -89
        },
        "keyAccentLanguage": "huisiltepeque"
      },
      {
        "code": 0,
        "type": "City",
        "enNameLanguage": "Guadalupe",
        "location": {
          "lat": 13.883,
          "lng": -89
        },
        "keyAccentLanguage": "guadalupe"
      },
      {
        "code": 0,
        "type": "City",
        "enNameLanguage": "Corral Viejo",
        "location": {
          "lat": 13.8,
          "lng": -88.967
        },
        "keyAccentLanguage": "corral_viejo"
      },
      {
        "code": 0,
        "type": "City",
        "enNameLanguage": "Las Lomas",
        "location": {
          "lat": 13.8,
          "lng": -89.05
        },
        "keyAccentLanguage": "las_lomas"
      },
      {
        "code": 0,
        "type": "City",
        "enNameLanguage": "El Calvario",
        "location": {
          "lat": 13.783,
          "lng": -88.917
        },
        "keyAccentLanguage": "el_calvario"
      },
      {
        "code": 0,
        "type": "City",
        "enNameLanguage": "El Triunfo",
        "location": {
          "lat": 13.817,
          "lng": -89.033
        },
        "keyAccentLanguage": "el_triunfo"
      },
      {
        "code": 0,
        "type": "City",
        "enNameLanguage": "Pepeishtenango",
        "location": {
          "lat": 13.917,
          "lng": -89
        },
        "keyAccentLanguage": "pepeishtenango"
      },
      {
        "code": 0,
        "type": "City",
        "enNameLanguage": "Mirandilla",
        "location": {
          "lat": 13.933,
          "lng": -89.1
        },
        "keyAccentLanguage": "mirandilla"
      },
      {
        "code": 0,
        "type": "City",
        "enNameLanguage": "Hacienda Primavera",
        "location": {
          "lat": 13.85,
          "lng": -89.05
        },
        "keyAccentLanguage": "hacienda_primavera"
      },
      {
        "code": 0,
        "type": "City",
        "enNameLanguage": "Tenancingo",
        "location": {
          "lat": 13.833,
          "lng": -88.983
        },
        "keyAccentLanguage": "tenancingo"
      },
      {
        "code": 0,
        "type": "City",
        "enNameLanguage": "Los Zepeda",
        "location": {
          "lat": 13.983,
          "lng": -89.017
        },
        "keyAccentLanguage": "los_zepeda"
      },
      {
        "code": 0,
        "type": "City",
        "enNameLanguage": "Candelaria",
        "location": {
          "lat": 13.717,
          "lng": -88.9
        },
        "keyAccentLanguage": "candelaria"
      },
      {
        "code": 0,
        "type": "City",
        "enNameLanguage": "Buenos Aires",
        "location": {
          "lat": 13.733,
          "lng": -89.033
        },
        "keyAccentLanguage": "buenos_aires"
      },
      {
        "code": 0,
        "type": "City",
        "enNameLanguage": "La Escopeta",
        "location": {
          "lat": 13.933,
          "lng": -88.95
        },
        "keyAccentLanguage": "la_escopeta"
      },
      {
        "code": 0,
        "type": "City",
        "enNameLanguage": "El Trapichon",
        "location": {
          "lat": 13.983,
          "lng": -89.133
        },
        "keyAccentLanguage": "el_trapichon"
      },
      {
        "code": 0,
        "type": "City",
        "enNameLanguage": "Piedra Labrada",
        "location": {
          "lat": 13.85,
          "lng": -89.117
        },
        "keyAccentLanguage": "piedra_labrada"
      },
      {
        "code": 0,
        "type": "City",
        "enNameLanguage": "Michapa",
        "location": {
          "lat": 13.75,
          "lng": -88.983
        },
        "keyAccentLanguage": "michapa"
      },
      {
        "code": 0,
        "type": "City",
        "enNameLanguage": "La Cruz",
        "location": {
          "lat": 13.86,
          "lng": -89.112
        },
        "keyAccentLanguage": "la_cruz"
      },
      {
        "code": 0,
        "type": "City",
        "enNameLanguage": "Santa Cruz Michapa",
        "location": {
          "lat": 13.733,
          "lng": -88.967
        },
        "keyAccentLanguage": "santa_cruz_michapa"
      },
      {
        "code": 0,
        "type": "City",
        "enNameLanguage": "El Carrizal",
        "location": {
          "lat": 13.7,
          "lng": -88.95
        },
        "keyAccentLanguage": "el_carrizal"
      },
      {
        "code": 0,
        "type": "City",
        "enNameLanguage": "El Roblar",
        "location": {
          "lat": 13.91,
          "lng": -89.07
        },
        "keyAccentLanguage": "el_roblar"
      },
      {
        "code": 0,
        "type": "City",
        "enNameLanguage": "Jiboa",
        "location": {
          "lat": 13.75,
          "lng": -88.883
        },
        "keyAccentLanguage": "jiboa"
      },
      {
        "code": 0,
        "type": "City",
        "enNameLanguage": "El Libano",
        "location": {
          "lat": 13.95,
          "lng": -89.15
        },
        "keyAccentLanguage": "el_libano"
      },
      {
        "code": 0,
        "type": "City",
        "enNameLanguage": "Los Naranjos",
        "location": {
          "lat": 13.717,
          "lng": -88.917
        },
        "keyAccentLanguage": "los_naranjos"
      },
      {
        "code": 0,
        "type": "City",
        "enNameLanguage": "Monte San Juan",
        "location": {
          "lat": 13.767,
          "lng": -88.95
        },
        "keyAccentLanguage": "monte_san_juan"
      },
      {
        "code": 0,
        "type": "City",
        "enNameLanguage": "Hacienda America",
        "location": {
          "lat": 13.867,
          "lng": -89.033
        },
        "keyAccentLanguage": "hacienda_america"
      },
      {
        "code": 0,
        "type": "City",
        "enNameLanguage": "La Periquera",
        "location": {
          "lat": 13.967,
          "lng": -89.083
        },
        "keyAccentLanguage": "la_periquera"
      },
      {
        "code": 0,
        "type": "City",
        "enNameLanguage": "El Rosario",
        "location": {
          "lat": 13.683,
          "lng": -88.983
        },
        "keyAccentLanguage": "el_rosario"
      },
      {
        "code": 0,
        "type": "City",
        "enNameLanguage": "Masatepeque",
        "location": {
          "lat": 13.967,
          "lng": -89.1
        },
        "keyAccentLanguage": "masatepeque"
      },
      {
        "code": 0,
        "type": "City",
        "enNameLanguage": "Santa Cruz Analquito",
        "location": {
          "lat": 13.65,
          "lng": -88.95
        },
        "keyAccentLanguage": "santa_cruz_analquito"
      },
      {
        "code": 0,
        "type": "City",
        "enNameLanguage": "El Molino",
        "location": {
          "lat": 13.854,
          "lng": -89.029
        },
        "keyAccentLanguage": "el_molino"
      },
      {
        "code": 0,
        "type": "City",
        "enNameLanguage": "La Bermuda",
        "location": {
          "lat": 13.871,
          "lng": -89.037
        },
        "keyAccentLanguage": "la_bermuda"
      },
      {
        "code": 0,
        "type": "City",
        "enNameLanguage": "Llano Grande",
        "location": {
          "lat": 13.833,
          "lng": -89.083
        },
        "keyAccentLanguage": "llano_grande"
      },
      {
        "code": 0,
        "type": "City",
        "enNameLanguage": "Las Vegas",
        "location": {
          "lat": 13.867,
          "lng": -88.967
        },
        "keyAccentLanguage": "las_vegas"
      },
      {
        "code": 0,
        "type": "City",
        "enNameLanguage": "Buena Vista",
        "location": {
          "lat": 13.717,
          "lng": -89
        },
        "keyAccentLanguage": "buena_vista"
      },
      {
        "code": 0,
        "type": "City",
        "enNameLanguage": "El Conacaste",
        "location": {
          "lat": 13.667,
          "lng": -88.9
        },
        "keyAccentLanguage": "el_conacaste"
      },
      {
        "code": 0,
        "type": "City",
        "enNameLanguage": "Miraflores",
        "location": {
          "lat": 13.767,
          "lng": -89
        },
        "keyAccentLanguage": "miraflores"
      },
      {
        "code": 0,
        "type": "City",
        "enNameLanguage": "La Virgen",
        "location": {
          "lat": 13.683,
          "lng": -88.917
        },
        "keyAccentLanguage": "la_virgen"
      },
      {
        "code": 0,
        "type": "City",
        "enNameLanguage": "La Aldea",
        "location": {
          "lat": 13.867,
          "lng": -89.117
        },
        "keyAccentLanguage": "la_aldea"
      },
      {
        "code": 0,
        "type": "City",
        "enNameLanguage": "La Asuncion",
        "location": {
          "lat": 13.967,
          "lng": -89.117
        },
        "keyAccentLanguage": "la_asuncion"
      },
      {
        "code": 0,
        "type": "City",
        "enNameLanguage": "San Ramon",
        "location": {
          "lat": 13.683,
          "lng": -88.933
        },
        "keyAccentLanguage": "san_ramon"
      },
      {
        "code": 0,
        "type": "City",
        "enNameLanguage": "Loma de Las Delicias",
        "location": {
          "lat": 13.8,
          "lng": -88.933
        },
        "keyAccentLanguage": "loma_de_las_delicias"
      },
      {
        "code": 0,
        "type": "City",
        "enNameLanguage": "La Paz",
        "location": {
          "lat": 13.717,
          "lng": -88.9
        },
        "keyAccentLanguage": "la_paz"
      },
      {
        "code": 0,
        "type": "City",
        "enNameLanguage": "Ojo de Agua",
        "location": {
          "lat": 13.75,
          "lng": -88.933
        },
        "keyAccentLanguage": "ojo_de_agua"
      },
      {
        "code": 0,
        "type": "City",
        "enNameLanguage": "La Esperanza",
        "location": {
          "lat": 13.808,
          "lng": -89.005
        },
        "keyAccentLanguage": "la_esperanza"
      },
      {
        "code": 0,
        "type": "City",
        "enNameLanguage": "El Llano",
        "location": {
          "lat": 13.817,
          "lng": -88.967
        },
        "keyAccentLanguage": "el_llano"
      },
      {
        "code": 0,
        "type": "City",
        "enNameLanguage": "Palo Grande",
        "location": {
          "lat": 13.917,
          "lng": -89.083
        },
        "keyAccentLanguage": "palo_grande"
      },
      {
        "code": 0,
        "type": "City",
        "enNameLanguage": "San Pedro Perulapan",
        "location": {
          "lat": 13.767,
          "lng": -89.033
        },
        "keyAccentLanguage": "san_pedro_perulapan"
      },
      {
        "code": 0,
        "type": "City",
        "enNameLanguage": "La Loma",
        "location": {
          "lat": 13.75,
          "lng": -89.033
        },
        "keyAccentLanguage": "la_loma"
      },
      {
        "code": 0,
        "type": "City",
        "enNameLanguage": "La Trinidad",
        "location": {
          "lat": 13.95,
          "lng": -89
        },
        "keyAccentLanguage": "la_trinidad"
      },
      {
        "code": 0,
        "type": "City",
        "enNameLanguage": "Las Delicias",
        "location": {
          "lat": 13.717,
          "lng": -88.983
        },
        "keyAccentLanguage": "las_delicias"
      },
      {
        "code": 0,
        "type": "City",
        "enNameLanguage": "La Cruz",
        "location": {
          "lat": 13.86,
          "lng": -89.112
        },
        "keyAccentLanguage": "la_cruz"
      },
      {
        "code": 0,
        "type": "City",
        "enNameLanguage": "El Salitre",
        "location": {
          "lat": 14,
          "lng": -89.033
        },
        "keyAccentLanguage": "el_salitre"
      }
    ],
    "enNameLanguage": "Cuscatl치n",
    "keyAccentLanguage": "cuscatl치n"
  },
  {
    "code": 0,
    "type": "State",
    "location": {
      "lat": -8.143593300000001,
      "lng": -78.4751945
    },
    "districtList": [
      {
        "code": 0,
        "type": "City",
        "enNameLanguage": "Club Atami",
        "location": {
          "lat": 13.5048389,
          "lng": -89.4182798
        },
        "keyAccentLanguage": "club_atami"
      },
      {
        "code": 0,
        "type": "City",
        "enNameLanguage": "Ceiba de Guadalupe",
        "location": {
          "lat": -8.143593300000001,
          "lng": -78.4751945
        },
        "keyAccentLanguage": "ceiba_de_guadalupe"
      },
      {
        "code": 0,
        "type": "City",
        "enNameLanguage": "Cuervo Abajo",
        "location": {
          "lat": 13.6156945,
          "lng": -89.4548964
        },
        "keyAccentLanguage": "cuervo_abajo"
      },
      {
        "code": 0,
        "type": "City",
        "enNameLanguage": "Conacaste",
        "location": {
          "lat": 13.775,
          "lng": -89.329167
        },
        "keyAccentLanguage": "conacaste"
      },
      {
        "code": 0,
        "type": "City",
        "enNameLanguage": "El Nispero",
        "location": {
          "lat": 13.51246,
          "lng": -89.572189
        },
        "keyAccentLanguage": "el_nispero"
      },
      {
        "code": 0,
        "type": "City",
        "enNameLanguage": "El Jabalincito",
        "location": {
          "lat": 13.6817661,
          "lng": -89.3606298
        },
        "keyAccentLanguage": "el_jabalincito"
      },
      {
        "code": 0,
        "type": "City",
        "enNameLanguage": "El Palmar",
        "location": {
          "lat": 13.6817661,
          "lng": -89.3606298
        },
        "keyAccentLanguage": "el_palmar"
      },
      {
        "code": 0,
        "type": "City",
        "enNameLanguage": "Colonia El Angel",
        "location": {
          "lat": 13.582592,
          "lng": -89.533067
        },
        "keyAccentLanguage": "colonia_el_angel"
      },
      {
        "code": 0,
        "type": "City",
        "enNameLanguage": "El Pinal",
        "location": {
          "lat": 7.523414900000001,
          "lng": -71.9608808
        },
        "keyAccentLanguage": "el_pinal"
      },
      {
        "code": 0,
        "type": "City",
        "enNameLanguage": "Sacacoyo",
        "location": {
          "lat": 13.7326971,
          "lng": -89.47067299999999
        },
        "keyAccentLanguage": "sacacoyo"
      },
      {
        "code": 0,
        "type": "City",
        "enNameLanguage": "Casa de Piedra",
        "location": {
          "lat": 13.6817661,
          "lng": -89.3606298
        },
        "keyAccentLanguage": "casa_de_piedra"
      },
      {
        "code": 0,
        "type": "City",
        "enNameLanguage": "El Pulido",
        "location": {
          "lat": 36.10413339999999,
          "lng": -5.7460274
        },
        "keyAccentLanguage": "el_pulido"
      },
      {
        "code": 0,
        "type": "City",
        "enNameLanguage": "El Limon",
        "location": {
          "lat": 13.7368599,
          "lng": -89.39142509999999
        },
        "keyAccentLanguage": "el_limon"
      },
      {
        "code": 0,
        "type": "City",
        "enNameLanguage": "Nejapa",
        "location": {
          "lat": 13.8146377,
          "lng": -89.23245759999999
        },
        "keyAccentLanguage": "nejapa"
      },
      {
        "code": 0,
        "type": "City",
        "enNameLanguage": "El Manguito",
        "location": {
          "lat": 13.4769494,
          "lng": -89.1870859
        },
        "keyAccentLanguage": "el_manguito"
      },
      {
        "code": 0,
        "type": "City",
        "enNameLanguage": "El Angel Talcualuya",
        "location": {
          "lat": 13.9395992,
          "lng": -89.3345537
        },
        "keyAccentLanguage": "el_angel_talcualuya"
      },
      {
        "code": 0,
        "type": "City",
        "enNameLanguage": "Zaragoza",
        "location": {
          "lat": 13.5860809,
          "lng": -89.2918473
        },
        "keyAccentLanguage": "zaragoza"
      },
      {
        "code": 0,
        "type": "City",
        "enNameLanguage": "Sitio Del Nino",
        "location": {
          "lat": 13.7889425,
          "lng": -89.3677385
        },
        "keyAccentLanguage": "sitio_del_nino"
      },
      {
        "code": 0,
        "type": "City",
        "enNameLanguage": "Talnique",
        "location": {
          "lat": 13.6666865,
          "lng": -89.4085891
        },
        "keyAccentLanguage": "talnique"
      },
      {
        "code": 0,
        "type": "City",
        "enNameLanguage": "El Penon",
        "location": {
          "lat": -26.4798033,
          "lng": -67.2657213
        },
        "keyAccentLanguage": "el_penon"
      },
      {
        "code": 0,
        "type": "City",
        "enNameLanguage": "El Conacaste",
        "location": {
          "lat": 13.8368424,
          "lng": -89.4020795
        },
        "keyAccentLanguage": "el_conacaste"
      },
      {
        "code": 0,
        "type": "City",
        "enNameLanguage": "Santa Tecla",
        "location": {
          "lat": 13.6757837,
          "lng": -89.2894733
        },
        "keyAccentLanguage": "santa_tecla"
      },
      {
        "code": 0,
        "type": "City",
        "enNameLanguage": "San Jose Villanueva",
        "location": {
          "lat": 13.5599587,
          "lng": -89.2609755
        },
        "keyAccentLanguage": "san_jose_villanueva"
      },
      {
        "code": 0,
        "type": "City",
        "enNameLanguage": "Ciudad Arce",
        "location": {
          "lat": 13.827,
          "lng": -89.426
        },
        "keyAccentLanguage": "ciudad_arce"
      },
      {
        "code": 0,
        "type": "City",
        "enNameLanguage": "Amaquilco",
        "location": {
          "lat": 13.583,
          "lng": -89.25
        },
        "keyAccentLanguage": "amaquilco"
      },
      {
        "code": 0,
        "type": "City",
        "enNameLanguage": "Botoncillal",
        "location": {
          "lat": 13.726,
          "lng": -89.369
        },
        "keyAccentLanguage": "botoncillal"
      },
      {
        "code": 0,
        "type": "City",
        "enNameLanguage": "Chantusnene",
        "location": {
          "lat": 13.887,
          "lng": -89.383
        },
        "keyAccentLanguage": "chantusnene"
      },
      {
        "code": 0,
        "type": "City",
        "enNameLanguage": "El Chilar",
        "location": {
          "lat": 13.827,
          "lng": -89.352
        },
        "keyAccentLanguage": "el_chilar"
      },
      {
        "code": 0,
        "type": "City",
        "enNameLanguage": "El Barillo",
        "location": {
          "lat": 13.615,
          "lng": -89.287
        },
        "keyAccentLanguage": "el_barillo"
      },
      {
        "code": 0,
        "type": "City",
        "enNameLanguage": "Barranca Honda",
        "location": {
          "lat": 13.901,
          "lng": -89.359
        },
        "keyAccentLanguage": "barranca_honda"
      },
      {
        "code": 0,
        "type": "City",
        "enNameLanguage": "Colonia San Benito",
        "location": {
          "lat": 13.7,
          "lng": -89.25
        },
        "keyAccentLanguage": "colonia_san_benito"
      },
      {
        "code": 0,
        "type": "City",
        "enNameLanguage": "Colonia Sitio del Nino",
        "location": {
          "lat": 13.786,
          "lng": -89.373
        },
        "keyAccentLanguage": "colonia_sitio_del_nino"
      },
      {
        "code": 0,
        "type": "City",
        "enNameLanguage": "El Cimarron",
        "location": {
          "lat": 13.533,
          "lng": -89.296
        },
        "keyAccentLanguage": "el_cimarron"
      },
      {
        "code": 0,
        "type": "City",
        "enNameLanguage": "El Mojon",
        "location": {
          "lat": 13.667,
          "lng": -89.5
        },
        "keyAccentLanguage": "el_mojon"
      },
      {
        "code": 0,
        "type": "City",
        "enNameLanguage": "Agua Caliente",
        "location": {
          "lat": 13.869,
          "lng": -89.258
        },
        "keyAccentLanguage": "agua_caliente"
      },
      {
        "code": 0,
        "type": "City",
        "enNameLanguage": "El Angel",
        "location": {
          "lat": 13.575,
          "lng": -89.55
        },
        "keyAccentLanguage": "el_angel"
      },
      {
        "code": 0,
        "type": "City",
        "enNameLanguage": "Chanmico",
        "location": {
          "lat": 13.787,
          "lng": -89.356
        },
        "keyAccentLanguage": "chanmico"
      },