[
  {
    "code": 0,
    "type": "State",
    "location": {
      "lat": 19.362902,
      "lng": -72.4258145
    },
    "districtList": [
      {
        "code": 0,
        "type": "City",
        "enNameLanguage": "Basane",
        "location": {
          "lat": 19.362902,
          "lng": -72.4258145
        },
        "keyAccentLanguage": "basane"
      },
      {
        "code": 0,
        "type": "City",
        "enNameLanguage": "Barbe",
        "location": {
          "lat": 19.362902,
          "lng": -72.4258145
        },
        "keyAccentLanguage": "barbe"
      },
      {
        "code": 0,
        "type": "City",
        "enNameLanguage": "Barada",
        "location": {
          "lat": 19.362902,
          "lng": -72.4258145
        },
        "keyAccentLanguage": "barada"
      },
      {
        "code": 0,
        "type": "City",
        "enNameLanguage": "Verrettes",
        "location": {
          "lat": 19.0487026,
          "lng": -72.47019449999999
        },
        "keyAccentLanguage": "verrettes"
      },
      {
        "code": 0,
        "type": "City",
        "enNameLanguage": "Petite Riviere De L'artibonite",
        "location": {
          "lat": 19.1225923,
          "lng": -72.4775904
        },
        "keyAccentLanguage": "petite_riviere_de_l'artibonite"
      },
      {
        "code": 0,
        "type": "City",
        "enNameLanguage": "Bas La Source",
        "location": {
          "lat": 19.362902,
          "lng": -72.4258145
        },
        "keyAccentLanguage": "bas_la_source"
      },
      {
        "code": 0,
        "type": "City",
        "enNameLanguage": "Bassin Dessources",
        "location": {
          "lat": 19.4772976,
          "lng": -72.63499159999999
        },
        "keyAccentLanguage": "bassin_dessources"
      },
      {
        "code": 0,
        "type": "City",
        "enNameLanguage": "Bastien",
        "location": {
          "lat": 19.0350826,
          "lng": -72.4923816
        },
        "keyAccentLanguage": "bastien"
      },
      {
        "code": 0,
        "type": "City",
        "enNameLanguage": "Grande Saline",
        "location": {
          "lat": 19.2637565,
          "lng": -72.76291259999999
        },
        "keyAccentLanguage": "grande_saline"
      },
      {
        "code": 0,
        "type": "City",
        "enNameLanguage": "Baveux",
        "location": {
          "lat": 19.362902,
          "lng": -72.4258145
        },
        "keyAccentLanguage": "baveux"
      },
      {
        "code": 0,
        "type": "City",
        "enNameLanguage": "Barcadere Trompe",
        "location": {
          "lat": 19.533333,
          "lng": -72.85
        },
        "keyAccentLanguage": "barcadere_trompe"
      },
      {
        "code": 0,
        "type": "City",
        "enNameLanguage": "Baria",
        "location": {
          "lat": 19.362902,
          "lng": -72.4258145
        },
        "keyAccentLanguage": "baria"
      },
      {
        "code": 0,
        "type": "City",
        "enNameLanguage": "Liancourt",
        "location": {
          "lat": 19.1239143,
          "lng": -72.5352716
        },
        "keyAccentLanguage": "liancourt"
      },
      {
        "code": 0,
        "type": "City",
        "enNameLanguage": "Gonaives",
        "location": {
          "lat": 19.4511496,
          "lng": -72.6801576
        },
        "keyAccentLanguage": "gonaives"
      },
      {
        "code": 0,
        "type": "City",
        "enNameLanguage": "Bas Peroux",
        "location": {
          "lat": 19.362902,
          "lng": -72.4258145
        },
        "keyAccentLanguage": "bas_peroux"
      },
      {
        "code": 0,
        "type": "City",
        "enNameLanguage": "Source Chaude",
        "location": {
          "lat": 19.362902,
          "lng": -72.4258145
        },
        "keyAccentLanguage": "source_chaude"
      },
      {
        "code": 0,
        "type": "City",
        "enNameLanguage": "Saint-Marc",
        "location": {
          "lat": 19.104927,
          "lng": -72.69493729999999
        },
        "keyAccentLanguage": "saint-marc"
      },
      {
        "code": 0,
        "type": "City",
        "enNameLanguage": "Bassin Citron",
        "location": {
          "lat": 19.362902,
          "lng": -72.4258145
        },
        "keyAccentLanguage": "bassin_citron"
      },
      {
        "code": 0,
        "type": "City",
        "enNameLanguage": "Batolme",
        "location": {
          "lat": 19.362902,
          "lng": -72.4258145
        },
        "keyAccentLanguage": "batolme"
      },
      {
        "code": 0,
        "type": "City",
        "enNameLanguage": "Barage",
        "location": {
          "lat": 19.362902,
          "lng": -72.4258145
        },
        "keyAccentLanguage": "barage"
      },
      {
        "code": 0,
        "type": "City",
        "enNameLanguage": "Batardo",
        "location": {
          "lat": 19.362902,
          "lng": -72.4258145
        },
        "keyAccentLanguage": "batardo"
      },
      {
        "code": 0,
        "type": "City",
        "enNameLanguage": "Dessalines",
        "location": {
          "lat": 19.2579,
          "lng": -72.517319
        },
        "keyAccentLanguage": "dessalines"
      },
      {
        "code": 0,
        "type": "City",
        "enNameLanguage": "Basil",
        "location": {
          "lat": 19.362902,
          "lng": -72.4258145
        },
        "keyAccentLanguage": "basil"
      },
      {
        "code": 0,
        "type": "City",
        "enNameLanguage": "Baucher",
        "location": {
          "lat": 19.362902,
          "lng": -72.4258145
        },
        "keyAccentLanguage": "baucher"
      },
      {
        "code": 0,
        "type": "City",
        "enNameLanguage": "Achien",
        "location": {
          "lat": 19.362902,
          "lng": -72.4258145
        },
        "keyAccentLanguage": "achien"
      },
      {
        "code": 0,
        "type": "City",
        "enNameLanguage": "Anneau",
        "location": {
          "lat": 19.362902,
          "lng": -72.4258145
        },
        "keyAccentLanguage": "anneau"
      },
      {
        "code": 0,
        "type": "City",
        "enNameLanguage": "Anger",
        "location": {
          "lat": 19.362902,
          "lng": -72.4258145
        },
        "keyAccentLanguage": "anger"
      },
      {
        "code": 0,
        "type": "City",
        "enNameLanguage": "Avon",
        "location": {
          "lat": 19.362902,
          "lng": -72.4258145
        },
        "keyAccentLanguage": "avon"
      },
      {
        "code": 0,
        "type": "City",
        "enNameLanguage": "Armand",
        "location": {
          "lat": 19.362902,
          "lng": -72.4258145
        },
        "keyAccentLanguage": "armand"
      },
      {
        "code": 0,
        "type": "City",
        "enNameLanguage": "Andre",
        "location": {
          "lat": 19.362902,
          "lng": -72.4258145
        },
        "keyAccentLanguage": "andre"
      },
      {
        "code": 0,
        "type": "City",
        "enNameLanguage": "Aubeque",
        "location": {
          "lat": 19.362902,
          "lng": -72.4258145
        },
        "keyAccentLanguage": "aubeque"
      },
      {
        "code": 0,
        "type": "City",
        "enNameLanguage": "Altary",
        "location": {
          "lat": 19.362902,
          "lng": -72.4258145
        },
        "keyAccentLanguage": "altary"
      },
      {
        "code": 0,
        "type": "City",
        "enNameLanguage": "Auguste",
        "location": {
          "lat": 19.362902,
          "lng": -72.4258145
        },
        "keyAccentLanguage": "auguste"
      },
      {
        "code": 0,
        "type": "City",
        "enNameLanguage": "Azor",
        "location": {
          "lat": 19.362902,
          "lng": -72.4258145
        },
        "keyAccentLanguage": "azor"
      },
      {
        "code": 0,
        "type": "City",
        "enNameLanguage": "Banique",
        "location": {
          "lat": 19.362902,
          "lng": -72.4258145
        },
        "keyAccentLanguage": "banique"
      },
      {
        "code": 0,
        "type": "City",
        "enNameLanguage": "Anse Pirogue",
        "location": {
          "lat": 19.362902,
          "lng": -72.4258145
        },
        "keyAccentLanguage": "anse_pirogue"
      },
      {
        "code": 0,
        "type": "City",
        "enNameLanguage": "Adino",
        "location": {
          "lat": 19.362902,
          "lng": -72.4258145
        },
        "keyAccentLanguage": "adino"
      },
      {
        "code": 0,
        "type": "City",
        "enNameLanguage": "Allaie",
        "location": {
          "lat": 19.0186916,
          "lng": -72.41249909999999
        },
        "keyAccentLanguage": "allaie"
      },
      {
        "code": 0,
        "type": "City",
        "enNameLanguage": "Avocat",
        "location": {
          "lat": 19.362902,
          "lng": -72.4258145
        },
        "keyAccentLanguage": "avocat"
      },
      {
        "code": 0,
        "type": "City",
        "enNameLanguage": "Banos",
        "location": {
          "lat": 19.362902,
          "lng": -72.4258145
        },
        "keyAccentLanguage": "banos"
      },
      {
        "code": 0,
        "type": "City",
        "enNameLanguage": "Balai",
        "location": {
          "lat": 19.362902,
          "lng": -72.4258145
        },
        "keyAccentLanguage": "balai"
      },
      {
        "code": 0,
        "type": "City",
        "enNameLanguage": "Amuscat",
        "location": {
          "lat": 19.362902,
          "lng": -72.4258145
        },
        "keyAccentLanguage": "amuscat"
      },
      {
        "code": 0,
        "type": "City",
        "enNameLanguage": "Arena",
        "location": {
          "lat": 19.362902,
          "lng": -72.4258145
        },
        "keyAccentLanguage": "arena"
      },
      {
        "code": 0,
        "type": "City",
        "enNameLanguage": "Barcadere",
        "location": {
          "lat": 19.362902,
          "lng": -72.4258145
        },
        "keyAccentLanguage": "barcadere"
      },
      {
        "code": 0,
        "type": "City",
        "enNameLanguage": "Bassin Laurent",
        "location": {
          "lat": 19.362902,
          "lng": -72.4258145
        },
        "keyAccentLanguage": "bassin_laurent"
      },
      {
        "code": 0,
        "type": "City",
        "enNameLanguage": "Bachette",
        "location": {
          "lat": 19.362902,
          "lng": -72.4258145
        },
        "keyAccentLanguage": "bachette"
      },
      {
        "code": 0,
        "type": "City",
        "enNameLanguage": "Barriere Battant",
        "location": {
          "lat": 19.362902,
          "lng": -72.4258145
        },
        "keyAccentLanguage": "barriere_battant"
      },
      {
        "code": 0,
        "type": "City",
        "enNameLanguage": "Bachelier",
        "location": {
          "lat": 19.362902,
          "lng": -72.4258145
        },
        "keyAccentLanguage": "bachelier"
      },
      {
        "code": 0,
        "type": "City",
        "enNameLanguage": "Bas Madame",
        "location": {
          "lat": 19.362902,
          "lng": -72.4258145
        },
        "keyAccentLanguage": "bas_madame"
      },
      {
        "code": 0,
        "type": "City",
        "enNameLanguage": "Arnaud",
        "location": {
          "lat": 18.9985654,
          "lng": -72.35331169999999
        },
        "keyAccentLanguage": "arnaud"
      },
      {
        "code": 0,
        "type": "City",
        "enNameLanguage": "Alazar",
        "location": {
          "lat": 19.362902,
          "lng": -72.4258145
        },
        "keyAccentLanguage": "alazar"
      },
      {
        "code": 0,
        "type": "City",
        "enNameLanguage": "Atrelle",
        "location": {
          "lat": 19.7333329,
          "lng": -73.066667
        },
        "keyAccentLanguage": "atrelle"
      },
      {
        "code": 0,
        "type": "City",
        "enNameLanguage": "Barade",
        "location": {
          "lat": 19.362902,
          "lng": -72.4258145
        },
        "keyAccentLanguage": "barade"
      },
      {
        "code": 0,
        "type": "City",
        "enNameLanguage": "Babe",
        "location": {
          "lat": 19.362902,
          "lng": -72.4258145
        },
        "keyAccentLanguage": "babe"
      },
      {
        "code": 0,
        "type": "City",
        "enNameLanguage": "Apollon",
        "location": {
          "lat": 19.362902,
          "lng": -72.4258145
        },
        "keyAccentLanguage": "apollon"
      },
      {
        "code": 0,
        "type": "City",
        "enNameLanguage": "Avocar",
        "location": {
          "lat": 19.362902,
          "lng": -72.4258145
        },
        "keyAccentLanguage": "avocar"
      },
      {
        "code": 0,
        "type": "City",
        "enNameLanguage": "Archin",
        "location": {
          "lat": 19.362902,
          "lng": -72.4258145
        },
        "keyAccentLanguage": "archin"
      },
      {
        "code": 0,
        "type": "City",
        "enNameLanguage": "Desdunes",
        "location": {
          "lat": 19.28935,
          "lng": -72.64172649999999
        },
        "keyAccentLanguage": "desdunes"
      },
      {
        "code": 0,
        "type": "City",
        "enNameLanguage": "Arnauld",
        "location": {
          "lat": 18.9985654,
          "lng": -72.35331169999999
        },
        "keyAccentLanguage": "arnauld"
      },
      {
        "code": 0,
        "type": "City",
        "enNameLanguage": "Bailly",
        "location": {
          "lat": 19.362902,
          "lng": -72.4258145
        },
        "keyAccentLanguage": "bailly"
      },
      {
        "code": 0,
        "type": "City",
        "enNameLanguage": "Basse Terre",
        "location": {
          "lat": 15.9965719,
          "lng": -61.73172150000001
        },
        "keyAccentLanguage": "basse_terre"
      },
      {
        "code": 0,
        "type": "City",
        "enNameLanguage": "Bassin Cheval",
        "location": {
          "lat": 19.362902,
          "lng": -72.4258145
        },
        "keyAccentLanguage": "bassin_cheval"
      },
      {
        "code": 0,
        "type": "City",
        "enNameLanguage": "Badon Marchand",
        "location": {
          "lat": 19.6696107,
          "lng": -72.70158789999999
        },
        "keyAccentLanguage": "badon_marchand"
      },
      {
        "code": 0,
        "type": "City",
        "enNameLanguage": "Baille",
        "location": {
          "lat": 19.116667,
          "lng": -72.266667
        },
        "keyAccentLanguage": "baille"
      },
      {
        "code": 0,
        "type": "City",
        "enNameLanguage": "Barrade",
        "location": {
          "lat": 19.362902,
          "lng": -72.4258145
        },
        "keyAccentLanguage": "barrade"
      },
      {
        "code": 0,
        "type": "City",
        "enNameLanguage": "Au Source Sud",
        "location": {
          "lat": 19.447965,
          "lng": -72.6634216
        },
        "keyAccentLanguage": "au_source_sud"
      },
      {
        "code": 0,
        "type": "City",
        "enNameLanguage": "Annivert",
        "location": {
          "lat": 19.4853272,
          "lng": -72.5456233
        },
        "keyAccentLanguage": "annivert"
      },
      {
        "code": 0,
        "type": "City",
        "enNameLanguage": "Bayonnais",
        "location": {
          "lat": 19.413617,
          "lng": -72.4812883
        },
        "keyAccentLanguage": "bayonnais"
      },
      {
        "code": 0,
        "type": "City",
        "enNameLanguage": "Acul Basse Terre",
        "location": {
          "lat": 15.9965719,
          "lng": -61.73172150000001
        },
        "keyAccentLanguage": "acul_basse_terre"
      },
      {
        "code": 0,
        "type": "City",
        "enNameLanguage": "Acul Dipson",
        "location": {
          "lat": 19.214018,
          "lng": -72.6276828
        },
        "keyAccentLanguage": "acul_dipson"
      },
      {
        "code": 0,
        "type": "City",
        "enNameLanguage": "Au Source Nord",
        "location": {
          "lat": 19.331738,
          "lng": -72.6786796
        },
        "keyAccentLanguage": "au_source_nord"
      },
      {
        "code": 0,
        "type": "City",
        "enNameLanguage": "Terre Neuve",
        "location": {
          "lat": 19.5996545,
          "lng": -72.7799035
        },
        "keyAccentLanguage": "terre_neuve"
      },
      {
        "code": 0,
        "type": "City",
        "enNameLanguage": "Augier",
        "location": {
          "lat": 18.9636145,
          "lng": -72.718583
        },
        "keyAccentLanguage": "augier"
      },
      {
        "code": 0,
        "type": "City",
        "enNameLanguage": "Baie Bouvard",
        "location": {
          "lat": 19.536529,
          "lng": -72.8109274
        },
        "keyAccentLanguage": "baie_bouvard"
      },
      {
        "code": 0,
        "type": "City",
        "enNameLanguage": "Barateau",
        "location": {
          "lat": 19.6863761,
          "lng": -72.76956129999999
        },
        "keyAccentLanguage": "barateau"
      },
      {
        "code": 0,
        "type": "City",
        "enNameLanguage": "Balotte",
        "location": {
          "lat": 19.5,
          "lng": -72.41666699999999
        },
        "keyAccentLanguage": "balotte"
      },
      {
        "code": 0,
        "type": "City",
        "enNameLanguage": "Anse Rouge",
        "location": {
          "lat": 19.6356293,
          "lng": -73.0538097
        },
        "keyAccentLanguage": "anse_rouge"
      },
      {
        "code": 0,
        "type": "City",
        "enNameLanguage": "Desarmes",
        "location": {
          "lat": 18.9877013,
          "lng": -72.3888257
        },
        "keyAccentLanguage": "desarmes"
      },
      {
        "code": 0,
        "type": "City",
        "enNameLanguage": "Gros Morne",
        "location": {
          "lat": 19.6677746,
          "lng": -72.6757236
        },
        "keyAccentLanguage": "gros_morne"
      },
      {
        "code": 0,
        "type": "City",
        "enNameLanguage": "Bassin Long",
        "location": {
          "lat": 19.6975328,
          "lng": -73.1021348
        },
        "keyAccentLanguage": "bassin_long"
      },
      {
        "code": 0,
        "type": "City",
        "enNameLanguage": "Pont De L'estere",
        "location": {
          "lat": 19.3057381,
          "lng": -72.6082751
        },
        "keyAccentLanguage": "pont_de_l'estere"
      },
      {
        "code": 0,
        "type": "City",
        "enNameLanguage": "Basse Mory",
        "location": {
          "lat": 18.9822045,
          "lng": -72.3729189
        },
        "keyAccentLanguage": "basse_mory"
      },
      {
        "code": 0,
        "type": "City",
        "enNameLanguage": "St.-michel De L'atalaye",
        "location": {
          "lat": 19.3713028,
          "lng": -72.3370328
        },
        "keyAccentLanguage": "st.-michel_de_l'atalaye"
      },
      {
        "code": 0,
        "type": "City",
        "enNameLanguage": "Bambou",
        "location": {
          "lat": 19.362902,
          "lng": -72.4258145
        },
        "keyAccentLanguage": "bambou"
      },
      {
        "code": 0,
        "type": "City",
        "enNameLanguage": "Ananas",
        "location": {
          "lat": 19.233,
          "lng": -72.333
        },
        "keyAccentLanguage": "ananas"
      },
      {
        "code": 0,
        "type": "City",
        "enNameLanguage": "Adjoux",
        "location": {
          "lat": 19.267,
          "lng": -72.6
        },
        "keyAccentLanguage": "adjoux"
      },
      {
        "code": 0,
        "type": "City",
        "enNameLanguage": "Alhadere",
        "location": {
          "lat": 19.35,
          "lng": -72.4
        },
        "keyAccentLanguage": "alhadere"
      },
      {
        "code": 0,
        "type": "City",
        "enNameLanguage": "Bac d'Aquin",
        "location": {
          "lat": 19.233,
          "lng": -72.633
        },
        "keyAccentLanguage": "bac_d'aquin"
      },
      {
        "code": 0,
        "type": "City",
        "enNameLanguage": "Bambou Rigaud",
        "location": {
          "lat": 19.15,
          "lng": -72.433
        },
        "keyAccentLanguage": "bambou_rigaud"
      },
      {
        "code": 0,
        "type": "City",
        "enNameLanguage": "Bas de Sault",
        "location": {
          "lat": 19.45,
          "lng": -72.317
        },
        "keyAccentLanguage": "bas_de_sault"
      },
      {
        "code": 0,
        "type": "City",
        "enNameLanguage": "Baden",
        "location": {
          "lat": 19.667,
          "lng": -72.717
        },
        "keyAccentLanguage": "baden"
      },
      {
        "code": 0,
        "type": "City",
        "enNameLanguage": "Baptiste",
        "location": {
          "lat": 19.433,
          "lng": -72.317
        },
        "keyAccentLanguage": "baptiste"
      },
      {
        "code": 0,
        "type": "City",
        "enNameLanguage": "Bas Fourrien",
        "location": {
          "lat": 19.033,
          "lng": -72.25
        },
        "keyAccentLanguage": "bas_fourrien"
      },
      {
        "code": 0,
        "type": "City",
        "enNameLanguage": "L'estere Large",
        "location": {
          "lat": 19.333,
          "lng": -72.667
        },
        "keyAccentLanguage": "l'estere_large"
      },
      {
        "code": 0,
        "type": "City",
        "enNameLanguage": "Bassin",
        "location": {
          "lat": 19.483,
          "lng": -72.667
        },
        "keyAccentLanguage": "bassin"
      },
      {
        "code": 0,
        "type": "City",
        "enNameLanguage": "Ennery",
        "location": {
          "lat": 19.483,
          "lng": -72.483
        },
        "keyAccentLanguage": "ennery"
      },
      {
        "code": 0,
        "type": "City",
        "enNameLanguage": "Balifoudray",
        "location": {
          "lat": 19.15,
          "lng": -72.633
        },
        "keyAccentLanguage": "balifoudray"
      },
      {
        "code": 0,
        "type": "City",
        "enNameLanguage": "La Chapelle",
        "location": {
          "lat": 18.91,
          "lng": -72.31
        },
        "keyAccentLanguage": "la_chapelle"
      },
      {
        "code": 0,
        "type": "City",
        "enNameLanguage": "Bauvrai",
        "location": {
          "lat": 19.583,
          "lng": -72.55
        },
        "keyAccentLanguage": "bauvrai"
      },
      {
        "code": 0,
        "type": "City",
        "enNameLanguage": "Marmelade",
        "location": {
          "lat": 19.517,
          "lng": -72.35
        },
        "keyAccentLanguage": "marmelade"
      }
    ],
    "enNameLanguage": "Artibonite",
    "keyAccentLanguage": "artibonite"
  },
  {
    "code": 0,
    "type": "State",
    "location": {
      "lat": 40.8765649,
      "lng": -77.8367282
    },
    "districtList": [
      {
        "code": 0,
        "type": "City",
        "enNameLanguage": "Bouli",
        "location": {
          "lat": 5.5920207,
          "lng": 14.0856133
        },
        "keyAccentLanguage": "bouli"
      },
      {
        "code": 0,
        "type": "City",
        "enNameLanguage": "Blanchard",
        "location": {
          "lat": 41.0642317,
          "lng": -77.5977702
        },
        "keyAccentLanguage": "blanchard"
      },
      {
        "code": 0,
        "type": "City",
        "enNameLanguage": "Baron",
        "location": {
          "lat": 0.550118,
          "lng": 35.2451733
        },
        "keyAccentLanguage": "baron"
      },
      {
        "code": 0,
        "type": "City",
        "enNameLanguage": "Aumond",
        "location": {
          "lat": 46.470341,
          "lng": -75.891311
        },
        "keyAccentLanguage": "aumond"
      },
      {
        "code": 0,
        "type": "City",
        "enNameLanguage": "Ambroise",
        "location": {
          "lat": 47.4102975,
          "lng": 0.9798939999999999
        },
        "keyAccentLanguage": "ambroise"
      },
      {
        "code": 0,
        "type": "City",
        "enNameLanguage": "Ananas",
        "location": {
          "lat": -1.2609979,
          "lng": 36.8033742
        },
        "keyAccentLanguage": "ananas"
      },
      {
        "code": 0,
        "type": "City",
        "enNameLanguage": "Bois d'Orme",
        "location": {
          "lat": 18.1802185,
          "lng": -71.7907907
        },
        "keyAccentLanguage": "bois_d'orme"
      },
      {
        "code": 0,
        "type": "City",
        "enNameLanguage": "Baptiste",
        "location": {
          "lat": 54.4850998,
          "lng": -6.191228799999999
        },
        "keyAccentLanguage": "baptiste"
      },
      {
        "code": 0,
        "type": "City",
        "enNameLanguage": "Mirebalais",
        "location": {
          "lat": 18.8350125,
          "lng": -72.1031057
        },
        "keyAccentLanguage": "mirebalais"
      },
      {
        "code": 0,
        "type": "City",
        "enNameLanguage": "Cerca La Source",
        "location": {
          "lat": 19.1641495,
          "lng": -71.7889374
        },
        "keyAccentLanguage": "cerca_la_source"
      },
      {
        "code": 0,
        "type": "City",
        "enNameLanguage": "Bois Lance",
        "location": {
          "lat": 47.7515686,
          "lng": 1.6750631
        },
        "keyAccentLanguage": "bois_lance"
      },
      {
        "code": 0,
        "type": "City",
        "enNameLanguage": "Baille Tourrible",
        "location": {
          "lat": 19.0293772,
          "lng": -72.0796682
        },
        "keyAccentLanguage": "baille_tourrible"
      },
      {
        "code": 0,
        "type": "City",
        "enNameLanguage": "Aguahedionde",
        "location": {
          "lat": 19.133,
          "lng": -71.9
        },
        "keyAccentLanguage": "aguahedionde"
      },
      {
        "code": 0,
        "type": "City",
        "enNameLanguage": "Basse Thomonde",
        "location": {
          "lat": 19.017,
          "lng": -71.933
        },
        "keyAccentLanguage": "basse_thomonde"
      },
      {
        "code": 0,
        "type": "City",
        "enNameLanguage": "Basse",
        "location": {
          "lat": 18.817,
          "lng": -71.817
        },
        "keyAccentLanguage": "basse"
      },
      {
        "code": 0,
        "type": "City",
        "enNameLanguage": "Bellevue",
        "location": {
          "lat": 18.883,
          "lng": -72.133
        },
        "keyAccentLanguage": "bellevue"
      },
      {
        "code": 0,
        "type": "City",
        "enNameLanguage": "Atelcoup",
        "location": {
          "lat": 19,
          "lng": -71.817
        },
        "keyAccentLanguage": "atelcoup"
      },
      {
        "code": 0,
        "type": "City",
        "enNameLanguage": "Balandrie",
        "location": {
          "lat": 18.977,
          "lng": -72.093
        },
        "keyAccentLanguage": "balandrie"
      },
      {
        "code": 0,
        "type": "City",
        "enNameLanguage": "Baraque",
        "location": {
          "lat": 19.033,
          "lng": -72.033
        },
        "keyAccentLanguage": "baraque"
      },
      {
        "code": 0,
        "type": "City",
        "enNameLanguage": "Anneau",
        "location": {
          "lat": 19.033,
          "lng": -72.2
        },
        "keyAccentLanguage": "anneau"
      },
      {
        "code": 0,
        "type": "City",
        "enNameLanguage": "Barbin",
        "location": {
          "lat": 18.833,
          "lng": -72.267
        },
        "keyAccentLanguage": "barbin"
      },
      {
        "code": 0,
        "type": "City",
        "enNameLanguage": "Belle Epee",
        "location": {
          "lat": 18.993,
          "lng": -72.183
        },
        "keyAccentLanguage": "belle_epee"
      },
      {
        "code": 0,
        "type": "City",
        "enNameLanguage": "Bas Jacob",
        "location": {
          "lat": 19.167,
          "lng": -71.933
        },
        "keyAccentLanguage": "bas_jacob"
      },
      {
        "code": 0,
        "type": "City",
        "enNameLanguage": "Bastien",
        "location": {
          "lat": 18.95,
          "lng": -72.067
        },
        "keyAccentLanguage": "bastien"
      },
      {
        "code": 0,
        "type": "City",
        "enNameLanguage": "Baranque",
        "location": {
          "lat": 18.8,
          "lng": -71.767
        },
        "keyAccentLanguage": "baranque"
      },
      {
        "code": 0,
        "type": "City",
        "enNameLanguage": "Abeille",
        "location": {
          "lat": 18.767,
          "lng": -72.017
        },
        "keyAccentLanguage": "abeille"
      },
      {
        "code": 0,
        "type": "City",
        "enNameLanguage": "Bangoule",
        "location": {
          "lat": 18.833,
          "lng": -71.983
        },
        "keyAccentLanguage": "bangoule"
      },
      {
        "code": 0,
        "type": "City",
        "enNameLanguage": "Bois Cochon",
        "location": {
          "lat": 18.767,
          "lng": -71.816
        },
        "keyAccentLanguage": "bois_cochon"
      },
      {
        "code": 0,
        "type": "City",
        "enNameLanguage": "Appolion",
        "location": {
          "lat": 19.283,
          "lng": -71.95
        },
        "keyAccentLanguage": "appolion"
      },
      {
        "code": 0,
        "type": "City",
        "enNameLanguage": "Bien Place",
        "location": {
          "lat": 18.75,
          "lng": -72.167
        },
        "keyAccentLanguage": "bien_place"
      },
      {
        "code": 0,
        "type": "City",
        "enNameLanguage": "Bayas",
        "location": {
          "lat": 18.8,
          "lng": -72.05
        },
        "keyAccentLanguage": "bayas"
      },
      {
        "code": 0,
        "type": "City",
        "enNameLanguage": "Boduy",
        "location": {
          "lat": 18.8,
          "lng": -72.017
        },
        "keyAccentLanguage": "boduy"
      },
      {
        "code": 0,
        "type": "City",
        "enNameLanguage": "Bercerie",
        "location": {
          "lat": 18.75,
          "lng": -71.8
        },
        "keyAccentLanguage": "bercerie"
      },
      {
        "code": 0,
        "type": "City",
        "enNameLanguage": "Benaco",
        "location": {
          "lat": 18.95,
          "lng": -72.15
        },
        "keyAccentLanguage": "benaco"
      },
      {
        "code": 0,
        "type": "City",
        "enNameLanguage": "Bissainthe",
        "location": {
          "lat": 18.85,
          "lng": -71.95
        },
        "keyAccentLanguage": "bissainthe"
      },
      {
        "code": 0,
        "type": "City",
        "enNameLanguage": "Barriere Gaule",
        "location": {
          "lat": 18.85,
          "lng": -71.967
        },
        "keyAccentLanguage": "barriere_gaule"
      },
      {
        "code": 0,
        "type": "City",
        "enNameLanguage": "Bateille",
        "location": {
          "lat": 19.2,
          "lng": -72.167
        },
        "keyAccentLanguage": "bateille"
      },
      {
        "code": 0,
        "type": "City",
        "enNameLanguage": "Billiguy",
        "location": {
          "lat": 19.25,
          "lng": -72.217
        },
        "keyAccentLanguage": "billiguy"
      },
      {
        "code": 0,
        "type": "City",
        "enNameLanguage": "Bois Magot",
        "location": {
          "lat": 19.067,
          "lng": -72.167
        },
        "keyAccentLanguage": "bois_magot"
      },
      {
        "code": 0,
        "type": "City",
        "enNameLanguage": "Bassin Visite",
        "location": {
          "lat": 18.75,
          "lng": -71.883
        },
        "keyAccentLanguage": "bassin_visite"
      },
      {
        "code": 0,
        "type": "City",
        "enNameLanguage": "Bidal",
        "location": {
          "lat": 18.85,
          "lng": -71.833
        },
        "keyAccentLanguage": "bidal"
      },
      {
        "code": 0,
        "type": "City",
        "enNameLanguage": "Bocage",
        "location": {
          "lat": 18.833,
          "lng": -72.217
        },
        "keyAccentLanguage": "bocage"
      },
      {
        "code": 0,
        "type": "City",
        "enNameLanguage": "Au Pig",
        "location": {
          "lat": 18.933,
          "lng": -72.183
        },
        "keyAccentLanguage": "au_pig"
      },
      {
        "code": 0,
        "type": "City",
        "enNameLanguage": "Bajaux",
        "location": {
          "lat": 18.913,
          "lng": -72.196
        },
        "keyAccentLanguage": "bajaux"
      },
      {
        "code": 0,
        "type": "City",
        "enNameLanguage": "Bassin Coco",
        "location": {
          "lat": 19.183,
          "lng": -71.8
        },
        "keyAccentLanguage": "bassin_coco"
      },
      {
        "code": 0,
        "type": "City",
        "enNameLanguage": "Biassou",
        "location": {
          "lat": 19.1,
          "lng": -71.717
        },
        "keyAccentLanguage": "biassou"
      },
      {
        "code": 0,
        "type": "City",
        "enNameLanguage": "Thomonde",
        "location": {
          "lat": 18.999,
          "lng": -71.947
        },
        "keyAccentLanguage": "thomonde"
      },
      {
        "code": 0,
        "type": "City",
        "enNameLanguage": "Saltadere",
        "location": {
          "lat": 19.133,
          "lng": -71.733
        },
        "keyAccentLanguage": "saltadere"
      },
      {
        "code": 0,
        "type": "City",
        "enNameLanguage": "Bailly",
        "location": {
          "lat": 19.133,
          "lng": -71.983
        },
        "keyAccentLanguage": "bailly"
      },
      {
        "code": 0,
        "type": "City",
        "enNameLanguage": "Beneche",
        "location": {
          "lat": 19.017,
          "lng": -71.933
        },
        "keyAccentLanguage": "beneche"
      },
      {
        "code": 0,
        "type": "City",
        "enNameLanguage": "Bernard",
        "location": {
          "lat": 19.2,
          "lng": -72.15
        },
        "keyAccentLanguage": "bernard"
      },
      {
        "code": 0,
        "type": "City",
        "enNameLanguage": "Belle Terre",
        "location": {
          "lat": 18.767,
          "lng": -71.833
        },
        "keyAccentLanguage": "belle_terre"
      },
      {
        "code": 0,
        "type": "City",
        "enNameLanguage": "Beau Pere",
        "location": {
          "lat": 18.933,
          "lng": -72.2
        },
        "keyAccentLanguage": "beau_pere"
      },
      {
        "code": 0,
        "type": "City",
        "enNameLanguage": "Maissade",
        "location": {
          "lat": 19.167,
          "lng": -72.133
        },
        "keyAccentLanguage": "maissade"
      },
      {
        "code": 0,
        "type": "City",
        "enNameLanguage": "Abrio",
        "location": {
          "lat": 19.067,
          "lng": -72.117
        },
        "keyAccentLanguage": "abrio"
      },
      {
        "code": 0,
        "type": "City",
        "enNameLanguage": "Balthazar",
        "location": {
          "lat": 19.25,
          "lng": -71.833
        },
        "keyAccentLanguage": "balthazar"
      },
      {
        "code": 0,
        "type": "City",
        "enNameLanguage": "Bel Air",
        "location": {
          "lat": 18.9,
          "lng": -72.167
        },
        "keyAccentLanguage": "bel_air"
      },
      {
        "code": 0,
        "type": "City",
        "enNameLanguage": "Bois Jaune",
        "location": {
          "lat": 18.8,
          "lng": -71.85
        },
        "keyAccentLanguage": "bois_jaune"
      },
      {
        "code": 0,
        "type": "City",
        "enNameLanguage": "Baycite",
        "location": {
          "lat": 19.05,
          "lng": -72.05
        },
        "keyAccentLanguage": "baycite"
      },
      {
        "code": 0,
        "type": "City",
        "enNameLanguage": "Batier",
        "location": {
          "lat": 18.9,
          "lng": -71.8
        },
        "keyAccentLanguage": "batier"
      },
      {
        "code": 0,
        "type": "City",
        "enNameLanguage": "Bassin Soleil",
        "location": {
          "lat": 19.167,
          "lng": -71.967
        },
        "keyAccentLanguage": "bassin_soleil"
      },
      {
        "code": 0,
        "type": "City",
        "enNameLanguage": "Barranque",
        "location": {
          "lat": 19.017,
          "lng": -71.867
        },
        "keyAccentLanguage": "barranque"
      },
      {
        "code": 0,
        "type": "City",
        "enNameLanguage": "Barot",
        "location": {
          "lat": 18.733,
          "lng": -72.1
        },
        "keyAccentLanguage": "barot"
      },
      {
        "code": 0,
        "type": "City",
        "enNameLanguage": "Lascahobas",
        "location": {
          "lat": 18.824,
          "lng": -71.94
        },
        "keyAccentLanguage": "lascahobas"
      },
      {
        "code": 0,
        "type": "City",
        "enNameLanguage": "Bois Couleuvres",
        "location": {
          "lat": 19.283,
          "lng": -71.933
        },
        "keyAccentLanguage": "bois_couleuvres"
      },
      {
        "code": 0,
        "type": "City",
        "enNameLanguage": "Hinche",
        "location": {
          "lat": 19.143,
          "lng": -72.004
        },
        "keyAccentLanguage": "hinche"
      },
      {
        "code": 0,
        "type": "City",
        "enNameLanguage": "Bedouet",
        "location": {
          "lat": 18.833,
          "lng": -72.25
        },
        "keyAccentLanguage": "bedouet"
      },
      {
        "code": 0,
        "type": "City",
        "enNameLanguage": "Belotte",
        "location": {
          "lat": 18.9,
          "lng": -72.05
        },
        "keyAccentLanguage": "belotte"
      },
      {
        "code": 0,
        "type": "City",
        "enNameLanguage": "Belbede",
        "location": {
          "lat": 18.912,
          "lng": -72.24
        },
        "keyAccentLanguage": "belbede"
      },
      {
        "code": 0,
        "type": "City",
        "enNameLanguage": "Blancon",
        "location": {
          "lat": 18.833,
          "lng": -72.2
        },
        "keyAccentLanguage": "blancon"
      },
      {
        "code": 0,
        "type": "City",
        "enNameLanguage": "Bois Joli",
        "location": {
          "lat": 18.954,
          "lng": -72.05
        },
        "keyAccentLanguage": "bois_joli"
      },
      {
        "code": 0,
        "type": "City",
        "enNameLanguage": "Barestyl",
        "location": {
          "lat": 19.267,
          "lng": -71.867
        },
        "keyAccentLanguage": "barestyl"
      },
      {
        "code": 0,
        "type": "City",
        "enNameLanguage": "Berlin",
        "location": {
          "lat": 18.817,
          "lng": -72.167
        },
        "keyAccentLanguage": "berlin"
      },
      {
        "code": 0,
        "type": "City",
        "enNameLanguage": "La Miel",
        "location": {
          "lat": 19.233,
          "lng": -71.733
        },
        "keyAccentLanguage": "la_miel"
      },
      {
        "code": 0,
        "type": "City",
        "enNameLanguage": "Cerca Carvajal",
        "location": {
          "lat": 19.269,
          "lng": -71.938
        },
        "keyAccentLanguage": "cerca_carvajal"
      },
      {
        "code": 0,
        "type": "City",
        "enNameLanguage": "Ville Bonheur",
        "location": {
          "lat": 18.817,
          "lng": -72.2
        },
        "keyAccentLanguage": "ville_bonheur"
      },
      {
        "code": 0,
        "type": "City",
        "enNameLanguage": "Thomassique",
        "location": {
          "lat": 19.086,
          "lng": -71.833
        },
        "keyAccentLanguage": "thomassique"
      },
      {
        "code": 0,
        "type": "City",
        "enNameLanguage": "Bedine",
        "location": {
          "lat": 18.9,
          "lng": -71.9
        },
        "keyAccentLanguage": "bedine"
      },
      {
        "code": 0,
        "type": "City",
        "enNameLanguage": "Batey",
        "location": {
          "lat": 18.95,
          "lng": -71.9
        },
        "keyAccentLanguage": "batey"
      },
      {
        "code": 0,
        "type": "City",
        "enNameLanguage": "Began Nabe",
        "location": {
          "lat": 19.183,
          "lng": -72.017
        },
        "keyAccentLanguage": "began_nabe"
      },
      {
        "code": 0,
        "type": "City",
        "enNameLanguage": "Abricot",
        "location": {
          "lat": 19.15,
          "lng": -71.783
        },
        "keyAccentLanguage": "abricot"
      },
      {
        "code": 0,
        "type": "City",
        "enNameLanguage": "Benjamin",
        "location": {
          "lat": 19.15,
          "lng": -72.183
        },
        "keyAccentLanguage": "benjamin"
      },
      {
        "code": 0,
        "type": "City",
        "enNameLanguage": "Bintorrible",
        "location": {
          "lat": 19.033,
          "lng": -71.917
        },
        "keyAccentLanguage": "bintorrible"
      },
      {
        "code": 0,
        "type": "City",
        "enNameLanguage": "Bois l'Etat",
        "location": {
          "lat": 18.733,
          "lng": -72.167
        },
        "keyAccentLanguage": "bois_l'etat"
      },
      {
        "code": 0,
        "type": "City",
        "enNameLanguage": "Belladere",
        "location": {
          "lat": 18.869,
          "lng": -71.747
        },
        "keyAccentLanguage": "belladere"
      },
      {
        "code": 0,
        "type": "City",
        "enNameLanguage": "Bigaille",
        "location": {
          "lat": 18.967,
          "lng": -71.917
        },
        "keyAccentLanguage": "bigaille"
      },
      {
        "code": 0,
        "type": "City",
        "enNameLanguage": "Bocaba",
        "location": {
          "lat": 19.267,
          "lng": -71.9
        },
        "keyAccentLanguage": "bocaba"
      },
      {
        "code": 0,
        "type": "City",
        "enNameLanguage": "Au Large",
        "location": {
          "lat": 18.883,
          "lng": -71.85
        },
        "keyAccentLanguage": "au_large"
      },
      {
        "code": 0,
        "type": "City",
        "enNameLanguage": "Belle Branche",
        "location": {
          "lat": 19.1,
          "lng": -71.95
        },
        "keyAccentLanguage": "belle_branche"
      },
      {
        "code": 0,
        "type": "City",
        "enNameLanguage": "Biton",
        "location": {
          "lat": 18.983,
          "lng": -71.9
        },
        "keyAccentLanguage": "biton"
      },
      {
        "code": 0,
        "type": "City",
        "enNameLanguage": "Boc Banic",
        "location": {
          "lat": 19.05,
          "lng": -71.75
        },
        "keyAccentLanguage": "boc_banic"
      },
      {
        "code": 0,
        "type": "City",
        "enNameLanguage": "Savanette",
        "location": {
          "lat": 18.744,
          "lng": -71.824
        },
        "keyAccentLanguage": "savanette"
      },
      {
        "code": 0,
        "type": "City",
        "enNameLanguage": "Bento",
        "location": {
          "lat": 18.967,
          "lng": -72.067
        },
        "keyAccentLanguage": "bento"
      },
      {
        "code": 0,
        "type": "City",
        "enNameLanguage": "Belle Blade",
        "location": {
          "lat": 18.733,
          "lng": -71.867
        },
        "keyAccentLanguage": "belle_blade"
      },
      {
        "code": 0,
        "type": "City",
        "enNameLanguage": "Dufally",
        "location": {
          "lat": 18.917,
          "lng": -72.083
        },
        "keyAccentLanguage": "dufally"
      },
      {
        "code": 0,
        "type": "City",
        "enNameLanguage": "Boucan Carre",
        "location": {
          "lat": 18.967,
          "lng": -72.2
        },
        "keyAccentLanguage": "boucan_carre"
      },
      {
        "code": 0,
        "type": "City",
        "enNameLanguage": "Bois Major",
        "location": {
          "lat": 18.8,
          "lng": -71.85
        },
        "keyAccentLanguage": "bois_major"
      },
      {
        "code": 0,
        "type": "City",
        "enNameLanguage": "Bois Blanc",
        "location": {
          "lat": 19.183,
          "lng": -71.717
        },
        "keyAccentLanguage": "bois_blanc"
      },
      {
        "code": 0,
        "type": "City",
        "enNameLanguage": "Balanier",
        "location": {
          "lat": 19.283,
          "lng": -71.933
        },
        "keyAccentLanguage": "balanier"
      },
      {
        "code": 0,
        "type": "City",
        "enNameLanguage": "Abricot",
        "location": {
          "lat": 19.15,
          "lng": -71.783
        },
        "keyAccentLanguage": "abricot"
      }
    ],
    "enNameLanguage": "Centre",
    "keyAccentLanguage": "centre"
  },
  {
    "code": 0,
    "type": "State",
    "location": {
      "lat": 16.305,
      "lng": -61.073
    },
    "districtList": [
      {
        "code": 0,
        "type": "City",
        "enNameLanguage": "Anse Joseph",
        "location": {
          "lat": 47.813271,
          "lng": -65.1820681
        },
        "keyAccentLanguage": "anse_joseph"
      },
      {
        "code": 0,
        "type": "City",
        "enNameLanguage": "Bras Gauche",
        "location": {
          "lat": 18.467,
          "lng": -74.15
        },
        "keyAccentLanguage": "bras_gauche"
      },
      {
        "code": 0,
        "type": "City",
        "enNameLanguage": "Borde",
        "location": {
          "lat": 18.65,
          "lng": -74.117
        },
        "keyAccentLanguage": "borde"
      },
      {
        "code": 0,
        "type": "City",
        "enNameLanguage": "Abricots",
        "location": {
          "lat": 18.633,
          "lng": -74.3
        },
        "keyAccentLanguage": "abricots"
      },
      {
        "code": 0,
        "type": "City",
        "enNameLanguage": "Alberie",
        "location": {
          "lat": 18.504,
          "lng": -73.887
        },
        "keyAccentLanguage": "alberie"
      },
      {
        "code": 0,
        "type": "City",
        "enNameLanguage": "Bois Duval",
        "location": {
          "lat": 18.633,
          "lng": -74.317
        },
        "keyAccentLanguage": "bois_duval"
      },
      {
        "code": 0,
        "type": "City",
        "enNameLanguage": "Anais",
        "location": {
          "lat": 18.55,
          "lng": -74.3
        },
        "keyAccentLanguage": "anais"
      },
      {
        "code": 0,
        "type": "City",
        "enNameLanguage": "Bitoche",
        "location": {
          "lat": 18.417,
          "lng": -74.35
        },
        "keyAccentLanguage": "bitoche"
      },
      {
        "code": 0,
        "type": "City",
        "enNameLanguage": "Anse d'Azur",
        "location": {
          "lat": 18.667,
          "lng": -74.15
        },
        "keyAccentLanguage": "anse_d'azur"
      },
      {
        "code": 0,
        "type": "City",
        "enNameLanguage": "Basse Matador",
        "location": {
          "lat": 18.45,
          "lng": -74.383
        },
        "keyAccentLanguage": "basse_matador"
      },
      {
        "code": 0,
        "type": "City",
        "enNameLanguage": "Anoter",
        "location": {
          "lat": 18.583,
          "lng": -74.25
        },
        "keyAccentLanguage": "anoter"
      },
      {
        "code": 0,
        "type": "City",
        "enNameLanguage": "Bariadelle",
        "location": {
          "lat": 18.517,
          "lng": -74.45
        },
        "keyAccentLanguage": "bariadelle"
      },
      {
        "code": 0,
        "type": "City",
        "enNameLanguage": "Anse du Clerc",
        "location": {
          "lat": 18.65,
          "lng": -74.283
        },
        "keyAccentLanguage": "anse_du_clerc"
      },
      {
        "code": 0,
        "type": "City",
        "enNameLanguage": "Barnard",
        "location": {
          "lat": 18.583,
          "lng": -73.817
        },
        "keyAccentLanguage": "barnard"
      },
      {
        "code": 0,
        "type": "City",
        "enNameLanguage": "Babino",
        "location": {
          "lat": 18.5,
          "lng": -74.367
        },
        "keyAccentLanguage": "babino"
      },
      {
        "code": 0,
        "type": "City",
        "enNameLanguage": "Bois l'Anse",
        "location": {
          "lat": 18.5,
          "lng": -74.283
        },
        "keyAccentLanguage": "bois_l'anse"
      },
      {
        "code": 0,
        "type": "City",
        "enNameLanguage": "Belzanine",
        "location": {
          "lat": 18.533,
          "lng": -74.267
        },
        "keyAccentLanguage": "belzanine"
      },
      {
        "code": 0,
        "type": "City",
        "enNameLanguage": "Balizier",
        "location": {
          "lat": 18.65,
          "lng": -74.283
        },
        "keyAccentLanguage": "balizier"
      },
      {
        "code": 0,
        "type": "City",
        "enNameLanguage": "Basie",
        "location": {
          "lat": 18.433,
          "lng": -74.467
        },
        "keyAccentLanguage": "basie"
      },
      {
        "code": 0,
        "type": "City",
        "enNameLanguage": "Boncy",
        "location": {
          "lat": 18.55,
          "lng": -74.117
        },
        "keyAccentLanguage": "boncy"
      },
      {
        "code": 0,
        "type": "City",
        "enNameLanguage": "Anse du Nord",
        "location": {
          "lat": 18.667,
          "lng": -73.767
        },
        "keyAccentLanguage": "anse_du_nord"
      },
      {
        "code": 0,
        "type": "City",
        "enNameLanguage": "Betrouze",
        "location": {
          "lat": 18.583,
          "lng": -74.117
        },
        "keyAccentLanguage": "betrouze"
      },
      {
        "code": 0,
        "type": "City",
        "enNameLanguage": "Belle Maison",
        "location": {
          "lat": 18.567,
          "lng": -74.35
        },
        "keyAccentLanguage": "belle_maison"
      },
      {
        "code": 0,
        "type": "City",
        "enNameLanguage": "Boucan",
        "location": {
          "lat": 18.5,
          "lng": -74.333
        },
        "keyAccentLanguage": "boucan"
      },
      {
        "code": 0,
        "type": "City",
        "enNameLanguage": "Bazarin",
        "location": {
          "lat": 18.383,
          "lng": -74.417
        },
        "keyAccentLanguage": "bazarin"
      },
      {
        "code": 0,
        "type": "City",
        "enNameLanguage": "Bois-Pin",
        "location": {
          "lat": 18.4,
          "lng": -73.967
        },
        "keyAccentLanguage": "bois-pin"
      },
      {
        "code": 0,
        "type": "City",
        "enNameLanguage": "Buvette",
        "location": {
          "lat": 18.617,
          "lng": -74.133
        },
        "keyAccentLanguage": "buvette"
      },
      {
        "code": 0,
        "type": "City",
        "enNameLanguage": "Bambou",
        "location": {
          "lat": 18.533,
          "lng": -74.183
        },
        "keyAccentLanguage": "bambou"
      },
      {
        "code": 0,
        "type": "City",
        "enNameLanguage": "Bois Misquette",
        "location": {
          "lat": 18.483,
          "lng": -74
        },
        "keyAccentLanguage": "bois_misquette"
      },
      {
        "code": 0,
        "type": "City",
        "enNameLanguage": "Anse Mapay",
        "location": {
          "lat": 18.383,
          "lng": -74.4
        },
        "keyAccentLanguage": "anse_mapay"
      },
      {
        "code": 0,
        "type": "City",
        "enNameLanguage": "Bay-Alliance",
        "location": {
          "lat": 18.5,
          "lng": -73.9
        },
        "keyAccentLanguage": "bay-alliance"
      },
      {
        "code": 0,
        "type": "City",
        "enNameLanguage": "Beaumont",
        "location": {
          "lat": 18.478,
          "lng": -73.956
        },
        "keyAccentLanguage": "beaumont"
      },
      {
        "code": 0,
        "type": "City",
        "enNameLanguage": "Annette",
        "location": {
          "lat": 18.433,
          "lng": -74.067
        },
        "keyAccentLanguage": "annette"
      },
      {
        "code": 0,
        "type": "City",
        "enNameLanguage": "Borgella",
        "location": {
          "lat": 18.65,
          "lng": -73.733
        },
        "keyAccentLanguage": "borgella"
      },
      {
        "code": 0,
        "type": "City",
        "enNameLanguage": "Chambellan",
        "location": {
          "lat": 18.567,
          "lng": -74.317
        },
        "keyAccentLanguage": "chambellan"
      },
      {
        "code": 0,
        "type": "City",
        "enNameLanguage": "Bois Mulet",
        "location": {
          "lat": 18.383,
          "lng": -74.267
        },
        "keyAccentLanguage": "bois_mulet"
      },
      {
        "code": 0,
        "type": "City",
        "enNameLanguage": "Beansine",
        "location": {
          "lat": 18.433,
          "lng": -74.383
        },
        "keyAccentLanguage": "beansine"
      },
      {
        "code": 0,
        "type": "City",
        "enNameLanguage": "Abeille",
        "location": {
          "lat": 18.564,
          "lng": -73.846
        },
        "keyAccentLanguage": "abeille"
      },
      {
        "code": 0,
        "type": "City",
        "enNameLanguage": "Lesson",
        "location": {
          "lat": 18.617,
          "lng": -74.367
        },
        "keyAccentLanguage": "lesson"
      },
      {
        "code": 0,
        "type": "City",
        "enNameLanguage": "Azoi",
        "location": {
          "lat": 18.45,
          "lng": -74.167
        },
        "keyAccentLanguage": "azoi"
      },
      {
        "code": 0,
        "type": "City",
        "enNameLanguage": "Bois Mahot",
        "location": {
          "lat": 18.417,
          "lng": -74.283
        },
        "keyAccentLanguage": "bois_mahot"
      },
      {
        "code": 0,
        "type": "City",
        "enNameLanguage": "Petite Riviere",
        "location": {
          "lat": 18.613,
          "lng": -74.413
        },
        "keyAccentLanguage": "petite_riviere"
      },
      {
        "code": 0,
        "type": "City",
        "enNameLanguage": "Bernagousse",
        "location": {
          "lat": 18.516,
          "lng": -73.829
        },
        "keyAccentLanguage": "bernagousse"
      },
      {
        "code": 0,
        "type": "City",
        "enNameLanguage": "Berly",
        "location": {
          "lat": 18.567,
          "lng": -74.367
        },
        "keyAccentLanguage": "berly"
      },
      {
        "code": 0,
        "type": "City",
        "enNameLanguage": "Bois Debout",
        "location": {
          "lat": 18.5,
          "lng": -73.783
        },
        "keyAccentLanguage": "bois_debout"
      },
      {
        "code": 0,
        "type": "City",
        "enNameLanguage": "Boucan Philippe",
        "location": {
          "lat": 18.583,
          "lng": -73.75
        },
        "keyAccentLanguage": "boucan_philippe"
      },
      {
        "code": 0,
        "type": "City",
        "enNameLanguage": "Bois Geneste",
        "location": {
          "lat": 18.483,
          "lng": -74.017
        },
        "keyAccentLanguage": "bois_geneste"
      },
      {
        "code": 0,
        "type": "City",
        "enNameLanguage": "Boucan Noel",
        "location": {
          "lat": 18.567,
          "lng": -73.933
        },
        "keyAccentLanguage": "boucan_noel"
      },
      {
        "code": 0,
        "type": "City",
        "enNameLanguage": "Brinto",
        "location": {
          "lat": 18.633,
          "lng": -74.267
        },
        "keyAccentLanguage": "brinto"
      },
      {
        "code": 0,
        "type": "City",
        "enNameLanguage": "Corail",
        "location": {
          "lat": 18.567,
          "lng": -73.892
        },
        "keyAccentLanguage": "corail"
      },
      {
        "code": 0,
        "type": "City",
        "enNameLanguage": "Au Centre",
        "location": {
          "lat": 18.45,
          "lng": -73.967
        },
        "keyAccentLanguage": "au_centre"
      },
      {
        "code": 0,
        "type": "City",
        "enNameLanguage": "Ca Charlesdieu",
        "location": {
          "lat": 18.517,
          "lng": -73.785
        },
        "keyAccentLanguage": "ca_charlesdieu"
      },
      {
        "code": 0,
        "type": "City",
        "enNameLanguage": "Beaufrin",
        "location": {
          "lat": 18.574,
          "lng": -73.987
        },
        "keyAccentLanguage": "beaufrin"
      },
      {
        "code": 0,
        "type": "City",
        "enNameLanguage": "Bois Piquant",
        "location": {
          "lat": 18.45,
          "lng": -74.183
        },
        "keyAccentLanguage": "bois_piquant"
      },
      {
        "code": 0,
        "type": "City",
        "enNameLanguage": "Jeremie",
        "location": {
          "lat": 18.645,
          "lng": -74.114
        },
        "keyAccentLanguage": "jeremie"
      },
      {
        "code": 0,
        "type": "City",
        "enNameLanguage": "Byard",
        "location": {
          "lat": 18.517,
          "lng": -73.817
        },
        "keyAccentLanguage": "byard"
      },
      {
        "code": 0,
        "type": "City",
        "enNameLanguage": "Bellevue",
        "location": {
          "lat": 18.558,
          "lng": -73.875
        },
        "keyAccentLanguage": "bellevue"
      },
      {
        "code": 0,
        "type": "City",
        "enNameLanguage": "Breche",
        "location": {
          "lat": 18.533,
          "lng": -74.433
        },
        "keyAccentLanguage": "breche"
      },
      {
        "code": 0,
        "type": "City",
        "enNameLanguage": "Ca Pierre",
        "location": {
          "lat": 18.483,
          "lng": -73.9
        },
        "keyAccentLanguage": "ca_pierre"
      },
      {
        "code": 0,
        "type": "City",
        "enNameLanguage": "Bois Lambert",
        "location": {
          "lat": 18.533,
          "lng": -74.017
        },
        "keyAccentLanguage": "bois_lambert"
      },
      {
        "code": 0,
        "type": "City",
        "enNameLanguage": "Les Irois",
        "location": {
          "lat": 18.4,
          "lng": -74.447
        },
        "keyAccentLanguage": "les_irois"
      },
      {
        "code": 0,
        "type": "City",
        "enNameLanguage": "Anse A Macon",
        "location": {
          "lat": 18.59,
          "lng": -73.727
        },
        "keyAccentLanguage": "anse_a_macon"
      },
      {
        "code": 0,
        "type": "City",
        "enNameLanguage": "La Seringue",
        "location": {
          "lat": 18.633,
          "lng": -74.377
        },
        "keyAccentLanguage": "la_seringue"
      },
      {
        "code": 0,
        "type": "City",
        "enNameLanguage": "Roseaux",
        "location": {
          "lat": 18.596,
          "lng": -74.02
        },
        "keyAccentLanguage": "roseaux"
      },
      {
        "code": 0,
        "type": "City",
        "enNameLanguage": "Bois Sec",
        "location": {
          "lat": 18.533,
          "lng": -74.067
        },
        "keyAccentLanguage": "bois_sec"
      },
      {
        "code": 0,
        "type": "City",
        "enNameLanguage": "Beril",
        "location": {
          "lat": 18.617,
          "lng": -74.3
        },
        "keyAccentLanguage": "beril"
      },
      {
        "code": 0,
        "type": "City",
        "enNameLanguage": "Babin",
        "location": {
          "lat": 18.633,
          "lng": -74.267
        },
        "keyAccentLanguage": "babin"
      },
      {
        "code": 0,
        "type": "City",
        "enNameLanguage": "Avril",
        "location": {
          "lat": 18.633,
          "lng": -74.2
        },
        "keyAccentLanguage": "avril"
      },
      {
        "code": 0,
        "type": "City",
        "enNameLanguage": "Breton",
        "location": {
          "lat": 18.583,
          "lng": -74.417
        },
        "keyAccentLanguage": "breton"
      },
      {
        "code": 0,
        "type": "City",
        "enNameLanguage": "Bananier",
        "location": {
          "lat": 18.433,
          "lng": -74.417
        },
        "keyAccentLanguage": "bananier"
      },
      {
        "code": 0,
        "type": "City",
        "enNameLanguage": "Bellance",
        "location": {
          "lat": 18.433,
          "lng": -73.983
        },
        "keyAccentLanguage": "bellance"
      },
      {
        "code": 0,
        "type": "City",
        "enNameLanguage": "Marfranc",
        "location": {
          "lat": 18.583,
          "lng": -74.217
        },
        "keyAccentLanguage": "marfranc"
      },
      {
        "code": 0,
        "type": "City",
        "enNameLanguage": "Berthaud",
        "location": {
          "lat": 18.533,
          "lng": -74.033
        },
        "keyAccentLanguage": "berthaud"
      },
      {
        "code": 0,
        "type": "City",
        "enNameLanguage": "Bossou",
        "location": {
          "lat": 18.667,
          "lng": -74.317
        },
        "keyAccentLanguage": "bossou"
      },
      {
        "code": 0,
        "type": "City",
        "enNameLanguage": "Carcasse",
        "location": {
          "lat": 18.366,
          "lng": -74.441
        },
        "keyAccentLanguage": "carcasse"
      },
      {
        "code": 0,
        "type": "City",
        "enNameLanguage": "Anse D'hainault",
        "location": {
          "lat": 18.485,
          "lng": -74.451
        },
        "keyAccentLanguage": "anse_d'hainault"
      },
      {
        "code": 0,
        "type": "City",
        "enNameLanguage": "Briers",
        "location": {
          "lat": 18.683,
          "lng": -74.233
        },
        "keyAccentLanguage": "briers"
      },
      {
        "code": 0,
        "type": "City",
        "enNameLanguage": "Buron",
        "location": {
          "lat": 18.667,
          "lng": -74.25
        },
        "keyAccentLanguage": "buron"
      },
      {
        "code": 0,
        "type": "City",
        "enNameLanguage": "Moron",
        "location": {
          "lat": 18.567,
          "lng": -74.25
        },
        "keyAccentLanguage": "moron"
      },
      {
        "code": 0,
        "type": "City",
        "enNameLanguage": "Sources Chaudes",
        "location": {
          "lat": 18.484,
          "lng": -74.287
        },
        "keyAccentLanguage": "sources_chaudes"
      },
      {
        "code": 0,
        "type": "City",
        "enNameLanguage": "Balandier",
        "location": {
          "lat": 18.583,
          "lng": -74.4
        },
        "keyAccentLanguage": "balandier"
      },
      {
        "code": 0,
        "type": "City",
        "enNameLanguage": "Beaucalin",
        "location": {
          "lat": 18.6,
          "lng": -74.2
        },
        "keyAccentLanguage": "beaucalin"
      },
      {
        "code": 0,
        "type": "City",
        "enNameLanguage": "Anse a Proux",
        "location": {
          "lat": 18.517,
          "lng": -74.417
        },
        "keyAccentLanguage": "anse_a_proux"
      },
      {
        "code": 0,
        "type": "City",
        "enNameLanguage": "Bouquette",
        "location": {
          "lat": 18.483,
          "lng": -74.183
        },
        "keyAccentLanguage": "bouquette"
      },
      {
        "code": 0,
        "type": "City",
        "enNameLanguage": "Dame-marie",
        "location": {
          "lat": 18.567,
          "lng": -74.417
        },
        "keyAccentLanguage": "dame-marie"
      },
      {
        "code": 0,
        "type": "City",
        "enNameLanguage": "Broteau",
        "location": {
          "lat": 18.65,
          "lng": -74.217
        },
        "keyAccentLanguage": "broteau"
      },
      {
        "code": 0,
        "type": "City",
        "enNameLanguage": "Bayeux",
        "location": {
          "lat": 18.683,
          "lng": -73.733
        },
        "keyAccentLanguage": "bayeux"
      },
      {
        "code": 0,
        "type": "City",
        "enNameLanguage": "Pestel",
        "location": {
          "lat": 18.541,
          "lng": -73.797
        },
        "keyAccentLanguage": "pestel"
      },
      {
        "code": 0,
        "type": "City",
        "enNameLanguage": "Boyer",
        "location": {
          "lat": 18.45,
          "lng": -74.45
        },
        "keyAccentLanguage": "boyer"
      },
      {
        "code": 0,
        "type": "City",
        "enNameLanguage": "Burotte",
        "location": {
          "lat": 18.683,
          "lng": -74.283
        },
        "keyAccentLanguage": "burotte"
      },
      {
        "code": 0,
        "type": "City",
        "enNameLanguage": "Briere",
        "location": {
          "lat": 18.567,
          "lng": -74.267
        },
        "keyAccentLanguage": "briere"
      },
      {
        "code": 0,
        "type": "City",
        "enNameLanguage": "Buties",
        "location": {
          "lat": 18.567,
          "lng": -74.017
        },
        "keyAccentLanguage": "buties"
      },
      {
        "code": 0,
        "type": "City",
        "enNameLanguage": "Ca Noel",
        "location": {
          "lat": 18.517,
          "lng": -74.267
        },
        "keyAccentLanguage": "ca_noel"
      },
      {
        "code": 0,
        "type": "City",
        "enNameLanguage": "Beaudrouin",
        "location": {
          "lat": 18.583,
          "lng": -74.083
        },
        "keyAccentLanguage": "beaudrouin"
      },
      {
        "code": 0,
        "type": "City",
        "enNameLanguage": "Brisson",
        "location": {
          "lat": 18.7,
          "lng": -74.25
        },
        "keyAccentLanguage": "brisson"
      },
      {
        "code": 0,
        "type": "City",
        "enNameLanguage": "Bienfaisant",
        "location": {
          "lat": 18.551,
          "lng": -73.855
        },
        "keyAccentLanguage": "bienfaisant"
      },
      {
        "code": 0,
        "type": "City",
        "enNameLanguage": "Ca Docteur",
        "location": {
          "lat": 18.519,
          "lng": -73.91
        },
        "keyAccentLanguage": "ca_docteur"
      },
      {
        "code": 0,
        "type": "City",
        "enNameLanguage": "Baboquette",
        "location": {
          "lat": 18.633,
          "lng": -73.683
        },
        "keyAccentLanguage": "baboquette"
      },
      {
        "code": 0,
        "type": "City",
        "enNameLanguage": "Acelin",
        "location": {
          "lat": 18.617,
          "lng": -74.4
        },
        "keyAccentLanguage": "acelin"
      },
      {
        "code": 0,
        "type": "City",
        "enNameLanguage": "Bayard",
        "location": {
          "lat": 18.55,
          "lng": -74.283
        },
        "keyAccentLanguage": "bayard"
      }
    ],
    "enNameLanguage": "Grande Anse",
    "keyAccentLanguage": "grande_anse"
  },
  {
    "code": 0,
    "type": "State",
    "location": {
      "lat": 18.3990735,
      "lng": -73.4180211
    },
    "districtList": [
      {
        "code": 0,
        "type": "City",
        "enNameLanguage": "Bouzi",
        "location": {
          "lat": 18.367,
          "lng": -73.283
        },
        "keyAccentLanguage": "bouzi"
      },
      {
        "code": 0,
        "type": "City",
        "enNameLanguage": "Abraham",
        "location": {
          "lat": 18.4,
          "lng": -73.233
        },
        "keyAccentLanguage": "abraham"
      },
      {
        "code": 0,
        "type": "City",
        "enNameLanguage": "Balthazar",
        "location": {
          "lat": 18.417,
          "lng": -73.433
        },
        "keyAccentLanguage": "balthazar"
      },
      {
        "code": 0,
        "type": "City",
        "enNameLanguage": "Bourdet",
        "location": {
          "lat": 18.35,
          "lng": -73.383
        },
        "keyAccentLanguage": "bourdet"
      },
      {
        "code": 0,
        "type": "City",
        "enNameLanguage": "Bahon",
        "location": {
          "lat": 18.367,
          "lng": -73.217
        },
        "keyAccentLanguage": "bahon"
      },
      {
        "code": 0,
        "type": "City",
        "enNameLanguage": "Baconnois",
        "location": {
          "lat": 18.517,
          "lng": -73.433
        },
        "keyAccentLanguage": "baconnois"
      },
      {
        "code": 0,
        "type": "City",
        "enNameLanguage": "Bertrand",
        "location": {
          "lat": 18.367,
          "lng": -73.45
        },
        "keyAccentLanguage": "bertrand"
      },
      {
        "code": 0,
        "type": "City",
        "enNameLanguage": "Bordi",
        "location": {
          "lat": 18.4,
          "lng": -73.383
        },
        "keyAccentLanguage": "bordi"
      },
      {
        "code": 0,
        "type": "City",
        "enNameLanguage": "Camolie",
        "location": {
          "lat": 18.432,
          "lng": -73.589
        },
        "keyAccentLanguage": "camolie"
      },
      {
        "code": 0,
        "type": "City",
        "enNameLanguage": "Arnaud",
        "location": {
          "lat": 18.45,
          "lng": -73.383
        },
        "keyAccentLanguage": "arnaud"
      },
      {
        "code": 0,
        "type": "City",
        "enNameLanguage": "Banlieu",
        "location": {
          "lat": 18.383,
          "lng": -73.417
        },
        "keyAccentLanguage": "banlieu"
      },
      {
        "code": 0,
        "type": "City",
        "enNameLanguage": "Bassin Bleu",
        "location": {
          "lat": 18.367,
          "lng": -73.117
        },
        "keyAccentLanguage": "bassin_bleu"
      },
      {
        "code": 0,
        "type": "City",
        "enNameLanguage": "Anse-a-veau",
        "location": {
          "lat": 18.491,
          "lng": -73.35
        },
        "keyAccentLanguage": "anse-a-veau"
      },
      {
        "code": 0,
        "type": "City",
        "enNameLanguage": "Bedime",
        "location": {
          "lat": 18.383,
          "lng": -73.4
        },
        "keyAccentLanguage": "bedime"
      },
      {
        "code": 0,
        "type": "City",
        "enNameLanguage": "Carrefour Lundi",
        "location": {
          "lat": 18.5,
          "lng": -73.45
        },
        "keyAccentLanguage": "carrefour_lundi"
      },
      {
        "code": 0,
        "type": "City",
        "enNameLanguage": "Berthol",
        "location": {
          "lat": 18.267,
          "lng": -73.017
        },
        "keyAccentLanguage": "berthol"
      },
      {
        "code": 0,
        "type": "City",
        "enNameLanguage": "Bina",
        "location": {
          "lat": 18.583,
          "lng": -73.683
        },
        "keyAccentLanguage": "bina"
      },
      {
        "code": 0,
        "type": "City",
        "enNameLanguage": "Boula",
        "location": {
          "lat": 18.383,
          "lng": -73.283
        },
        "keyAccentLanguage": "boula"
      },
      {
        "code": 0,
        "type": "City",
        "enNameLanguage": "Boisneau",
        "location": {
          "lat": 18.453,
          "lng": -73.681
        },
        "keyAccentLanguage": "boisneau"
      },
      {
        "code": 0,
        "type": "City",
        "enNameLanguage": "Bahoruco",
        "location": {
          "lat": 18.45,
          "lng": -73.267
        },
        "keyAccentLanguage": "bahoruco"
      },
      {
        "code": 0,
        "type": "City",
        "enNameLanguage": "Barreau",
        "location": {
          "lat": 18.483,
          "lng": -73.4
        },
        "keyAccentLanguage": "barreau"
      },
      {
        "code": 0,
        "type": "City",
        "enNameLanguage": "Acul des Savannes",
        "location": {
          "lat": 18.467,
          "lng": -73.433
        },
        "keyAccentLanguage": "acul_des_savannes"
      },
      {
        "code": 0,
        "type": "City",
        "enNameLanguage": "Bonhomme",
        "location": {
          "lat": 18.474,
          "lng": -73.556
        },
        "keyAccentLanguage": "bonhomme"
      },
      {
        "code": 0,
        "type": "City",
        "enNameLanguage": "Besson",
        "location": {
          "lat": 18.413,
          "lng": -73.675
        },
        "keyAccentLanguage": "besson"
      },
      {
        "code": 0,
        "type": "City",
        "enNameLanguage": "Berken",
        "location": {
          "lat": 18.433,
          "lng": -73.117
        },
        "keyAccentLanguage": "berken"
      },
      {
        "code": 0,
        "type": "City",
        "enNameLanguage": "Astrie",
        "location": {
          "lat": 18.367,
          "lng": -73.367
        },
        "keyAccentLanguage": "astrie"
      },
      {
        "code": 0,
        "type": "City",
        "enNameLanguage": "Body",
        "location": {
          "lat": 18.5,
          "lng": -73.533
        },
        "keyAccentLanguage": "body"
      },
      {
        "code": 0,
        "type": "City",
        "enNameLanguage": "Carrefour Michel",
        "location": {
          "lat": 18.439,
          "lng": -73.514
        },
        "keyAccentLanguage": "carrefour_michel"
      },
      {
        "code": 0,
        "type": "City",
        "enNameLanguage": "Baquet",
        "location": {
          "lat": 18.417,
          "lng": -73.333
        },
        "keyAccentLanguage": "baquet"
      },
      {
        "code": 0,
        "type": "City",
        "enNameLanguage": "Chaiumeau",
        "location": {
          "lat": 18.433,
          "lng": -73.367
        },
        "keyAccentLanguage": "chaiumeau"
      },
      {
        "code": 0,
        "type": "City",
        "enNameLanguage": "Chaolus",
        "location": {
          "lat": 18.48,
          "lng": -73.554
        },
        "keyAccentLanguage": "chaolus"
      },
      {
        "code": 0,
        "type": "City",
        "enNameLanguage": "Bois-Neuf",
        "location": {
          "lat": 18.567,
          "lng": -73.583
        },
        "keyAccentLanguage": "bois-neuf"
      },
      {
        "code": 0,
        "type": "City",
        "enNameLanguage": "Bellevue",
        "location": {
          "lat": 18.378,
          "lng": -73.535
        },
        "keyAccentLanguage": "bellevue"
      },
      {
        "code": 0,
        "type": "City",
        "enNameLanguage": "Abricot",
        "location": {
          "lat": 18.461,
          "lng": -73.586
        },
        "keyAccentLanguage": "abricot"
      },
      {
        "code": 0,
        "type": "City",
        "enNameLanguage": "Beaudouin",
        "location": {
          "lat": 18.383,
          "lng": -73.317
        },
        "keyAccentLanguage": "beaudouin"
      },
      {
        "code": 0,
        "type": "City",
        "enNameLanguage": "Billard",
        "location": {
          "lat": 18.467,
          "lng": -73.4
        },
        "keyAccentLanguage": "billard"
      },
      {
        "code": 0,
        "type": "City",
        "enNameLanguage": "L'asile",
        "location": {
          "lat": 18.375,
          "lng": -73.425
        },
        "keyAccentLanguage": "l'asile"
      },
      {
        "code": 0,
        "type": "City",
        "enNameLanguage": "Belle Roche",
        "location": {
          "lat": 18.45,
          "lng": -73.267
        },
        "keyAccentLanguage": "belle_roche"
      },
      {
        "code": 0,
        "type": "City",
        "enNameLanguage": "Miragoane",
        "location": {
          "lat": 18.438,
          "lng": -73.089
        },
        "keyAccentLanguage": "miragoane"
      },
      {
        "code": 0,
        "type": "City",
        "enNameLanguage": "Ca Ti Charles",
        "location": {
          "lat": 18.567,
          "lng": -73.7
        },
        "keyAccentLanguage": "ca_ti_charles"
      },
      {
        "code": 0,
        "type": "City",
        "enNameLanguage": "Ca Bodin",
        "location": {
          "lat": 18.383,
          "lng": -73.483
        },
        "keyAccentLanguage": "ca_bodin"
      },
      {
        "code": 0,
        "type": "City",
        "enNameLanguage": "Carrefour Moincon",
        "location": {
          "lat": 18.433,
          "lng": -73.467
        },
        "keyAccentLanguage": "carrefour_moincon"
      },
      {
        "code": 0,
        "type": "City",
        "enNameLanguage": "Calon",
        "location": {
          "lat": 18.417,
          "lng": -73.133
        },
        "keyAccentLanguage": "calon"
      },
      {
        "code": 0,
        "type": "City",
        "enNameLanguage": "Charpentier",
        "location": {
          "lat": 18.383,
          "lng": -73.433
        },
        "keyAccentLanguage": "charpentier"
      },
      {
        "code": 0,
        "type": "City",
        "enNameLanguage": "Carrefour Moussignac",
        "location": {
          "lat": 18.386,
          "lng": -73.102
        },
        "keyAccentLanguage": "carrefour_moussignac"
      },
      {
        "code": 0,
        "type": "City",
        "enNameLanguage": "Bouton",
        "location": {
          "lat": 18.367,
          "lng": -73.15
        },
        "keyAccentLanguage": "bouton"
      },
      {
        "code": 0,
        "type": "City",
        "enNameLanguage": "Carrefour Desruisseaux",
        "location": {
          "lat": 18.433,
          "lng": -73.083
        },
        "keyAccentLanguage": "carrefour_desruisseaux"
      },
      {
        "code": 0,
        "type": "City",
        "enNameLanguage": "Bayado",
        "location": {
          "lat": 18.483,
          "lng": -73.483
        },
        "keyAccentLanguage": "bayado"
      },
      {
        "code": 0,
        "type": "City",
        "enNameLanguage": "Brossard",
        "location": {
          "lat": 18.467,
          "lng": -73.367
        },
        "keyAccentLanguage": "brossard"
      },
      {
        "code": 0,
        "type": "City",
        "enNameLanguage": "Ca Comte",
        "location": {
          "lat": 18.433,
          "lng": -73.2
        },
        "keyAccentLanguage": "ca_comte"
      },
      {
        "code": 0,
        "type": "City",
        "enNameLanguage": "Ca Dulma",
        "location": {
          "lat": 18.433,
          "lng": -73.183
        },
        "keyAccentLanguage": "ca_dulma"
      },
      {
        "code": 0,
        "type": "City",
        "enNameLanguage": "Bourjolly",
        "location": {
          "lat": 18.491,
          "lng": -73.741
        },
        "keyAccentLanguage": "bourjolly"
      },
      {
        "code": 0,
        "type": "City",
        "enNameLanguage": "Bondance",
        "location": {
          "lat": 18.483,
          "lng": -73.7
        },
        "keyAccentLanguage": "bondance"
      },
      {
        "code": 0,
        "type": "City",
        "enNameLanguage": "Cacolo",
        "location": {
          "lat": 18.367,
          "lng": -73.167
        },
        "keyAccentLanguage": "cacolo"
      },
      {
        "code": 0,
        "type": "City",
        "enNameLanguage": "Chevalier",
        "location": {
          "lat": 18.383,
          "lng": -73.233
        },
        "keyAccentLanguage": "chevalier"
      },
      {
        "code": 0,
        "type": "City",
        "enNameLanguage": "Cajuste",
        "location": {
          "lat": 18.383,
          "lng": -73.417
        },
        "keyAccentLanguage": "cajuste"
      },
      {
        "code": 0,
        "type": "City",
        "enNameLanguage": "Ca Baptiste",
        "location": {
          "lat": 18.383,
          "lng": -73.467
        },
        "keyAccentLanguage": "ca_baptiste"
      },
      {
        "code": 0,
        "type": "City",
        "enNameLanguage": "Beret",
        "location": {
          "lat": 18.433,
          "lng": -73.667
        },
        "keyAccentLanguage": "beret"
      },
      {
        "code": 0,
        "type": "City",
        "enNameLanguage": "Chasseau",
        "location": {
          "lat": 18.4,
          "lng": -73.2
        },
        "keyAccentLanguage": "chasseau"
      },
      {
        "code": 0,
        "type": "City",
        "enNameLanguage": "Belair",
        "location": {
          "lat": 18.383,
          "lng": -73.4
        },
        "keyAccentLanguage": "belair"
      },
      {
        "code": 0,
        "type": "City",
        "enNameLanguage": "Bois Gerard",
        "location": {
          "lat": 18.425,
          "lng": -73.562
        },
        "keyAccentLanguage": "bois_gerard"
      },
      {
        "code": 0,
        "type": "City",
        "enNameLanguage": "Bois Neuf",
        "location": {
          "lat": 18.419,
          "lng": -73.55
        },
        "keyAccentLanguage": "bois_neuf"
      },
      {
        "code": 0,
        "type": "City",
        "enNameLanguage": "Ca Michaud",
        "location": {
          "lat": 18.367,
          "lng": -73.233
        },
        "keyAccentLanguage": "ca_michaud"
      },
      {
        "code": 0,
        "type": "City",
        "enNameLanguage": "Paillant",
        "location": {
          "lat": 18.417,
          "lng": -73.15
        },
        "keyAccentLanguage": "paillant"
      },
      {
        "code": 0,
        "type": "City",
        "enNameLanguage": "Changieux",
        "location": {
          "lat": 18.373,
          "lng": -73.522
        },
        "keyAccentLanguage": "changieux"
      },
      {
        "code": 0,
        "type": "City",
        "enNameLanguage": "Ca Berthe",
        "location": {
          "lat": 18.5,
          "lng": -73.383
        },
        "keyAccentLanguage": "ca_berthe"
      },
      {
        "code": 0,
        "type": "City",
        "enNameLanguage": "Carrefour Georges",
        "location": {
          "lat": 18.5,
          "lng": -73.333
        },
        "keyAccentLanguage": "carrefour_georges"
      },
      {
        "code": 0,
        "type": "City",
        "enNameLanguage": "Petit Trou De Nippes",
        "location": {
          "lat": 18.527,
          "lng": -73.509
        },
        "keyAccentLanguage": "petit_trou_de_nippes"
      },
      {
        "code": 0,
        "type": "City",
        "enNameLanguage": "Carrefour Dent",
        "location": {
          "lat": 18.433,
          "lng": -73.133
        },
        "keyAccentLanguage": "carrefour_dent"
      },
      {
        "code": 0,
        "type": "City",
        "enNameLanguage": "Bonnette",
        "location": {
          "lat": 18.433,
          "lng": -73.45
        },
        "keyAccentLanguage": "bonnette"
      },
      {
        "code": 0,
        "type": "City",
        "enNameLanguage": "Calico",
        "location": {
          "lat": 18.433,
          "lng": -73.283
        },
        "keyAccentLanguage": "calico"
      },
      {
        "code": 0,
        "type": "City",
        "enNameLanguage": "Baraderes",
        "location": {
          "lat": 18.482,
          "lng": -73.639
        },
        "keyAccentLanguage": "baraderes"
      },
      {
        "code": 0,
        "type": "City",
        "enNameLanguage": "Cadiac",
        "location": {
          "lat": 18.367,
          "lng": -73.15
        },
        "keyAccentLanguage": "cadiac"
      },
      {
        "code": 0,
        "type": "City",
        "enNameLanguage": "Baptiste",
        "location": {
          "lat": 18.367,
          "lng": -73.317
        },
        "keyAccentLanguage": "baptiste"
      },
      {
        "code": 0,
        "type": "City",
        "enNameLanguage": "Bethel",
        "location": {
          "lat": 18.567,
          "lng": -73.617
        },
        "keyAccentLanguage": "bethel"
      },
      {
        "code": 0,
        "type": "City",
        "enNameLanguage": "Brea",
        "location": {
          "lat": 18.55,
          "lng": -73.65
        },
        "keyAccentLanguage": "brea"
      },
      {
        "code": 0,
        "type": "City",
        "enNameLanguage": "Carrefour Cadet",
        "location": {
          "lat": 18.5,
          "lng": -73.483
        },
        "keyAccentLanguage": "carrefour_cadet"
      },
      {
        "code": 0,
        "type": "City",
        "enNameLanguage": "Baudouin",
        "location": {
          "lat": 18.3,
          "lng": -73.05
        },
        "keyAccentLanguage": "baudouin"
      },
      {
        "code": 0,
        "type": "City",
        "enNameLanguage": "Chalon",
        "location": {
          "lat": 18.417,
          "lng": -73.083
        },
        "keyAccentLanguage": "chalon"
      },
      {
        "code": 0,
        "type": "City",
        "enNameLanguage": "Bernard",
        "location": {
          "lat": 18.4,
          "lng": -73.3
        },
        "keyAccentLanguage": "bernard"
      },
      {
        "code": 0,
        "type": "City",
        "enNameLanguage": "Bezin",
        "location": {
          "lat": 18.483,
          "lng": -73.167
        },
        "keyAccentLanguage": "bezin"
      },
      {
        "code": 0,
        "type": "City",
        "enNameLanguage": "Carrefour Fleurant",
        "location": {
          "lat": 18.367,
          "lng": -73.483
        },
        "keyAccentLanguage": "carrefour_fleurant"
      },
      {
        "code": 0,
        "type": "City",
        "enNameLanguage": "Ca Bois",
        "location": {
          "lat": 18.4,
          "lng": -73.45
        },
        "keyAccentLanguage": "ca_bois"
      },
      {
        "code": 0,
        "type": "City",
        "enNameLanguage": "Au Saut",
        "location": {
          "lat": 18.467,
          "lng": -73.467
        },
        "keyAccentLanguage": "au_saut"
      },
      {
        "code": 0,
        "type": "City",
        "enNameLanguage": "Charlier",
        "location": {
          "lat": 18.483,
          "lng": -73.183
        },
        "keyAccentLanguage": "charlier"
      },
      {
        "code": 0,
        "type": "City",
        "enNameLanguage": "Chariot",
        "location": {
          "lat": 18.45,
          "lng": -73.483
        },
        "keyAccentLanguage": "chariot"
      },
      {
        "code": 0,
        "type": "City",
        "enNameLanguage": "Bojo",
        "location": {
          "lat": 18.4,
          "lng": -73.317
        },
        "keyAccentLanguage": "bojo"
      },
      {
        "code": 0,
        "type": "City",
        "enNameLanguage": "Brodequin",
        "location": {
          "lat": 18.45,
          "lng": -73.667
        },
        "keyAccentLanguage": "brodequin"
      },
      {
        "code": 0,
        "type": "City",
        "enNameLanguage": "Bois Boule",
        "location": {
          "lat": 18.434,
          "lng": -73.602
        },
        "keyAccentLanguage": "bois_boule"
      },
      {
        "code": 0,
        "type": "City",
        "enNameLanguage": "St.-michel Du Sud",
        "location": {
          "lat": 18.367,
          "lng": -73.117
        },
        "keyAccentLanguage": "st.-michel_du_sud"
      },
      {
        "code": 0,
        "type": "City",
        "enNameLanguage": "Bizarre",
        "location": {
          "lat": 18.45,
          "lng": -73.167
        },
        "keyAccentLanguage": "bizarre"
      },
      {
        "code": 0,
        "type": "City",
        "enNameLanguage": "Boco",
        "location": {
          "lat": 18.367,
          "lng": -73.083
        },
        "keyAccentLanguage": "boco"
      },
      {
        "code": 0,
        "type": "City",
        "enNameLanguage": "Chanterelle",
        "location": {
          "lat": 18.467,
          "lng": -73.217
        },
        "keyAccentLanguage": "chanterelle"
      },
      {
        "code": 0,
        "type": "City",
        "enNameLanguage": "Belle Hotesse",
        "location": {
          "lat": 18.4,
          "lng": -73.117
        },
        "keyAccentLanguage": "belle_hotesse"
      },
      {
        "code": 0,
        "type": "City",
        "enNameLanguage": "Bois Cabrit",
        "location": {
          "lat": 18.4,
          "lng": -73.183
        },
        "keyAccentLanguage": "bois_cabrit"
      },
      {
        "code": 0,
        "type": "City",
        "enNameLanguage": "Ca Roche",
        "location": {
          "lat": 18.367,
          "lng": -73.5
        },
        "keyAccentLanguage": "ca_roche"
      },
      {
        "code": 0,
        "type": "City",
        "enNameLanguage": "Cheresi",
        "location": {
          "lat": 18.383,
          "lng": -73.117
        },
        "keyAccentLanguage": "cheresi"
      },
      {
        "code": 0,
        "type": "City",
        "enNameLanguage": "Ca Matisse",
        "location": {
          "lat": 18.433,
          "lng": -73.133
        },
        "keyAccentLanguage": "ca_matisse"
      },
      {
        "code": 0,
        "type": "City",
        "enNameLanguage": "Grand Boucan",
        "location": {
          "lat": 18.555,
          "lng": -73.592
        },
        "keyAccentLanguage": "grand_boucan"
      },
      {
        "code": 0,
        "type": "City",
        "enNameLanguage": "Petite Riviere De Nippes",
        "location": {
          "lat": 18.477,
          "lng": -73.255
        },
        "keyAccentLanguage": "petite_riviere_de_nippes"
      }
    ],
    "enNameLanguage": "Nippes",
    "keyAccentLanguage": "nippes"
  },
  {
    "code": 0,
    "type": "State",
    "location": {
      "lat": 38.9116879,
      "lng": -94.639251
    },
    "districtList": [
      {
        "code": 0,
        "type": "City",
        "enNameLanguage": "Amandier",
        "location": {
          "lat": 19.583,
          "lng": -72.35
        },
        "keyAccentLanguage": "amandier"
      },
      {
        "code": 0,
        "type": "City",
        "enNameLanguage": "Bail",
        "location": {
          "lat": 19.433,
          "lng": -72.117
        },
        "keyAccentLanguage": "bail"
      },
      {
        "code": 0,
        "type": "City",
        "enNameLanguage": "Acabouille",
        "location": {
          "lat": 19.4,
          "lng": -72.183
        },
        "keyAccentLanguage": "acabouille"
      },
      {
        "code": 0,
        "type": "City",
        "enNameLanguage": "Babin",
        "location": {
          "lat": 19.583,
          "lng": -72.5
        },
        "keyAccentLanguage": "babin"
      },
      {
        "code": 0,
        "type": "City",
        "enNameLanguage": "Ballon",
        "location": {
          "lat": 19.683,
          "lng": -72.567
        },
        "keyAccentLanguage": "ballon"
      },
      {
        "code": 0,
        "type": "City",
        "enNameLanguage": "Audate",
        "location": {
          "lat": 19.617,
          "lng": -72.417
        },
        "keyAccentLanguage": "audate"
      },
      {
        "code": 0,
        "type": "City",
        "enNameLanguage": "Baguidy",
        "location": {
          "lat": 19.717,
          "lng": -72.367
        },
        "keyAccentLanguage": "baguidy"
      },
      {
        "code": 0,
        "type": "City",
        "enNameLanguage": "Acacia",
        "location": {
          "lat": 19.367,
          "lng": -72.133
        },
        "keyAccentLanguage": "acacia"
      },
      {
        "code": 0,
        "type": "City",
        "enNameLanguage": "Barriere Battant",
        "location": {
          "lat": 19.617,
          "lng": -72.2
        },
        "keyAccentLanguage": "barriere_battant"
      },
      {
        "code": 0,
        "type": "City",
        "enNameLanguage": "Bambi",
        "location": {
          "lat": 19.633,
          "lng": -72.55
        },
        "keyAccentLanguage": "bambi"
      },
      {
        "code": 0,
        "type": "City",
        "enNameLanguage": "Dondon",
        "location": {
          "lat": 19.533,
          "lng": -72.233
        },
        "keyAccentLanguage": "dondon"
      },
      {
        "code": 0,
        "type": "City",
        "enNameLanguage": "Bassin Laurent",
        "location": {
          "lat": 19.617,
          "lng": -72.467
        },
        "keyAccentLanguage": "bassin_laurent"
      },
      {
        "code": 0,
        "type": "City",
        "enNameLanguage": "Belier",
        "location": {
          "lat": 19.583,
          "lng": -72.383
        },
        "keyAccentLanguage": "belier"
      },
      {
        "code": 0,
        "type": "City",
        "enNameLanguage": "Bas Canal",
        "location": {
          "lat": 19.717,
          "lng": -72.133
        },
        "keyAccentLanguage": "bas_canal"
      },
      {
        "code": 0,
        "type": "City",
        "enNameLanguage": "Beliard",
        "location": {
          "lat": 19.667,
          "lng": -72.1
        },
        "keyAccentLanguage": "beliard"
      },
      {
        "code": 0,
        "type": "City",
        "enNameLanguage": "Bajardeau",
        "location": {
          "lat": 19.683,
          "lng": -72.4
        },
        "keyAccentLanguage": "bajardeau"
      },
      {
        "code": 0,
        "type": "City",
        "enNameLanguage": "Baliares",
        "location": {
          "lat": 19.317,
          "lng": -72.133
        },
        "keyAccentLanguage": "baliares"
      },
      {
        "code": 0,
        "type": "City",
        "enNameLanguage": "Anselin",
        "location": {
          "lat": 19.667,
          "lng": -72.25
        },
        "keyAccentLanguage": "anselin"
      },
      {
        "code": 0,
        "type": "City",
        "enNameLanguage": "Bauge",
        "location": {
          "lat": 19.6,
          "lng": -72.4
        },
        "keyAccentLanguage": "bauge"
      },
      {
        "code": 0,
        "type": "City",
        "enNameLanguage": "Barque Borgne",
        "location": {
          "lat": 19.817,
          "lng": -72.5
        },
        "keyAccentLanguage": "barque_borgne"
      },
      {
        "code": 0,
        "type": "City",
        "enNameLanguage": "Belle Anse",
        "location": {
          "lat": 19.45,
          "lng": -72.217
        },
        "keyAccentLanguage": "belle_anse"
      },
      {
        "code": 0,
        "type": "City",
        "enNameLanguage": "Aria",
        "location": {
          "lat": 19.733,
          "lng": -72.417
        },
        "keyAccentLanguage": "aria"
      },
      {
        "code": 0,
        "type": "City",
        "enNameLanguage": "Bassin Mambo",
        "location": {
          "lat": 19.617,
          "lng": -72.133
        },
        "keyAccentLanguage": "bassin_mambo"
      },
      {
        "code": 0,
        "type": "City",
        "enNameLanguage": "Anadi",
        "location": {
          "lat": 19.55,
          "lng": -72.233
        },
        "keyAccentLanguage": "anadi"
      },
      {
        "code": 0,
        "type": "City",
        "enNameLanguage": "Bas Limbe",
        "location": {
          "lat": 19.8,
          "lng": -72.383
        },
        "keyAccentLanguage": "bas_limbe"
      },
      {
        "code": 0,
        "type": "City",
        "enNameLanguage": "Bacannan",
        "location": {
          "lat": 19.583,
          "lng": -72.133
        },
        "keyAccentLanguage": "bacannan"
      },
      {
        "code": 0,
        "type": "City",
        "enNameLanguage": "Belair",
        "location": {
          "lat": 19.583,
          "lng": -72.317
        },
        "keyAccentLanguage": "belair"
      },
      {
        "code": 0,
        "type": "City",
        "enNameLanguage": "Battaille",
        "location": {
          "lat": 19.75,
          "lng": -72.35
        },
        "keyAccentLanguage": "battaille"
      },
      {
        "code": 0,
        "type": "City",
        "enNameLanguage": "Abord",
        "location": {
          "lat": 19.683,
          "lng": -72.25
        },
        "keyAccentLanguage": "abord"
      },
      {
        "code": 0,
        "type": "City",
        "enNameLanguage": "Beaujoin",
        "location": {
          "lat": 19.617,
          "lng": -72.283
        },
        "keyAccentLanguage": "beaujoin"
      },
      {
        "code": 0,
        "type": "City",
        "enNameLanguage": "Antage",
        "location": {
          "lat": 19.767,
          "lng": -72.367
        },
        "keyAccentLanguage": "antage"
      },
      {
        "code": 0,
        "type": "City",
        "enNameLanguage": "Bazin",
        "location": {
          "lat": 19.733,
          "lng": -72.35
        },
        "keyAccentLanguage": "bazin"
      },
      {
        "code": 0,
        "type": "City",
        "enNameLanguage": "Baubere",
        "location": {
          "lat": 19.583,
          "lng": -72.267
        },
        "keyAccentLanguage": "baubere"
      },
      {
        "code": 0,
        "type": "City",
        "enNameLanguage": "Bas du Four",
        "location": {
          "lat": 19.75,
          "lng": -72.333
        },
        "keyAccentLanguage": "bas_du_four"
      },
      {
        "code": 0,
        "type": "City",
        "enNameLanguage": "Beaulieu",
        "location": {
          "lat": 19.533,
          "lng": -72.183
        },
        "keyAccentLanguage": "beaulieu"
      },
      {
        "code": 0,
        "type": "City",
        "enNameLanguage": "Bas Fond Caracol",
        "location": {
          "lat": 19.55,
          "lng": -72.117
        },
        "keyAccentLanguage": "bas_fond_caracol"
      },
      {
        "code": 0,
        "type": "City",
        "enNameLanguage": "Limbe",
        "location": {
          "lat": 19.706,
          "lng": -72.402
        },
        "keyAccentLanguage": "limbe"
      },
      {
        "code": 0,
        "type": "City",
        "enNameLanguage": "Camp Louise",
        "location": {
          "lat": 19.75,
          "lng": -72.35
        },
        "keyAccentLanguage": "camp_louise"
      },
      {
        "code": 0,
        "type": "City",
        "enNameLanguage": "Baroney",
        "location": {
          "lat": 19.35,
          "lng": -72.067
        },
        "keyAccentLanguage": "baroney"
      },
      {
        "code": 0,
        "type": "City",
        "enNameLanguage": "Port Margot",
        "location": {
          "lat": 19.75,
          "lng": -72.433
        },
        "keyAccentLanguage": "port_margot"
      },
      {
        "code": 0,
        "type": "City",
        "enNameLanguage": "Barque",
        "location": {
          "lat": 19.8,
          "lng": -72.467
        },
        "keyAccentLanguage": "barque"
      },
      {
        "code": 0,
        "type": "City",
        "enNameLanguage": "Barriere Bouteille",
        "location": {
          "lat": 19.75,
          "lng": -72.213
        },
        "keyAccentLanguage": "barriere_bouteille"
      },
      {
        "code": 0,
        "type": "City",
        "enNameLanguage": "Bauber",
        "location": {
          "lat": 19.713,
          "lng": -72.229
        },