[
  {
    "code": 0,
    "type": "State",
    "location": {
      "lat": 34.6952361,
      "lng": -91.3060175
    },
    "districtList": [
      {
        "code": 0,
        "type": "City",
        "enNameLanguage": "Boldness",
        "location": {
          "lat": 18.067,
          "lng": -77.35
        },
        "keyAccentLanguage": "boldness"
      },
      {
        "code": 0,
        "type": "City",
        "enNameLanguage": "Bachams Cottage",
        "location": {
          "lat": 17.819,
          "lng": -77.317
        },
        "keyAccentLanguage": "bachams_cottage"
      },
      {
        "code": 0,
        "type": "City",
        "enNameLanguage": "Cockpit",
        "location": {
          "lat": 17.883,
          "lng": -77.15
        },
        "keyAccentLanguage": "cockpit"
      },
      {
        "code": 0,
        "type": "City",
        "enNameLanguage": "Amity Hall",
        "location": {
          "lat": 17.8,
          "lng": -77.267
        },
        "keyAccentLanguage": "amity_hall"
      },
      {
        "code": 0,
        "type": "City",
        "enNameLanguage": "Banks",
        "location": {
          "lat": 17.85,
          "lng": -77.317
        },
        "keyAccentLanguage": "banks"
      },
      {
        "code": 0,
        "type": "City",
        "enNameLanguage": "Brazilletos",
        "location": {
          "lat": 17.835,
          "lng": -77.172
        },
        "keyAccentLanguage": "brazilletos"
      },
      {
        "code": 0,
        "type": "City",
        "enNameLanguage": "Beckfords",
        "location": {
          "lat": 17.9,
          "lng": -77.283
        },
        "keyAccentLanguage": "beckfords"
      },
      {
        "code": 0,
        "type": "City",
        "enNameLanguage": "Baldwins Cottage",
        "location": {
          "lat": 17.767,
          "lng": -77.233
        },
        "keyAccentLanguage": "baldwins_cottage"
      },
      {
        "code": 0,
        "type": "City",
        "enNameLanguage": "Bushy Park",
        "location": {
          "lat": 17.983,
          "lng": -77.25
        },
        "keyAccentLanguage": "bushy_park"
      },
      {
        "code": 0,
        "type": "City",
        "enNameLanguage": "Chateau",
        "location": {
          "lat": 17.967,
          "lng": -77.217
        },
        "keyAccentLanguage": "chateau"
      },
      {
        "code": 0,
        "type": "City",
        "enNameLanguage": "Arthurs Seat",
        "location": {
          "lat": 18.133,
          "lng": -77.233
        },
        "keyAccentLanguage": "arthurs_seat"
      },
      {
        "code": 0,
        "type": "City",
        "enNameLanguage": "Baillieston",
        "location": {
          "lat": 18.167,
          "lng": -77.433
        },
        "keyAccentLanguage": "baillieston"
      },
      {
        "code": 0,
        "type": "City",
        "enNameLanguage": "Cartwheel",
        "location": {
          "lat": 17.95,
          "lng": -77.35
        },
        "keyAccentLanguage": "cartwheel"
      },
      {
        "code": 0,
        "type": "City",
        "enNameLanguage": "Ashleys",
        "location": {
          "lat": 18.067,
          "lng": -77.267
        },
        "keyAccentLanguage": "ashleys"
      },
      {
        "code": 0,
        "type": "City",
        "enNameLanguage": "Belle Plain",
        "location": {
          "lat": 17.967,
          "lng": -77.317
        },
        "keyAccentLanguage": "belle_plain"
      },
      {
        "code": 0,
        "type": "City",
        "enNameLanguage": "Bowen Crawle",
        "location": {
          "lat": 18.05,
          "lng": -77.35
        },
        "keyAccentLanguage": "bowen_crawle"
      },
      {
        "code": 0,
        "type": "City",
        "enNameLanguage": "Corner Shop",
        "location": {
          "lat": 18.183,
          "lng": -77.35
        },
        "keyAccentLanguage": "corner_shop"
      },
      {
        "code": 0,
        "type": "City",
        "enNameLanguage": "Borobridge",
        "location": {
          "lat": 18.2,
          "lng": -77.417
        },
        "keyAccentLanguage": "borobridge"
      },
      {
        "code": 0,
        "type": "City",
        "enNameLanguage": "Ashley Hall",
        "location": {
          "lat": 17.85,
          "lng": -77.267
        },
        "keyAccentLanguage": "ashley_hall"
      },
      {
        "code": 0,
        "type": "City",
        "enNameLanguage": "Chesterfield",
        "location": {
          "lat": 17.8,
          "lng": -77.25
        },
        "keyAccentLanguage": "chesterfield"
      },
      {
        "code": 0,
        "type": "City",
        "enNameLanguage": "Cross Pen",
        "location": {
          "lat": 17.95,
          "lng": -77.2
        },
        "keyAccentLanguage": "cross_pen"
      },
      {
        "code": 0,
        "type": "City",
        "enNameLanguage": "Bog",
        "location": {
          "lat": 17.817,
          "lng": -77.233
        },
        "keyAccentLanguage": "bog"
      },
      {
        "code": 0,
        "type": "City",
        "enNameLanguage": "Effort",
        "location": {
          "lat": 18.133,
          "lng": -77.383
        },
        "keyAccentLanguage": "effort"
      },
      {
        "code": 0,
        "type": "City",
        "enNameLanguage": "British",
        "location": {
          "lat": 18.117,
          "lng": -77.2
        },
        "keyAccentLanguage": "british"
      },
      {
        "code": 0,
        "type": "City",
        "enNameLanguage": "Alston",
        "location": {
          "lat": 18.183,
          "lng": -77.433
        },
        "keyAccentLanguage": "alston"
      },
      {
        "code": 0,
        "type": "City",
        "enNameLanguage": "Exeter",
        "location": {
          "lat": 17.833,
          "lng": -77.3
        },
        "keyAccentLanguage": "exeter"
      },
      {
        "code": 0,
        "type": "City",
        "enNameLanguage": "Crooked River",
        "location": {
          "lat": 18.133,
          "lng": -77.317
        },
        "keyAccentLanguage": "crooked_river"
      },
      {
        "code": 0,
        "type": "City",
        "enNameLanguage": "Folly",
        "location": {
          "lat": 18.017,
          "lng": -77.367
        },
        "keyAccentLanguage": "folly"
      },
      {
        "code": 0,
        "type": "City",
        "enNameLanguage": "Harmony Hall",
        "location": {
          "lat": 17.763,
          "lng": -77.218
        },
        "keyAccentLanguage": "harmony_hall"
      },
      {
        "code": 0,
        "type": "City",
        "enNameLanguage": "Freetown",
        "location": {
          "lat": 17.9,
          "lng": -77.15
        },
        "keyAccentLanguage": "freetown"
      },
      {
        "code": 0,
        "type": "City",
        "enNameLanguage": "Longville",
        "location": {
          "lat": 18.017,
          "lng": -77.217
        },
        "keyAccentLanguage": "longville"
      },
      {
        "code": 0,
        "type": "City",
        "enNameLanguage": "Holyland Corner",
        "location": {
          "lat": 18.1,
          "lng": -77.4
        },
        "keyAccentLanguage": "holyland_corner"
      },
      {
        "code": 0,
        "type": "City",
        "enNameLanguage": "Halse Hall",
        "location": {
          "lat": 17.917,
          "lng": -77.25
        },
        "keyAccentLanguage": "halse_hall"
      },
      {
        "code": 0,
        "type": "City",
        "enNameLanguage": "Comfort Village",
        "location": {
          "lat": 17.95,
          "lng": -77.333
        },
        "keyAccentLanguage": "comfort_village"
      },
      {
        "code": 0,
        "type": "City",
        "enNameLanguage": "Corn Hill",
        "location": {
          "lat": 18.117,
          "lng": -77.383
        },
        "keyAccentLanguage": "corn_hill"
      },
      {
        "code": 0,
        "type": "City",
        "enNameLanguage": "Grantham",
        "location": {
          "lat": 18.15,
          "lng": -77.4
        },
        "keyAccentLanguage": "grantham"
      },
      {
        "code": 0,
        "type": "City",
        "enNameLanguage": "Bryans Pen",
        "location": {
          "lat": 17.967,
          "lng": -77.233
        },
        "keyAccentLanguage": "bryans_pen"
      },
      {
        "code": 0,
        "type": "City",
        "enNameLanguage": "Logie Green",
        "location": {
          "lat": 18.15,
          "lng": -77.417
        },
        "keyAccentLanguage": "logie_green"
      },
      {
        "code": 0,
        "type": "City",
        "enNameLanguage": "Gunters Hill",
        "location": {
          "lat": 17.883,
          "lng": -77.333
        },
        "keyAccentLanguage": "gunters_hill"
      },
      {
        "code": 0,
        "type": "City",
        "enNameLanguage": "Bowens Hall",
        "location": {
          "lat": 17.9,
          "lng": -77.267
        },
        "keyAccentLanguage": "bowens_hall"
      },
      {
        "code": 0,
        "type": "City",
        "enNameLanguage": "Colonels Ridge",
        "location": {
          "lat": 18.133,
          "lng": -77.267
        },
        "keyAccentLanguage": "colonels_ridge"
      },
      {
        "code": 0,
        "type": "City",
        "enNameLanguage": "Kupuis",
        "location": {
          "lat": 18.117,
          "lng": -77.3
        },
        "keyAccentLanguage": "kupuis"
      },
      {
        "code": 0,
        "type": "City",
        "enNameLanguage": "Brandon Hill",
        "location": {
          "lat": 18.15,
          "lng": -77.25
        },
        "keyAccentLanguage": "brandon_hill"
      },
      {
        "code": 0,
        "type": "City",
        "enNameLanguage": "Dry River",
        "location": {
          "lat": 17.883,
          "lng": -77.267
        },
        "keyAccentLanguage": "dry_river"
      },
      {
        "code": 0,
        "type": "City",
        "enNameLanguage": "Decoy",
        "location": {
          "lat": 17.95,
          "lng": -77.367
        },
        "keyAccentLanguage": "decoy"
      },
      {
        "code": 0,
        "type": "City",
        "enNameLanguage": "Breadnut Bottom",
        "location": {
          "lat": 17.95,
          "lng": -77.183
        },
        "keyAccentLanguage": "breadnut_bottom"
      },
      {
        "code": 0,
        "type": "City",
        "enNameLanguage": "Ebony Park",
        "location": {
          "lat": 17.917,
          "lng": -77.35
        },
        "keyAccentLanguage": "ebony_park"
      },
      {
        "code": 0,
        "type": "City",
        "enNameLanguage": "Denhigh Plain",
        "location": {
          "lat": 17.967,
          "lng": -77.267
        },
        "keyAccentLanguage": "denhigh_plain"
      },
      {
        "code": 0,
        "type": "City",
        "enNameLanguage": "Lime Hall",
        "location": {
          "lat": 18.067,
          "lng": -77.2
        },
        "keyAccentLanguage": "lime_hall"
      },
      {
        "code": 0,
        "type": "City",
        "enNameLanguage": "Glenroy",
        "location": {
          "lat": 17.967,
          "lng": -77.283
        },
        "keyAccentLanguage": "glenroy"
      },
      {
        "code": 0,
        "type": "City",
        "enNameLanguage": "Carlisle",
        "location": {
          "lat": 17.77,
          "lng": -77.261
        },
        "keyAccentLanguage": "carlisle"
      },
      {
        "code": 0,
        "type": "City",
        "enNameLanguage": "Gordons Store",
        "location": {
          "lat": 17.967,
          "lng": -77.183
        },
        "keyAccentLanguage": "gordons_store"
      },
      {
        "code": 0,
        "type": "City",
        "enNameLanguage": "Endeavour",
        "location": {
          "lat": 18.083,
          "lng": -77.383
        },
        "keyAccentLanguage": "endeavour"
      },
      {
        "code": 0,
        "type": "City",
        "enNameLanguage": "Dawkins Smokey Hole",
        "location": {
          "lat": 18.033,
          "lng": -77.3
        },
        "keyAccentLanguage": "dawkins_smokey_hole"
      },
      {
        "code": 0,
        "type": "City",
        "enNameLanguage": "Hope",
        "location": {
          "lat": 18.017,
          "lng": -77.35
        },
        "keyAccentLanguage": "hope"
      },
      {
        "code": 0,
        "type": "City",
        "enNameLanguage": "Bog Plain",
        "location": {
          "lat": 17.883,
          "lng": -77.233
        },
        "keyAccentLanguage": "bog_plain"
      },
      {
        "code": 0,
        "type": "City",
        "enNameLanguage": "Chandlers Pen",
        "location": {
          "lat": 17.983,
          "lng": -77.2
        },
        "keyAccentLanguage": "chandlers_pen"
      },
      {
        "code": 0,
        "type": "City",
        "enNameLanguage": "Hazard",
        "location": {
          "lat": 17.95,
          "lng": -77.217
        },
        "keyAccentLanguage": "hazard"
      },
      {
        "code": 0,
        "type": "City",
        "enNameLanguage": "Danks",
        "location": {
          "lat": 18.1,
          "lng": -77.283
        },
        "keyAccentLanguage": "danks"
      },
      {
        "code": 0,
        "type": "City",
        "enNameLanguage": "Hunts Pen",
        "location": {
          "lat": 17.917,
          "lng": -77.217
        },
        "keyAccentLanguage": "hunts_pen"
      },
      {
        "code": 0,
        "type": "City",
        "enNameLanguage": "Balcarres",
        "location": {
          "lat": 18.117,
          "lng": -77.433
        },
        "keyAccentLanguage": "balcarres"
      },
      {
        "code": 0,
        "type": "City",
        "enNameLanguage": "Brixton Hill",
        "location": {
          "lat": 18.017,
          "lng": -77.317
        },
        "keyAccentLanguage": "brixton_hill"
      },
      {
        "code": 0,
        "type": "City",
        "enNameLanguage": "Brokenbank",
        "location": {
          "lat": 17.817,
          "lng": -77.267
        },
        "keyAccentLanguage": "brokenbank"
      },
      {
        "code": 0,
        "type": "City",
        "enNameLanguage": "Farenough",
        "location": {
          "lat": 18.183,
          "lng": -77.217
        },
        "keyAccentLanguage": "farenough"
      },
      {
        "code": 0,
        "type": "City",
        "enNameLanguage": "Jacksons Bay",
        "location": {
          "lat": 17.733,
          "lng": -77.224
        },
        "keyAccentLanguage": "jacksons_bay"
      },
      {
        "code": 0,
        "type": "City",
        "enNameLanguage": "Industry",
        "location": {
          "lat": 18.133,
          "lng": -77.4
        },
        "keyAccentLanguage": "industry"
      },
      {
        "code": 0,
        "type": "City",
        "enNameLanguage": "Lowes Pen",
        "location": {
          "lat": 17.967,
          "lng": -77.367
        },
        "keyAccentLanguage": "lowes_pen"
      },
      {
        "code": 0,
        "type": "City",
        "enNameLanguage": "Inverness",
        "location": {
          "lat": 17.917,
          "lng": -77.167
        },
        "keyAccentLanguage": "inverness"
      },
      {
        "code": 0,
        "type": "City",
        "enNameLanguage": "Free People",
        "location": {
          "lat": 17.933,
          "lng": -77.217
        },
        "keyAccentLanguage": "free_people"
      },
      {
        "code": 0,
        "type": "City",
        "enNameLanguage": "Clarendon Park",
        "location": {
          "lat": 17.983,
          "lng": -77.38
        },
        "keyAccentLanguage": "clarendon_park"
      },
      {
        "code": 0,
        "type": "City",
        "enNameLanguage": "Mahoe Garden",
        "location": {
          "lat": 17.733,
          "lng": -77.133
        },
        "keyAccentLanguage": "mahoe_garden"
      },
      {
        "code": 0,
        "type": "City",
        "enNameLanguage": "Heathfield",
        "location": {
          "lat": 17.817,
          "lng": -77.283
        },
        "keyAccentLanguage": "heathfield"
      },
      {
        "code": 0,
        "type": "City",
        "enNameLanguage": "Curatoe Hill",
        "location": {
          "lat": 17.95,
          "lng": -77.233
        },
        "keyAccentLanguage": "curatoe_hill"
      },
      {
        "code": 0,
        "type": "City",
        "enNameLanguage": "Maimsey Valley",
        "location": {
          "lat": 18.05,
          "lng": -77.217
        },
        "keyAccentLanguage": "maimsey_valley"
      },
      {
        "code": 0,
        "type": "City",
        "enNameLanguage": "Lance Wood Valley",
        "location": {
          "lat": 17.933,
          "lng": -77.183
        },
        "keyAccentLanguage": "lance_wood_valley"
      },
      {
        "code": 0,
        "type": "City",
        "enNameLanguage": "Diamond",
        "location": {
          "lat": 18.083,
          "lng": -77.2
        },
        "keyAccentLanguage": "diamond"
      },
      {
        "code": 0,
        "type": "City",
        "enNameLanguage": "Dee Side",
        "location": {
          "lat": 17.883,
          "lng": -77.35
        },
        "keyAccentLanguage": "dee_side"
      },
      {
        "code": 0,
        "type": "City",
        "enNameLanguage": "Heartherfield",
        "location": {
          "lat": 18.033,
          "lng": -77.333
        },
        "keyAccentLanguage": "heartherfield"
      },
      {
        "code": 0,
        "type": "City",
        "enNameLanguage": "Kemps Hill",
        "location": {
          "lat": 17.85,
          "lng": -77.283
        },
        "keyAccentLanguage": "kemps_hill"
      },
      {
        "code": 0,
        "type": "City",
        "enNameLanguage": "Hayes",
        "location": {
          "lat": 17.867,
          "lng": -77.233
        },
        "keyAccentLanguage": "hayes"
      },
      {
        "code": 0,
        "type": "City",
        "enNameLanguage": "Beckford Kraal",
        "location": {
          "lat": 18.083,
          "lng": -77.3
        },
        "keyAccentLanguage": "beckford_kraal"
      },
      {
        "code": 0,
        "type": "City",
        "enNameLanguage": "Mears",
        "location": {
          "lat": 18.05,
          "lng": -77.233
        },
        "keyAccentLanguage": "mears"
      },
      {
        "code": 0,
        "type": "City",
        "enNameLanguage": "Greenock",
        "location": {
          "lat": 18.2,
          "lng": -77.367
        },
        "keyAccentLanguage": "greenock"
      },
      {
        "code": 0,
        "type": "City",
        "enNameLanguage": "Coates Pen",
        "location": {
          "lat": 17.95,
          "lng": -77.267
        },
        "keyAccentLanguage": "coates_pen"
      },
      {
        "code": 0,
        "type": "City",
        "enNameLanguage": "Manningfield Pen",
        "location": {
          "lat": 17.883,
          "lng": -77.3
        },
        "keyAccentLanguage": "manningfield_pen"
      },
      {
        "code": 0,
        "type": "City",
        "enNameLanguage": "May Pen",
        "location": {
          "lat": 17.969,
          "lng": -77.243
        },
        "keyAccentLanguage": "may_pen"
      },
      {
        "code": 0,
        "type": "City",
        "enNameLanguage": "Knights",
        "location": {
          "lat": 17.786,
          "lng": -77.29
        },
        "keyAccentLanguage": "knights"
      },
      {
        "code": 0,
        "type": "City",
        "enNameLanguage": "Johns Hall",
        "location": {
          "lat": 18.167,
          "lng": -77.367
        },
        "keyAccentLanguage": "johns_hall"
      },
      {
        "code": 0,
        "type": "City",
        "enNameLanguage": "Bryans Hill",
        "location": {
          "lat": 18.133,
          "lng": -77.3
        },
        "keyAccentLanguage": "bryans_hill"
      },
      {
        "code": 0,
        "type": "City",
        "enNameLanguage": "Good Endeavour",
        "location": {
          "lat": 18.1,
          "lng": -77.35
        },
        "keyAccentLanguage": "good_endeavour"
      },
      {
        "code": 0,
        "type": "City",
        "enNameLanguage": "Friendship",
        "location": {
          "lat": 18.117,
          "lng": -77.267
        },
        "keyAccentLanguage": "friendship"
      },
      {
        "code": 0,
        "type": "City",
        "enNameLanguage": "Hillside",
        "location": {
          "lat": 17.833,
          "lng": -77.217
        },
        "keyAccentLanguage": "hillside"
      },
      {
        "code": 0,
        "type": "City",
        "enNameLanguage": "Bullards",
        "location": {
          "lat": 17.933,
          "lng": -77.283
        },
        "keyAccentLanguage": "bullards"
      },
      {
        "code": 0,
        "type": "City",
        "enNameLanguage": "Falkeners",
        "location": {
          "lat": 17.95,
          "lng": -77.283
        },
        "keyAccentLanguage": "falkeners"
      },
      {
        "code": 0,
        "type": "City",
        "enNameLanguage": "Mason River",
        "location": {
          "lat": 18.183,
          "lng": -77.267
        },
        "keyAccentLanguage": "mason_river"
      },
      {
        "code": 0,
        "type": "City",
        "enNameLanguage": "Belmont",
        "location": {
          "lat": 18.033,
          "lng": -77.35
        },
        "keyAccentLanguage": "belmont"
      },
      {
        "code": 0,
        "type": "City",
        "enNameLanguage": "Hopewell",
        "location": {
          "lat": 17.933,
          "lng": -77.3
        },
        "keyAccentLanguage": "hopewell"
      },
      {
        "code": 0,
        "type": "City",
        "enNameLanguage": "Lucky Valley",
        "location": {
          "lat": 18.1,
          "lng": -77.2
        },
        "keyAccentLanguage": "lucky_valley"
      },
      {
        "code": 0,
        "type": "City",
        "enNameLanguage": "Budley Park",
        "location": {
          "lat": 17.867,
          "lng": -77.317
        },
        "keyAccentLanguage": "budley_park"
      },
      {
        "code": 0,
        "type": "City",
        "enNameLanguage": "Harmony Hall",
        "location": {
          "lat": 17.763,
          "lng": -77.218
        },
        "keyAccentLanguage": "harmony_hall"
      }
    ],
    "enNameLanguage": "Clarendon",
    "keyAccentLanguage": "clarendon"
  },
  {
    "code": 0,
    "type": "State",
    "location": {
      "lat": 52.3758916,
      "lng": 9.732010400000002
    },
    "districtList": [
      {
        "code": 0,
        "type": "City",
        "enNameLanguage": "Greenland",
        "location": {
          "lat": 71.706936,
          "lng": -42.604303
        },
        "keyAccentLanguage": "greenland"
      },
      {
        "code": 0,
        "type": "City",
        "enNameLanguage": "Lucea",
        "location": {
          "lat": 18.4504186,
          "lng": -78.17639369999999
        },
        "keyAccentLanguage": "lucea"
      },
      {
        "code": 0,
        "type": "City",
        "enNameLanguage": "Argyle",
        "location": {
          "lat": 18.317,
          "lng": -77.983
        },
        "keyAccentLanguage": "argyle"
      },
      {
        "code": 0,
        "type": "City",
        "enNameLanguage": "Blue Hole",
        "location": {
          "lat": 18.45,
          "lng": -78.1
        },
        "keyAccentLanguage": "blue_hole"
      },
      {
        "code": 0,
        "type": "City",
        "enNameLanguage": "Kempshot",
        "location": {
          "lat": 18.383,
          "lng": -78.117
        },
        "keyAccentLanguage": "kempshot"
      },
      {
        "code": 0,
        "type": "City",
        "enNameLanguage": "Shettlewood",
        "location": {
          "lat": 18.35,
          "lng": -77.95
        },
        "keyAccentLanguage": "shettlewood"
      },
      {
        "code": 0,
        "type": "City",
        "enNameLanguage": "Copse",
        "location": {
          "lat": 18.383,
          "lng": -77.967
        },
        "keyAccentLanguage": "copse"
      },
      {
        "code": 0,
        "type": "City",
        "enNameLanguage": "Content",
        "location": {
          "lat": 18.383,
          "lng": -78.017
        },
        "keyAccentLanguage": "content"
      },
      {
        "code": 0,
        "type": "City",
        "enNameLanguage": "Abingdon",
        "location": {
          "lat": 18.383,
          "lng": -78.299
        },
        "keyAccentLanguage": "abingdon"
      },
      {
        "code": 0,
        "type": "City",
        "enNameLanguage": "Tom Spring",
        "location": {
          "lat": 18.417,
          "lng": -78.15
        },
        "keyAccentLanguage": "tom_spring"
      },
      {
        "code": 0,
        "type": "City",
        "enNameLanguage": "Bowers Hall",
        "location": {
          "lat": 18.4,
          "lng": -78.183
        },
        "keyAccentLanguage": "bowers_hall"
      },
      {
        "code": 0,
        "type": "City",
        "enNameLanguage": "Haughton Hall",
        "location": {
          "lat": 18.383,
          "lng": -78.283
        },
        "keyAccentLanguage": "haughton_hall"
      },
      {
        "code": 0,
        "type": "City",
        "enNameLanguage": "Green River",
        "location": {
          "lat": 18.367,
          "lng": -78.25
        },
        "keyAccentLanguage": "green_river"
      },
      {
        "code": 0,
        "type": "City",
        "enNameLanguage": "Prospect",
        "location": {
          "lat": 18.383,
          "lng": -78.25
        },
        "keyAccentLanguage": "prospect"
      },
      {
        "code": 0,
        "type": "City",
        "enNameLanguage": "Bamboo",
        "location": {
          "lat": 18.433,
          "lng": -78.033
        },
        "keyAccentLanguage": "bamboo"
      },
      {
        "code": 0,
        "type": "City",
        "enNameLanguage": "Fish River",
        "location": {
          "lat": 18.333,
          "lng": -78.3
        },
        "keyAccentLanguage": "fish_river"
      },
      {
        "code": 0,
        "type": "City",
        "enNameLanguage": "Maggotty",
        "location": {
          "lat": 18.417,
          "lng": -78.117
        },
        "keyAccentLanguage": "maggotty"
      },
      {
        "code": 0,
        "type": "City",
        "enNameLanguage": "Great Valley",
        "location": {
          "lat": 18.4,
          "lng": -78.067
        },
        "keyAccentLanguage": "great_valley"
      },
      {
        "code": 0,
        "type": "City",
        "enNameLanguage": "Cacoon Castle",
        "location": {
          "lat": 18.4,
          "lng": -78.017
        },
        "keyAccentLanguage": "cacoon_castle"
      },
      {
        "code": 0,
        "type": "City",
        "enNameLanguage": "Haughton Grove",
        "location": {
          "lat": 18.333,
          "lng": -77.983
        },
        "keyAccentLanguage": "haughton_grove"
      },
      {
        "code": 0,
        "type": "City",
        "enNameLanguage": "Flint River",
        "location": {
          "lat": 18.45,
          "lng": -78.05
        },
        "keyAccentLanguage": "flint_river"
      },
      {
        "code": 0,
        "type": "City",
        "enNameLanguage": "Salt Spring",
        "location": {
          "lat": 18.383,
          "lng": -78.267
        },
        "keyAccentLanguage": "salt_spring"
      },
      {
        "code": 0,
        "type": "City",
        "enNameLanguage": "Cousins Cove",
        "location": {
          "lat": 18.417,
          "lng": -78.233
        },
        "keyAccentLanguage": "cousins_cove"
      },
      {
        "code": 0,
        "type": "City",
        "enNameLanguage": "Elgin Town",
        "location": {
          "lat": 18.433,
          "lng": -78.15
        },
        "keyAccentLanguage": "elgin_town"
      },
      {
        "code": 0,
        "type": "City",
        "enNameLanguage": "Buxton",
        "location": {
          "lat": 18.367,
          "lng": -78.1
        },
        "keyAccentLanguage": "buxton"
      },
      {
        "code": 0,
        "type": "City",
        "enNameLanguage": "Askenish",
        "location": {
          "lat": 18.383,
          "lng": -78.15
        },
        "keyAccentLanguage": "askenish"
      },
      {
        "code": 0,
        "type": "City",
        "enNameLanguage": "Pedro",
        "location": {
          "lat": 18.45,
          "lng": -78.217
        },
        "keyAccentLanguage": "pedro"
      },
      {
        "code": 0,
        "type": "City",
        "enNameLanguage": "Sadlers Hall",
        "location": {
          "lat": 18.35,
          "lng": -78
        },
        "keyAccentLanguage": "sadlers_hall"
      },
      {
        "code": 0,
        "type": "City",
        "enNameLanguage": "Miles Town",
        "location": {
          "lat": 18.367,
          "lng": -77.983
        },
        "keyAccentLanguage": "miles_town"
      },
      {
        "code": 0,
        "type": "City",
        "enNameLanguage": "Coventry Pen",
        "location": {
          "lat": 18.417,
          "lng": -78.067
        },
        "keyAccentLanguage": "coventry_pen"
      },
      {
        "code": 0,
        "type": "City",
        "enNameLanguage": "Cacoon",
        "location": {
          "lat": 18.417,
          "lng": -78.217
        },
        "keyAccentLanguage": "cacoon"
      },
      {
        "code": 0,
        "type": "City",
        "enNameLanguage": "Sandy Bay",
        "location": {
          "lat": 18.449,
          "lng": -78.083
        },
        "keyAccentLanguage": "sandy_bay"
      },
      {
        "code": 0,
        "type": "City",
        "enNameLanguage": "Pondside",
        "location": {
          "lat": 18.4,
          "lng": -78.083
        },
        "keyAccentLanguage": "pondside"
      },
      {
        "code": 0,
        "type": "City",
        "enNameLanguage": "Haughton Court",
        "location": {
          "lat": 18.433,
          "lng": -78.217
        },
        "keyAccentLanguage": "haughton_court"
      },
      {
        "code": 0,
        "type": "City",
        "enNameLanguage": "Success",
        "location": {
          "lat": 18.367,
          "lng": -78.05
        },
        "keyAccentLanguage": "success"
      },
      {
        "code": 0,
        "type": "City",
        "enNameLanguage": "Mosquito Cove",
        "location": {
          "lat": 18.433,
          "lng": -78.117
        },
        "keyAccentLanguage": "mosquito_cove"
      },
      {
        "code": 0,
        "type": "City",
        "enNameLanguage": "Friendship",
        "location": {
          "lat": 18.4,
          "lng": -78.233
        },
        "keyAccentLanguage": "friendship"
      },
      {
        "code": 0,
        "type": "City",
        "enNameLanguage": "Peak Pen",
        "location": {
          "lat": 18.433,
          "lng": -78.133
        },
        "keyAccentLanguage": "peak_pen"
      },
      {
        "code": 0,
        "type": "City",
        "enNameLanguage": "Barbican",
        "location": {
          "lat": 18.45,
          "lng": -78.117
        },
        "keyAccentLanguage": "barbican"
      },
      {
        "code": 0,
        "type": "City",
        "enNameLanguage": "Cambelton",
        "location": {
          "lat": 18.35,
          "lng": -78.283
        },
        "keyAccentLanguage": "cambelton"
      },
      {
        "code": 0,
        "type": "City",
        "enNameLanguage": "Rockingham",
        "location": {
          "lat": 18.383,
          "lng": -78.167
        },
        "keyAccentLanguage": "rockingham"
      },
      {
        "code": 0,
        "type": "City",
        "enNameLanguage": "Eaton",
        "location": {
          "lat": 18.433,
          "lng": -78.167
        },
        "keyAccentLanguage": "eaton"
      },
      {
        "code": 0,
        "type": "City",
        "enNameLanguage": "Orange Cove",
        "location": {
          "lat": 18.45,
          "lng": -78.2
        },
        "keyAccentLanguage": "orange_cove"
      },
      {
        "code": 0,
        "type": "City",
        "enNameLanguage": "March Town",
        "location": {
          "lat": 18.333,
          "lng": -78.267
        },
        "keyAccentLanguage": "march_town"
      },
      {
        "code": 0,
        "type": "City",
        "enNameLanguage": "Alexandria",
        "location": {
          "lat": 18.35,
          "lng": -78.033
        },
        "keyAccentLanguage": "alexandria"
      },
      {
        "code": 0,
        "type": "City",
        "enNameLanguage": "Orange Bay",
        "location": {
          "lat": 18.366,
          "lng": -78.322
        },
        "keyAccentLanguage": "orange_bay"
      },
      {
        "code": 0,
        "type": "City",
        "enNameLanguage": "Point",
        "location": {
          "lat": 18.45,
          "lng": -78.15
        },
        "keyAccentLanguage": "point"
      },
      {
        "code": 0,
        "type": "City",
        "enNameLanguage": "Westfield",
        "location": {
          "lat": 18.35,
          "lng": -78.25
        },
        "keyAccentLanguage": "westfield"
      },
      {
        "code": 0,
        "type": "City",
        "enNameLanguage": "Round Hill",
        "location": {
          "lat": 18.45,
          "lng": -78.017
        },
        "keyAccentLanguage": "round_hill"
      },
      {
        "code": 0,
        "type": "City",
        "enNameLanguage": "Georgia",
        "location": {
          "lat": 18.417,
          "lng": -78.133
        },
        "keyAccentLanguage": "georgia"
      },
      {
        "code": 0,
        "type": "City",
        "enNameLanguage": "Rhodes Hall",
        "location": {
          "lat": 18.367,
          "lng": -78.3
        },
        "keyAccentLanguage": "rhodes_hall"
      },
      {
        "code": 0,
        "type": "City",
        "enNameLanguage": "Grange",
        "location": {
          "lat": 18.367,
          "lng": -78.233
        },
        "keyAccentLanguage": "grange"
      },
      {
        "code": 0,
        "type": "City",
        "enNameLanguage": "Phoenix",
        "location": {
          "lat": 18.367,
          "lng": -78.283
        },
        "keyAccentLanguage": "phoenix"
      },
      {
        "code": 0,
        "type": "City",
        "enNameLanguage": "Cascade",
        "location": {
          "lat": 18.4,
          "lng": -78.1
        },
        "keyAccentLanguage": "cascade"
      },
      {
        "code": 0,
        "type": "City",
        "enNameLanguage": "Tryall",
        "location": {
          "lat": 18.45,
          "lng": -78.067
        },
        "keyAccentLanguage": "tryall"
      },
      {
        "code": 0,
        "type": "City",
        "enNameLanguage": "Maryland",
        "location": {
          "lat": 18.383,
          "lng": -78.133
        },
        "keyAccentLanguage": "maryland"
      },
      {
        "code": 0,
        "type": "City",
        "enNameLanguage": "Rome",
        "location": {
          "lat": 18.417,
          "lng": -78.05
        },
        "keyAccentLanguage": "rome"
      },
      {
        "code": 0,
        "type": "City",
        "enNameLanguage": "Green Island",
        "location": {
          "lat": 18.387,
          "lng": -78.277
        },
        "keyAccentLanguage": "green_island"
      },
      {
        "code": 0,
        "type": "City",
        "enNameLanguage": "New Green Island",
        "location": {
          "lat": 18.367,
          "lng": -78.267
        },
        "keyAccentLanguage": "new_green_island"
      },
      {
        "code": 0,
        "type": "City",
        "enNameLanguage": "Paradise",
        "location": {
          "lat": 18.45,
          "lng": -78.133
        },
        "keyAccentLanguage": "paradise"
      },
      {
        "code": 0,
        "type": "City",
        "enNameLanguage": "Caledonia",
        "location": {
          "lat": 18.383,
          "lng": -78.05
        },
        "keyAccentLanguage": "caledonia"
      },
      {
        "code": 0,
        "type": "City",
        "enNameLanguage": "Riverside",
        "location": {
          "lat": 18.383,
          "lng": -78.183
        },
        "keyAccentLanguage": "riverside"
      },
      {
        "code": 0,
        "type": "City",
        "enNameLanguage": "Chigwell",
        "location": {
          "lat": 18.4,
          "lng": -78.05
        },
        "keyAccentLanguage": "chigwell"
      },
      {
        "code": 0,
        "type": "City",
        "enNameLanguage": "Belvedere",
        "location": {
          "lat": 18.317,
          "lng": -77.933
        },
        "keyAccentLanguage": "belvedere"
      },
      {
        "code": 0,
        "type": "City",
        "enNameLanguage": "Bachelors Hall",
        "location": {
          "lat": 18.433,
          "lng": -78.2
        },
        "keyAccentLanguage": "bachelors_hall"
      },
      {
        "code": 0,
        "type": "City",
        "enNameLanguage": "Kingsvale",
        "location": {
          "lat": 18.383,
          "lng": -78.217
        },
        "keyAccentLanguage": "kingsvale"
      },
      {
        "code": 0,
        "type": "City",
        "enNameLanguage": "Spring Valley",
        "location": {
          "lat": 18.4,
          "lng": -78.25
        },
        "keyAccentLanguage": "spring_valley"
      },
      {
        "code": 0,
        "type": "City",
        "enNameLanguage": "Dias",
        "location": {
          "lat": 18.4,
          "lng": -78.2
        },
        "keyAccentLanguage": "dias"
      },
      {
        "code": 0,
        "type": "City",
        "enNameLanguage": "Cave Valley",
        "location": {
          "lat": 18.32,
          "lng": -78.267
        },
        "keyAccentLanguage": "cave_valley"
      },
      {
        "code": 0,
        "type": "City",
        "enNameLanguage": "Haddington",
        "location": {
          "lat": 18.417,
          "lng": -78
        },
        "keyAccentLanguage": "haddington"
      },
      {
        "code": 0,
        "type": "City",
        "enNameLanguage": "Ramble Pen",
        "location": {
          "lat": 18.333,
          "lng": -78.017
        },
        "keyAccentLanguage": "ramble_pen"
      },
      {
        "code": 0,
        "type": "City",
        "enNameLanguage": "Cauldwell",
        "location": {
          "lat": 18.383,
          "lng": -78.233
        },
        "keyAccentLanguage": "cauldwell"
      },
      {
        "code": 0,
        "type": "City",
        "enNameLanguage": "Recovery Pen",
        "location": {
          "lat": 18.433,
          "lng": -78.067
        },
        "keyAccentLanguage": "recovery_pen"
      }
    ],
    "enNameLanguage": "Hanover",
    "keyAccentLanguage": "hanover"
  },
  {
    "code": 0,
    "type": "State",
    "location": {
      "lat": 17.975,
      "lng": -76.768
    },
    "districtList": [
      {
        "code": 0,
        "type": "City",
        "enNameLanguage": "Bournemouth Gardens",
        "location": {
          "lat": 17.967,
          "lng": -76.767
        },
        "keyAccentLanguage": "bournemouth_gardens"
      },
      {
        "code": 0,
        "type": "City",
        "enNameLanguage": "Trench Town",
        "location": {
          "lat": 17.967,
          "lng": -76.8
        },
        "keyAccentLanguage": "trench_town"
      },
      {
        "code": 0,
        "type": "City",
        "enNameLanguage": "Greenwich Town",
        "location": {
          "lat": 17.967,
          "lng": -76.817
        },
        "keyAccentLanguage": "greenwich_town"
      },
      {
        "code": 0,
        "type": "City",
        "enNameLanguage": "Mountain View Gardens",
        "location": {
          "lat": 17.967,
          "lng": -76.767
        },
        "keyAccentLanguage": "mountain_view_gardens"
      },
      {
        "code": 0,
        "type": "City",
        "enNameLanguage": "Newport East",
        "location": {
          "lat": 17.967,
          "lng": -76.8
        },
        "keyAccentLanguage": "newport_east"
      },
      {
        "code": 0,
        "type": "City",
        "enNameLanguage": "Vineyard Town",
        "location": {
          "lat": 17.967,
          "lng": -76.767
        },
        "keyAccentLanguage": "vineyard_town"
      },
      {
        "code": 0,
        "type": "City",
        "enNameLanguage": "Rollington Town",
        "location": {
          "lat": 17.967,
          "lng": -76.767
        },
        "keyAccentLanguage": "rollington_town"
      },
      {
        "code": 0,
        "type": "City",
        "enNameLanguage": "Norman Gardens",
        "location": {
          "lat": 17.967,
          "lng": -76.75
        },
        "keyAccentLanguage": "norman_gardens"
      },
      {
        "code": 0,
        "type": "City",
        "enNameLanguage": "Kingston",
        "location": {
          "lat": 17.975,
          "lng": -76.768
        },
        "keyAccentLanguage": "kingston"
      }
    ],
    "enNameLanguage": "Kingston",
    "keyAccentLanguage": "kingston"
  },
  {
    "code": 0,
    "type": "State",
    "location": {
      "lat": 53.4807593,
      "lng": -2.2426305
    },
    "districtList": [
      {
        "code": 0,
        "type": "City",
        "enNameLanguage": "Newport",
        "location": {
          "lat": 17.92865,
          "lng": -77.516319
        },
        "keyAccentLanguage": "newport"
      },
      {
        "code": 0,
        "type": "City",
        "enNameLanguage": "Craig Head",
        "location": {
          "lat": 18.233,
          "lng": -77.567
        },
        "keyAccentLanguage": "craig_head"
      },
      {
        "code": 0,
        "type": "City",
        "enNameLanguage": "Chudleigh",
        "location": {
          "lat": 18.15,
          "lng": -77.517
        },
        "keyAccentLanguage": "chudleigh"
      },
      {
        "code": 0,
        "type": "City",
        "enNameLanguage": "Ballynure",
        "location": {
          "lat": 18.167,
          "lng": -77.567
        },
        "keyAccentLanguage": "ballynure"
      },
      {
        "code": 0,
        "type": "City",
        "enNameLanguage": "Reeves Wood",
        "location": {
          "lat": 18,
          "lng": -77.4
        },
        "keyAccentLanguage": "reeves_wood"
      },
      {
        "code": 0,
        "type": "City",
        "enNameLanguage": "Kendal",
        "location": {
          "lat": 18.083,
          "lng": -77.483
        },
        "keyAccentLanguage": "kendal"
      },
      {
        "code": 0,
        "type": "City",
        "enNameLanguage": "Hibernia",
        "location": {
          "lat": 18.15,
          "lng": -77.567
        },
        "keyAccentLanguage": "hibernia"
      },
      {
        "code": 0,
        "type": "City",
        "enNameLanguage": "Cheapside",
        "location": {
          "lat": 17.933,
          "lng": -77.433
        },
        "keyAccentLanguage": "cheapside"
      },
      {
        "code": 0,
        "type": "City",
        "enNameLanguage": "Barossa",
        "location": {
          "lat": 18.033,
          "lng": -77.467
        },
        "keyAccentLanguage": "barossa"
      },
      {
        "code": 0,
        "type": "City",
        "enNameLanguage": "Comfort Hall",
        "location": {
          "lat": 18.183,
          "lng": -77.6
        },
        "keyAccentLanguage": "comfort_hall"
      },
      {
        "code": 0,
        "type": "City",
        "enNameLanguage": "Banana Ground",
        "location": {
          "lat": 18.067,
          "lng": -77.433
        },
        "keyAccentLanguage": "banana_ground"
      },
      {
        "code": 0,
        "type": "City",
        "enNameLanguage": "Adams Valley",
        "location": {
          "lat": 18.117,
          "lng": -77.6
        },
        "keyAccentLanguage": "adams_valley"
      },
      {
        "code": 0,
        "type": "City",
        "enNameLanguage": "Berwick",
        "location": {
          "lat": 18.017,
          "lng": -77.483
        },
        "keyAccentLanguage": "berwick"
      },
      {
        "code": 0,
        "type": "City",
        "enNameLanguage": "Belleair",
        "location": {
          "lat": 18.1,
          "lng": -77.45
        },
        "keyAccentLanguage": "belleair"
      },
      {
        "code": 0,
        "type": "City",
        "enNameLanguage": "Bossue",
        "location": {
          "lat": 17.883,
          "lng": -77.433
        },
        "keyAccentLanguage": "bossue"
      },
      {
        "code": 0,
        "type": "City",
        "enNameLanguage": "Belle Retiro",
        "location": {
          "lat": 18.017,
          "lng": -77.467
        },
        "keyAccentLanguage": "belle_retiro"
      },
      {
        "code": 0,
        "type": "City",
        "enNameLanguage": "Content",
        "location": {
          "lat": 18.05,
          "lng": -77.467
        },
        "keyAccentLanguage": "content"
      },
      {
        "code": 0,
        "type": "City",
        "enNameLanguage": "Brokenhurst",
        "location": {
          "lat": 17.967,
          "lng": -77.45
        },
        "keyAccentLanguage": "brokenhurst"
      },
      {
        "code": 0,
        "type": "City",
        "enNameLanguage": "Asia",
        "location": {
          "lat": 17.9,
          "lng": -77.433
        },
        "keyAccentLanguage": "asia"
      },
      {
        "code": 0,
        "type": "City",
        "enNameLanguage": "Hansons",
        "location": {
          "lat": 18.183,
          "lng": -77.5
        },
        "keyAccentLanguage": "hansons"
      },
      {
        "code": 0,
        "type": "City",
        "enNameLanguage": "Great Valley",
        "location": {
          "lat": 17.883,
          "lng": -77.517
        },
        "keyAccentLanguage": "great_valley"
      },
      {
        "code": 0,
        "type": "City",
        "enNameLanguage": "Knockpatrick",
        "location": {
          "lat": 18,
          "lng": -77.517
        },
        "keyAccentLanguage": "knockpatrick"
      },
      {
        "code": 0,
        "type": "City",
        "enNameLanguage": "Park Hall",
        "location": {
          "lat": 17.933,
          "lng": -77.4
        },
        "keyAccentLanguage": "park_hall"
      },
      {
        "code": 0,
        "type": "City",
        "enNameLanguage": "Bethany",
        "location": {
          "lat": 18.15,
          "lng": -77.533
        },
        "keyAccentLanguage": "bethany"
      },
      {
        "code": 0,
        "type": "City",
        "enNameLanguage": "Downs",
        "location": {
          "lat": 17.933,
          "lng": -77.567
        },
        "keyAccentLanguage": "downs"
      },
      {
        "code": 0,
        "type": "City",
        "enNameLanguage": "Hog Hole",
        "location": {
          "lat": 17.95,
          "lng": -77.433
        },
        "keyAccentLanguage": "hog_hole"
      },
      {
        "code": 0,
        "type": "City",
        "enNameLanguage": "Huntley",
        "location": {
          "lat": 18.067,
          "lng": -77.583
        },
        "keyAccentLanguage": "huntley"
      },
      {
        "code": 0,
        "type": "City",
        "enNameLanguage": "Cobblers",
        "location": {
          "lat": 18.133,
          "lng": -77.467
        },
        "keyAccentLanguage": "cobblers"
      },
      {
        "code": 0,
        "type": "City",
        "enNameLanguage": "Caledonia",
        "location": {
          "lat": 18.05,
          "lng": -77.483
        },
        "keyAccentLanguage": "caledonia"
      },
      {
        "code": 0,
        "type": "City",
        "enNameLanguage": "Eglington",
        "location": {
          "lat": 18.017,
          "lng": -77.583
        },
        "keyAccentLanguage": "eglington"
      },
      {
        "code": 0,
        "type": "City",
        "enNameLanguage": "Cross Keys",
        "location": {
          "lat": 17.9,
          "lng": -77.5
        },
        "keyAccentLanguage": "cross_keys"
      },
      {
        "code": 0,
        "type": "City",
        "enNameLanguage": "Mason",
        "location": {
          "lat": 18.217,
          "lng": -77.533
        },
        "keyAccentLanguage": "mason"
      },
      {
        "code": 0,
        "type": "City",
        "enNameLanguage": "French Park",
        "location": {
          "lat": 17.983,
          "lng": -77.55
        },
        "keyAccentLanguage": "french_park"
      },
      {
        "code": 0,
        "type": "City",
        "enNameLanguage": "Port Mahon",
        "location": {
          "lat": 17.883,
          "lng": -77.55
        },
        "keyAccentLanguage": "port_mahon"
      },
      {
        "code": 0,
        "type": "City",
        "enNameLanguage": "Cottage",
        "location": {
          "lat": 17.967,
          "lng": -77.467
        },
        "keyAccentLanguage": "cottage"
      },
      {
        "code": 0,
        "type": "City",
        "enNameLanguage": "Moreland",
        "location": {
          "lat": 17.983,
          "lng": -77.533
        },
        "keyAccentLanguage": "moreland"
      },
      {
        "code": 0,
        "type": "City",
        "enNameLanguage": "Petersfield",
        "location": {
          "lat": 18.117,
          "lng": -77.55
        },
        "keyAccentLanguage": "petersfield"
      },
      {
        "code": 0,
        "type": "City",
        "enNameLanguage": "Harmons",
        "location": {
          "lat": 17.967,
          "lng": -77.433
        },
        "keyAccentLanguage": "harmons"
      },
      {
        "code": 0,
        "type": "City",
        "enNameLanguage": "Little Mountain",
        "location": {
          "lat": 17.9,
          "lng": -77.383
        },
        "keyAccentLanguage": "little_mountain"
      },
      {
        "code": 0,
        "type": "City",
        "enNameLanguage": "Buckup",
        "location": {
          "lat": 17.883,
          "lng": -77.5
        },
        "keyAccentLanguage": "buckup"
      },
      {
        "code": 0,
        "type": "City",
        "enNameLanguage": "Bloomfield",
        "location": {
          "lat": 18.033,
          "lng": -77.533
        },
        "keyAccentLanguage": "bloomfield"
      },
      {
        "code": 0,
        "type": "City",
        "enNameLanguage": "Johns Hall",
        "location": {
          "lat": 18.117,
          "lng": -77.583
        },
        "keyAccentLanguage": "johns_hall"
      },
      {
        "code": 0,
        "type": "City",
        "enNameLanguage": "Green Pond",
        "location": {
          "lat": 17.983,
          "lng": -77.433
        },
        "keyAccentLanguage": "green_pond"
      },
      {
        "code": 0,
        "type": "City",
        "enNameLanguage": "Porus",
        "location": {
          "lat": 18.042,
          "lng": -77.422
        },
        "keyAccentLanguage": "porus"
      },
      {
        "code": 0,
        "type": "City",
        "enNameLanguage": "Green Vale",
        "location": {
          "lat": 17.95,
          "lng": -77.45
        },
        "keyAccentLanguage": "green_vale"
      },
      {
        "code": 0,
        "type": "City",
        "enNameLanguage": "Christiana",
        "location": {
          "lat": 18.173,
          "lng": -77.485
        },
        "keyAccentLanguage": "christiana"
      },
      {
        "code": 0,
        "type": "City",
        "enNameLanguage": "Marshalls Pen",
        "location": {
          "lat": 18.05,
          "lng": -77.533
        },
        "keyAccentLanguage": "marshalls_pen"
      },
      {
        "code": 0,
        "type": "City",
        "enNameLanguage": "Free Town",
        "location": {
          "lat": 17.9,
          "lng": -77.417
        },
        "keyAccentLanguage": "free_town"
      },
      {
        "code": 0,
        "type": "City",
        "enNameLanguage": "Heavitree",
        "location": {
          "lat": 18.183,
          "lng": -77.567
        },
        "keyAccentLanguage": "heavitree"
      },
      {
        "code": 0,
        "type": "City",
        "enNameLanguage": "Bellefield",
        "location": {
          "lat": 18.067,
          "lng": -77.45
        },
        "keyAccentLanguage": "bellefield"
      },
      {
        "code": 0,
        "type": "City",
        "enNameLanguage": "Oldbury",
        "location": {
          "lat": 17.967,
          "lng": -77.533
        },
        "keyAccentLanguage": "oldbury"
      },
      {
        "code": 0,
        "type": "City",
        "enNameLanguage": "Blakes Pen",
        "location": {
          "lat": 17.917,
          "lng": -77.567
        },
        "keyAccentLanguage": "blakes_pen"
      },
      {
        "code": 0,
        "type": "City",
        "enNameLanguage": "Keanwood",
        "location": {
          "lat": 18.2,
          "lng": -77.617
        },
        "keyAccentLanguage": "keanwood"
      },
      {
        "code": 0,
        "type": "City",
        "enNameLanguage": "Clandon",
        "location": {
          "lat": 18.15,
          "lng": -77.467
        },
        "keyAccentLanguage": "clandon"
      },
      {
        "code": 0,
        "type": "City",
        "enNameLanguage": "Arcadia",
        "location": {
          "lat": 18.05,
          "lng": -77.433
        },
        "keyAccentLanguage": "arcadia"
      },
      {
        "code": 0,
        "type": "City",
        "enNameLanguage": "Lucky Valley",
        "location": {
          "lat": 17.967,
          "lng": -77.567
        },
        "keyAccentLanguage": "lucky_valley"
      },
      {
        "code": 0,
        "type": "City",
        "enNameLanguage": "Redbury",
        "location": {
          "lat": 18.033,
          "lng": -77.433
        },
        "keyAccentLanguage": "redbury"
      },
      {
        "code": 0,
        "type": "City",
        "enNameLanguage": "Montpelier",
        "location": {
          "lat": 17.983,
          "lng": -77.583
        },
        "keyAccentLanguage": "montpelier"
      },
      {
        "code": 0,
        "type": "City",
        "enNameLanguage": "Plowden Hill",
        "location": {
          "lat": 17.867,
          "lng": -77.55
        },
        "keyAccentLanguage": "plowden_hill"
      },
      {
        "code": 0,
        "type": "City",
        "enNameLanguage": "May Hill",
        "location": {
          "lat": 17.95,
          "lng": -77.567
        },
        "keyAccentLanguage": "may_hill"
      },
      {
        "code": 0,
        "type": "City",
        "enNameLanguage": "Quatre Bras",
        "location": {
          "lat": 17.9,
          "lng": -77.45
        },
        "keyAccentLanguage": "quatre_bras"
      },
      {
        "code": 0,
        "type": "City",
        "enNameLanguage": "Evergreen",
        "location": {
          "lat": 18.183,
          "lng": -77.617
        },
        "keyAccentLanguage": "evergreen"
      },
      {
        "code": 0,
        "type": "City",
        "enNameLanguage": "Browns Town",
        "location": {
          "lat": 18.033,
          "lng": -77.45
        },
        "keyAccentLanguage": "browns_town"
      },
      {
        "code": 0,
        "type": "City",
        "enNameLanguage": "Beverly",
        "location": {
          "lat": 18.15,
          "lng": -77.617
        },
        "keyAccentLanguage": "beverly"
      },
      {
        "code": 0,
        "type": "City",
        "enNameLanguage": "Hanbury",
        "location": {
          "lat": 18.067,
          "lng": -77.483
        },
        "keyAccentLanguage": "hanbury"
      },
      {
        "code": 0,
        "type": "City",
        "enNameLanguage": "Hermitage",
        "location": {
          "lat": 17.917,
          "lng": -77.45
        },
        "keyAccentLanguage": "hermitage"
      },
      {
        "code": 0,
        "type": "City",
        "enNameLanguage": "Perth",
        "location": {
          "lat": 18.017,
          "lng": -77.533
        },
        "keyAccentLanguage": "perth"
      },
      {
        "code": 0,
        "type": "City",
        "enNameLanguage": "Fairfield",
        "location": {
          "lat": 18.017,
          "lng": -77.567
        },
        "keyAccentLanguage": "fairfield"
      },
      {
        "code": 0,
        "type": "City",
        "enNameLanguage": "Dunkeld",
        "location": {
          "lat": 18.117,
          "lng": -77.517
        },
        "keyAccentLanguage": "dunkeld"
      },
      {
        "code": 0,
        "type": "City",
        "enNameLanguage": "Prospect",
        "location": {
          "lat": 17.883,
          "lng": -77.45
        },
        "keyAccentLanguage": "prospect"
      },
      {
        "code": 0,
        "type": "City",
        "enNameLanguage": "Mandeville",
        "location": {
          "lat": 18.04,
          "lng": -77.513
        },
        "keyAccentLanguage": "mandeville"
      },
      {
        "code": 0,
        "type": "City",
        "enNameLanguage": "Devon",
        "location": {
          "lat": 18.167,
          "lng": -77.55
        },
        "keyAccentLanguage": "devon"
      },
      {
        "code": 0,
        "type": "City",
        "enNameLanguage": "Gravel Hill",
        "location": {
          "lat": 17.9,
          "lng": -77.368
        },
        "keyAccentLanguage": "gravel_hill"
      },
      {
        "code": 0,
        "type": "City",
        "enNameLanguage": "Patrick Town",
        "location": {
          "lat": 17.967,
          "lng": -77.417
        },
        "keyAccentLanguage": "patrick_town"
      },
      {
        "code": 0,
        "type": "City",
        "enNameLanguage": "Chantilly",
        "location": {
          "lat": 18.117,
          "lng": -77.483
        },
        "keyAccentLanguage": "chantilly"
      },
      {
        "code": 0,
        "type": "City",
        "enNameLanguage": "Clarks Town",
        "location": {
          "lat": 18.05,
          "lng": -77.517
        },
        "keyAccentLanguage": "clarks_town"
      },
      {
        "code": 0,
        "type": "City",
        "enNameLanguage": "Galway",
        "location": {
          "lat": 18.083,
          "lng": -77.6
        },
        "keyAccentLanguage": "galway"
      },
      {
        "code": 0,
        "type": "City",
        "enNameLanguage": "Lincoln",
        "location": {
          "lat": 18.033,
          "lng": -77.567
        },
        "keyAccentLanguage": "lincoln"
      },
      {
        "code": 0,
        "type": "City",
        "enNameLanguage": "Mile Gully",
        "location": {
          "lat": 18.133,
          "lng": -77.55
        },
        "keyAccentLanguage": "mile_gully"
      },
      {
        "code": 0,
        "type": "City",
        "enNameLanguage": "Hope",
        "location": {
          "lat": 18.05,
          "lng": -77.45
        },
        "keyAccentLanguage": "hope"
      },
      {
        "code": 0,
        "type": "City",
        "enNameLanguage": "Isle",
        "location": {
          "lat": 17.95,
          "lng": -77.533
        },
        "keyAccentLanguage": "isle"
      },
      {
        "code": 0,
        "type": "City",
        "enNameLanguage": "Mount Blow",
        "location": {
          "lat": 17.95,
          "lng": -77.483
        },
        "keyAccentLanguage": "mount_blow"
      },
      {
        "code": 0,
        "type": "City",
        "enNameLanguage": "Gods Well",
        "location": {
          "lat": 17.867,
          "lng": -77.4
        },
        "keyAccentLanguage": "gods_well"
      },
      {
        "code": 0,
        "type": "City",
        "enNameLanguage": "Pleasant Hill",
        "location": {
          "lat": 17.917,
          "lng": -77.467
        },
        "keyAccentLanguage": "pleasant_hill"
      },
      {
        "code": 0,
        "type": "City",
        "enNameLanguage": "Pear Tree Valley",
        "location": {
          "lat": 17.983,
          "lng": -77.483
        },
        "keyAccentLanguage": "pear_tree_valley"
      },
      {
        "code": 0,
        "type": "City",
        "enNameLanguage": "Java",
        "location": {
          "lat": 17.933,
          "lng": -77.467
        },
        "keyAccentLanguage": "java"
      },
      {
        "code": 0,
        "type": "City",
        "enNameLanguage": "Marley Hill",
        "location": {
          "lat": 17.867,
          "lng": -77.5
        },
        "keyAccentLanguage": "marley_hill"
      },
      {
        "code": 0,
        "type": "City",
        "enNameLanguage": "Newark",
        "location": {
          "lat": 17.983,
          "lng": -77.567
        },
        "keyAccentLanguage": "newark"
      },
      {
        "code": 0,
        "type": "City",
        "enNameLanguage": "Coffee Grove",
        "location": {
          "lat": 17.95,
          "lng": -77.467
        },
        "keyAccentLanguage": "coffee_grove"
      },
      {
        "code": 0,
        "type": "City",
        "enNameLanguage": "Marlborough",
        "location": {
          "lat": 18,
          "lng": -77.567
        },
        "keyAccentLanguage": "marlborough"
      },
      {
        "code": 0,
        "type": "City",
        "enNameLanguage": "Hanover",
        "location": {
          "lat": 17.967,
          "lng": -77.55
        },
        "keyAccentLanguage": "hanover"
      },
      {
        "code": 0,
        "type": "City",
        "enNameLanguage": "Nonpareil",
        "location": {
          "lat": 17.933,
          "lng": -77.45
        },
        "keyAccentLanguage": "nonpareil"
      },
      {
        "code": 0,
        "type": "City",
        "enNameLanguage": "Halifax",
        "location": {
          "lat": 18.15,
          "lng": -77.55
        },
        "keyAccentLanguage": "halifax"
      },
      {
        "code": 0,
        "type": "City",
        "enNameLanguage": "Norway",
        "location": {
          "lat": 18.217,
          "lng": -77.567
        },
        "keyAccentLanguage": "norway"
      },
      {
        "code": 0,
        "type": "City",
        "enNameLanguage": "Old England",
        "location": {
          "lat": 17.983,
          "lng": -77.467
        },
        "keyAccentLanguage": "old_england"
      },
      {
        "code": 0,
        "type": "City",
        "enNameLanguage": "Duff House",
        "location": {
          "lat": 17.883,
          "lng": -77.567
        },
        "keyAccentLanguage": "duff_house"
      },
      {
        "code": 0,
        "type": "City",
        "enNameLanguage": "Auchtembeddie",
        "location": {
          "lat": 18.232,
          "lng": -77.628
        },
        "keyAccentLanguage": "auchtembeddie"
      },
      {
        "code": 0,
        "type": "City",
        "enNameLanguage": "Grove Town",
        "location": {
          "lat": 17.883,
          "lng": -77.467
        },
        "keyAccentLanguage": "grove_town"
      },
      {
        "code": 0,
        "type": "City",
        "enNameLanguage": "Malton",
        "location": {
          "lat": 18.183,
          "lng": -77.55
        },
        "keyAccentLanguage": "malton"
      },
      {
        "code": 0,
        "type": "City",
        "enNameLanguage": "Marley Hill",
        "location": {
          "lat": 17.867,
          "lng": -77.5
        },
        "keyAccentLanguage": "marley_hill"
      }
    ],
    "enNameLanguage": "Manchester",
    "keyAccentLanguage": "manchester"
  },
  {
    "code": 0,
    "type": "State",
    "location": {
      "lat": 45.523,
      "lng": -122.676
    },
    "districtList": [
      {
        "code": 0,
        "type": "City",
        "enNameLanguage": "Reach",
        "location": {
          "lat": 45.4934,
          "lng": -122.6717847
        },
        "keyAccentLanguage": "reach"
      },
      {
        "code": 0,
        "type": "City",
        "enNameLanguage": "Biscany",
        "location": {
          "lat": 18.183,
          "lng": -76.6
        },
        "keyAccentLanguage": "biscany"
      },
      {
        "code": 0,
        "type": "City",
        "enNameLanguage": "Ipswich",
        "location": {
          "lat": 18.217,
          "lng": -76.7
        },
        "keyAccentLanguage": "ipswich"
      },
      {
        "code": 0,
        "type": "City",
        "enNameLanguage": "Breadfruit",
        "location": {
          "lat": 18.15,
          "lng": -76.533
        },
        "keyAccentLanguage": "breadfruit"
      },
      {
        "code": 0,
        "type": "City",
        "enNameLanguage": "Bagatelle",
        "location": {
          "lat": 18.15,
          "lng": -76.6
        },
        "keyAccentLanguage": "bagatelle"
      },
      {
        "code": 0,
        "type": "City",
        "enNameLanguage": "Bryans Bay",
        "location": {
          "lat": 18.183,
          "lng": -76.467
        },
        "keyAccentLanguage": "bryans_bay"
      },
      {
        "code": 0,
        "type": "City",
        "enNameLanguage": "Bettys Hope",
        "location": {
          "lat": 18.05,
          "lng": -76.3
        },
        "keyAccentLanguage": "bettys_hope"
      },
      {
        "code": 0,
        "type": "City",
        "enNameLanguage": "Drapers",
        "location": {
          "lat": 18.166,
          "lng": -76.391
        },
        "keyAccentLanguage": "drapers"
      },
      {
        "code": 0,
        "type": "City",
        "enNameLanguage": "Ecclesdown",
        "location": {
          "lat": 18.05,
          "lng": -76.333
        },
        "keyAccentLanguage": "ecclesdown"
      },
      {
        "code": 0,
        "type": "City",
        "enNameLanguage": "Marlborough Castle",
        "location": {
          "lat": 18.1,
          "lng": -76.7
        },
        "keyAccentLanguage": "marlborough_castle"
      },
      {
        "code": 0,
        "type": "City",
        "enNameLanguage": "Burton Hall",
        "location": {
          "lat": 18.117,
          "lng": -76.55
        },
        "keyAccentLanguage": "burton_hall"
      },
      {
        "code": 0,
        "type": "City",
        "enNameLanguage": "Darley",
        "location": {
          "lat": 18.15,
          "lng": -76.517
        },
        "keyAccentLanguage": "darley"
      },
      {
        "code": 0,
        "type": "City",
        "enNameLanguage": "Freefield",
        "location": {
          "lat": 18.2,
          "lng": -76.7
        },
        "keyAccentLanguage": "freefield"
      },
      {
        "code": 0,
        "type": "City",
        "enNameLanguage": "Castle Comfort",
        "location": {
          "lat": 18.133,
          "lng": -76.35
        },
        "keyAccentLanguage": "castle_comfort"
      },
      {
        "code": 0,
        "type": "City",
        "enNameLanguage": "Garland Grove",
        "location": {
          "lat": 18.1,
          "lng": -76.483
        },
        "keyAccentLanguage": "garland_grove"
      },
      {
        "code": 0,
        "type": "City",
        "enNameLanguage": "Albany",
        "location": {
          "lat": 18.133,
          "lng": -76.617
        },
        "keyAccentLanguage": "albany"
      },
      {
        "code": 0,
        "type": "City",
        "enNameLanguage": "Happy Grove",
        "location": {
          "lat": 18,
          "lng": -76.267
        },
        "keyAccentLanguage": "happy_grove"
      },
      {
        "code": 0,
        "type": "City",
        "enNameLanguage": "Long Bay",
        "location": {
          "lat": 18.1,
          "lng": -76.317
        },
        "keyAccentLanguage": "long_bay"
      },
      {
        "code": 0,
        "type": "City",
        "enNameLanguage": "Pleasing Prospect",
        "location": {
          "lat": 18.167,
          "lng": -76.683
        },
        "keyAccentLanguage": "pleasing_prospect"
      },
      {
        "code": 0,
        "type": "City",
        "enNameLanguage": "Hope Bay",
        "location": {
          "lat": 18.2,
          "lng": -76.567
        },
        "keyAccentLanguage": "hope_bay"
      },
      {
        "code": 0,
        "type": "City",
        "enNameLanguage": "Cambridge",
        "location": {
          "lat": 18.15,
          "lng": -76.417
        },
        "keyAccentLanguage": "cambridge"
      },
      {
        "code": 0,
        "type": "City",
        "enNameLanguage": "Belle Castle",
        "location": {
          "lat": 17.996,
          "lng": -76.267
        },
        "keyAccentLanguage": "belle_castle"
      },
      {
        "code": 0,
        "type": "City",
        "enNameLanguage": "Mid Leyton",
        "location": {
          "lat": 18.217,
          "lng": -76.617
        },
        "keyAccentLanguage": "mid_leyton"
      },
      {
        "code": 0,
        "type": "City",
        "enNameLanguage": "Chepstowe",
        "location": {
          "lat": 18.167,
          "lng": -76.617
        },
        "keyAccentLanguage": "chepstowe"
      },
      {
        "code": 0,
        "type": "City",
        "enNameLanguage": "Comfort Castle",
        "location": {
          "lat": 18.05,
          "lng": -76.417
        },
        "keyAccentLanguage": "comfort_castle"
      },
      {
        "code": 0,
        "type": "City",
        "enNameLanguage": "Cuffie Head",
        "location": {
          "lat": 18.183,
          "lng": -76.517
        },
        "keyAccentLanguage": "cuffie_head"
      },
      {
        "code": 0,
        "type": "City",
        "enNameLanguage": "Buff Bay",
        "location": {
          "lat": 18.233,
          "lng": -76.667
        },
        "keyAccentLanguage": "buff_bay"
      },
      {
        "code": 0,
        "type": "City",
        "enNameLanguage": "Stony Hill",
        "location": {
          "lat": 18.183,
          "lng": -76.483
        },
        "keyAccentLanguage": "stony_hill"
      },
      {
        "code": 0,
        "type": "City",
        "enNameLanguage": "Chelsea",
        "location": {
          "lat": 18.15,
          "lng": -76.567
        },
        "keyAccentLanguage": "chelsea"
      },
      {
        "code": 0,
        "type": "City",
        "enNameLanguage": "Dunbar",
        "location": {
          "lat": 18.117,
          "lng": -76.567
        },
        "keyAccentLanguage": "dunbar"
      },
      {
        "code": 0,
        "type": "City",
        "enNameLanguage": "Kensington",
        "location": {
          "lat": 18.183,
          "lng": -76.583
        },
        "keyAccentLanguage": "kensington"
      },
      {
        "code": 0,
        "type": "City",
        "enNameLanguage": "Bybrook",
        "location": {
          "lat": 18.167,
          "lng": -76.667
        },
        "keyAccentLanguage": "bybrook"
      },
      {
        "code": 0,
        "type": "City",
        "enNameLanguage": "Manchioneal",
        "location": {
          "lat": 18.031,
          "lng": -76.285
        },
        "keyAccentLanguage": "manchioneal"
      },
      {
        "code": 0,
        "type": "City",
        "enNameLanguage": "Berridale",
        "location": {
          "lat": 18.133,
          "lng": -76.483
        },
        "keyAccentLanguage": "berridale"
      },
      {
        "code": 0,
        "type": "City",
        "enNameLanguage": "Commodore",
        "location": {
          "lat": 18.117,
          "lng": -76.35
        },
        "keyAccentLanguage": "commodore"
      },
      {
        "code": 0,
        "type": "City",
        "enNameLanguage": "Shirley Pen",
        "location": {
          "lat": 18.183,
          "lng": -76.633
        },
        "keyAccentLanguage": "shirley_pen"
      },
      {
        "code": 0,
        "type": "City",
        "enNameLanguage": "Belvedere",
        "location": {
          "lat": 18.217,
          "lng": -76.683
        },
        "keyAccentLanguage": "belvedere"
      },
      {
        "code": 0,
        "type": "City",
        "enNameLanguage": "Cascade",
        "location": {
          "lat": 18.1,
          "lng": -76.717
        },
        "keyAccentLanguage": "cascade"
      },
      {
        "code": 0,
        "type": "City",
        "enNameLanguage": "Fair Prospect",
        "location": {
          "lat": 18.1,
          "lng": -76.333
        },
        "keyAccentLanguage": "fair_prospect"
      },
      {
        "code": 0,
        "type": "City",
        "enNameLanguage": "Fellowship",
        "location": {
          "lat": 18.133,
          "lng": -76.45
        },
        "keyAccentLanguage": "fellowship"
      },
      {
        "code": 0,
        "type": "City",
        "enNameLanguage": "Chatsworth",
        "location": {
          "lat": 18.133,
          "lng": -76.533
        },
        "keyAccentLanguage": "chatsworth"
      },
      {
        "code": 0,
        "type": "City",
        "enNameLanguage": "Warsaw",
        "location": {
          "lat": 18.133,
          "lng": -76.55
        },
        "keyAccentLanguage": "warsaw"
      },
      {
        "code": 0,
        "type": "City",
        "enNameLanguage": "Westfield",
        "location": {
          "lat": 18.2,
          "lng": -76.633
        },
        "keyAccentLanguage": "westfield"
      },
      {
        "code": 0,
        "type": "City",
        "enNameLanguage": "Seamans Valley",
        "location": {
          "lat": 18.083,
          "lng": -76.433
        },
        "keyAccentLanguage": "seamans_valley"
      },
      {
        "code": 0,
        "type": "City",
        "enNameLanguage": "Bloomfield",
        "location": {
          "lat": 18.15,
          "lng": -76.583
        },
        "keyAccentLanguage": "bloomfield"
      },
      {
        "code": 0,
        "type": "City",
        "enNameLanguage": "Smithfield",
        "location": {
          "lat": 18.117,
          "lng": -76.717
        },
        "keyAccentLanguage": "smithfield"
      },
      {
        "code": 0,
        "type": "City",
        "enNameLanguage": "Hectors River",
        "location": {
          "lat": 18,
          "lng": -76.259
        },
        "keyAccentLanguage": "hectors_river"
      },
      {
        "code": 0,
        "type": "City",
        "enNameLanguage": "Mulleth Hall",
        "location": {
          "lat": 18.15,
          "lng": -76.717
        },
        "keyAccentLanguage": "mulleth_hall"
      },
      {
        "code": 0,
        "type": "City",
        "enNameLanguage": "Burlington",
        "location": {
          "lat": 18.193,
          "lng": -76.517
        },
        "keyAccentLanguage": "burlington"
      },
      {
        "code": 0,
        "type": "City",
        "enNameLanguage": "Charles Town",
        "location": {
          "lat": 18.217,
          "lng": -76.667
        },
        "keyAccentLanguage": "charles_town"
      },
      {
        "code": 0,
        "type": "City",
        "enNameLanguage": "Millbank",
        "location": {
          "lat": 18.05,
          "lng": -76.4
        },
        "keyAccentLanguage": "millbank"
      },
      {
        "code": 0,
        "type": "City",
        "enNameLanguage": "Golden Vale",
        "location": {
          "lat": 18.133,
          "lng": -76.467
        },
        "keyAccentLanguage": "golden_vale"
      },
      {
        "code": 0,
        "type": "City",
        "enNameLanguage": "Pleasant Hill",
        "location": {
          "lat": 18.133,
          "lng": -76.583
        },
        "keyAccentLanguage": "pleasant_hill"
      },
      {
        "code": 0,
        "type": "City",
        "enNameLanguage": "Port Antonio",
        "location": {
          "lat": 18.178,
          "lng": -76.455
        },
        "keyAccentLanguage": "port_antonio"
      },
      {
        "code": 0,
        "type": "City",
        "enNameLanguage": "Balcarres",
        "location": {
          "lat": 18.167,
          "lng": -76.7
        },
        "keyAccentLanguage": "balcarres"
      },
      {
        "code": 0,
        "type": "City",
        "enNameLanguage": "Moore Town",
        "location": {
          "lat": 18.067,
          "lng": -76.433
        },
        "keyAccentLanguage": "moore_town"
      },
      {
        "code": 0,
        "type": "City",
        "enNameLanguage": "Fairfield",
        "location": {
          "lat": 18.183,
          "lng": -76.7
        },
        "keyAccentLanguage": "fairfield"
      },
      {
        "code": 0,
        "type": "City",
        "enNameLanguage": "Monmouth",
        "location": {
          "lat": 18.217,
          "lng": -76.717
        },
        "keyAccentLanguage": "monmouth"
      },
      {
        "code": 0,
        "type": "City",
        "enNameLanguage": "Lennox",
        "location": {
          "lat": 18.217,
          "lng": -76.6
        },
        "keyAccentLanguage": "lennox"
      },
      {
        "code": 0,
        "type": "City",
        "enNameLanguage": "Spring Garden",
        "location": {
          "lat": 18.223,
          "lng": -76.633
        },
        "keyAccentLanguage": "spring_garden"
      },
      {
        "code": 0,
        "type": "City",
        "enNameLanguage": "Hayfield",
        "location": {
          "lat": 18.2,
          "lng": -76.533
        },
        "keyAccentLanguage": "hayfield"
      },
      {
        "code": 0,
        "type": "City",
        "enNameLanguage": "Williamsfield",
        "location": {
          "lat": 18.167,
          "lng": -76.417
        },
        "keyAccentLanguage": "williamsfield"
      },
      {
        "code": 0,
        "type": "City",
        "enNameLanguage": "Sommers Town",
        "location": {
          "lat": 18.167,
          "lng": -76.433
        },
        "keyAccentLanguage": "sommers_town"
      },
      {
        "code": 0,
        "type": "City",
        "enNameLanguage": "Little Spring Garden",
        "location": {
          "lat": 18.183,
          "lng": -76.533
        },
        "keyAccentLanguage": "little_spring_garden"
      },
      {
        "code": 0,
        "type": "City",
        "enNameLanguage": "Whitehall",
        "location": {
          "lat": 18.2,
          "lng": -76.717
        },
        "keyAccentLanguage": "whitehall"
      },
      {
        "code": 0,
        "type": "City",
        "enNameLanguage": "Hart Hill",
        "location": {
          "lat": 18.233,
          "lng": -76.683
        },
        "keyAccentLanguage": "hart_hill"
      },
      {
        "code": 0,
        "type": "City",
        "enNameLanguage": "Windsor",
        "location": {
          "lat": 18.117,
          "lng": -76.45
        },
        "keyAccentLanguage": "windsor"
      },
      {
        "code": 0,
        "type": "City",
        "enNameLanguage": "Flat Grass",
        "location": {
          "lat": 18.017,
          "lng": -76.283
        },
        "keyAccentLanguage": "flat_grass"
      },
      {
        "code": 0,
        "type": "City",
        "enNameLanguage": "Silver Hill",
        "location": {
          "lat": 18.133,
          "lng": -76.717
        },
        "keyAccentLanguage": "silver_hill"
      },
      {
        "code": 0,
        "type": "City",
        "enNameLanguage": "Swift River",
        "location": {
          "lat": 18.167,
          "lng": -76.583
        },
        "keyAccentLanguage": "swift_river"
      },
      {
        "code": 0,
        "type": "City",
        "enNameLanguage": "Starapple Grove",
        "location": {
          "lat": 18.2,
          "lng": -76.667
        },
        "keyAccentLanguage": "starapple_grove"
      },
      {
        "code": 0,
        "type": "City",
        "enNameLanguage": "Cornwall Barracks",
        "location": {
          "lat": 18.067,
          "lng": -76.417
        },
        "keyAccentLanguage": "cornwall_barracks"
      },
      {
        "code": 0,
        "type": "City",
        "enNameLanguage": "Tomsfield",
        "location": {
          "lat": 18.133,
          "lng": -76.517
        },
        "keyAccentLanguage": "tomsfield"
      },
      {
        "code": 0,
        "type": "City",
        "enNameLanguage": "Ashcott",
        "location": {
          "lat": 18.117,
          "lng": -76.6
        },
        "keyAccentLanguage": "ashcott"
      },
      {
        "code": 0,
        "type": "City",
        "enNameLanguage": "Rectory",
        "location": {
          "lat": 18.183,
          "lng": -76.667
        },
        "keyAccentLanguage": "rectory"
      },
      {
        "code": 0,
        "type": "City",
        "enNameLanguage": "Bangor Ridge",
        "location": {
          "lat": 18.15,
          "lng": -76.683
        },
        "keyAccentLanguage": "bangor_ridge"
      },
      {
        "code": 0,
        "type": "City",
        "enNameLanguage": "Melrose",
        "location": {
          "lat": 18.167,
          "lng": -76.6
        },
        "keyAccentLanguage": "melrose"
      },
      {
        "code": 0,
        "type": "City",
        "enNameLanguage": "Breastworks",
        "location": {
          "lat": 18.15,
          "lng": -76.45
        },
        "keyAccentLanguage": "breastworks"
      },
      {
        "code": 0,
        "type": "City",
        "enNameLanguage": "Mount Pleasant",
        "location": {
          "lat": 18.167,
          "lng": -76.517
        },
        "keyAccentLanguage": "mount_pleasant"
      },
      {
        "code": 0,
        "type": "City",
        "enNameLanguage": "Industry",
        "location": {
          "lat": 18.167,
          "lng": -76.533
        },
        "keyAccentLanguage": "industry"
      },
      {
        "code": 0,
        "type": "City",
        "enNameLanguage": "Maidstone",
        "location": {
          "lat": 18.15,
          "lng": -76.5
        },
        "keyAccentLanguage": "maidstone"
      },
      {
        "code": 0,
        "type": "City",
        "enNameLanguage": "Sherwood Forest",
        "location": {
          "lat": 18.15,
          "lng": -76.383
        },
        "keyAccentLanguage": "sherwood_forest"
      },
      {
        "code": 0,
        "type": "City",
        "enNameLanguage": "Shotover",
        "location": {
          "lat": 18.167,
          "lng": -76.467
        },
        "keyAccentLanguage": "shotover"
      },
      {
        "code": 0,
        "type": "City",
        "enNameLanguage": "Friendship",
        "location": {
          "lat": 18.183,
          "lng": -76.617
        },
        "keyAccentLanguage": "friendship"
      },
      {
        "code": 0,
        "type": "City",
        "enNameLanguage": "Richmond",
        "location": {
          "lat": 18.133,
          "lng": -76.567
        },
        "keyAccentLanguage": "richmond"
      },
      {
        "code": 0,
        "type": "City",
        "enNameLanguage": "Boston",
        "location": {
          "lat": 18.15,
          "lng": -76.35
        },
        "keyAccentLanguage": "boston"
      },
      {
        "code": 0,
        "type": "City",
        "enNameLanguage": "Leyton Valley",
        "location": {
          "lat": 18.224,
          "lng": -76.617
        },
        "keyAccentLanguage": "leyton_valley"
      },
      {
        "code": 0,
        "type": "City",
        "enNameLanguage": "Peppingford",
        "location": {
          "lat": 18.15,
          "lng": -76.617
        },
        "keyAccentLanguage": "peppingford"
      },
      {
        "code": 0,
        "type": "City",
        "enNameLanguage": "Kildare",
        "location": {
          "lat": 18.232,
          "lng": -76.652
        },
        "keyAccentLanguage": "kildare"
      },
      {
        "code": 0,
        "type": "City",
        "enNameLanguage": "Providence",
        "location": {
          "lat": 18.05,
          "lng": -76.283
        },
        "keyAccentLanguage": "providence"
      },
      {
        "code": 0,
        "type": "City",
        "enNameLanguage": "Spicy Grove",
        "location": {
          "lat": 18.234,
          "lng": -76.709
        },
        "keyAccentLanguage": "spicy_grove"
      },
      {
        "code": 0,
        "type": "City",
        "enNameLanguage": "Altamont",
        "location": {
          "lat": 18.033,
          "lng": -76.4
        },
        "keyAccentLanguage": "altamont"
      },
      {
        "code": 0,
        "type": "City",
        "enNameLanguage": "Fruitful Vale",
        "location": {
          "lat": 18.15,
          "lng": -76.55
        },
        "keyAccentLanguage": "fruitful_vale"
      },
      {
        "code": 0,
        "type": "City",
        "enNameLanguage": "Castle Dawson",
        "location": {
          "lat": 18.083,
          "lng": -76.717
        },
        "keyAccentLanguage": "castle_dawson"
      },
      {
        "code": 0,
        "type": "City",
        "enNameLanguage": "Johns Hall",
        "location": {
          "lat": 18.1,
          "lng": -76.45
        },
        "keyAccentLanguage": "johns_hall"
      },
      {
        "code": 0,
        "type": "City",
        "enNameLanguage": "Pleasant Hill",
        "location": {
          "lat": 18.133,
          "lng": -76.583
        },
        "keyAccentLanguage": "pleasant_hill"
      },
      {
        "code": 0,
        "type": "City",
        "enNameLanguage": "Pleasant Hill",
        "location": {
          "lat": 18.133,
          "lng": -76.583
        },
        "keyAccentLanguage": "pleasant_hill"
      }
    ],
    "enNameLanguage": "Portland",
    "keyAccentLanguage": "portland"
  },
  {
    "code": 0,
    "type": "State",
    "location": {
      "lat": 10.426,
      "lng": -61.479
    },
    "districtList": [
      {
        "code": 0,
        "type": "City",
        "enNameLanguage": "Eastwood Park",
        "location": {
          "lat": 18.017,
          "lng": -76.8
        },
        "keyAccentLanguage": "eastwood_park"
      },
      {
        "code": 0,
        "type": "City",
        "enNameLanguage": "Fellowship Hall",
        "location": {
          "lat": 18.117,
          "lng": -76.8
        },
        "keyAccentLanguage": "fellowship_hall"
      },
      {
        "code": 0,
        "type": "City",
        "enNameLanguage": "Flamstead",
        "location": {
          "lat": 18.017,
          "lng": -76.7
        },
        "keyAccentLanguage": "flamstead"
      },
      {
        "code": 0,
        "type": "City",
        "enNameLanguage": "Four Roads",
        "location": {
          "lat": 18.017,
          "lng": -76.817
        },
        "keyAccentLanguage": "four_roads"
      },
      {
        "code": 0,
        "type": "City",
        "enNameLanguage": "Billy Dun",
        "location": {
          "lat": 18.033,
          "lng": -76.767
        },
        "keyAccentLanguage": "billy_dun"
      },
      {
        "code": 0,
        "type": "City",
        "enNameLanguage": "Harbour View",
        "location": {
          "lat": 17.95,
          "lng": -76.717
        },
        "keyAccentLanguage": "harbour_view"
      },
      {
        "code": 0,
        "type": "City",
        "enNameLanguage": "Beredoes",
        "location": {
          "lat": 18.067,
          "lng": -76.867
        },
        "keyAccentLanguage": "beredoes"
      },
      {
        "code": 0,
        "type": "City",
        "enNameLanguage": "Admiral Town",
        "location": {
          "lat": 17.983,
          "lng": -76.8
        },
        "keyAccentLanguage": "admiral_town"
      },
      {
        "code": 0,
        "type": "City",
        "enNameLanguage": "Cane River",
        "location": {
          "lat": 17.95,
          "lng": -76.7
        },
        "keyAccentLanguage": "cane_river"
      },
      {
        "code": 0,
        "type": "City",
        "enNameLanguage": "Barbican",
        "location": {
          "lat": 18.017,
          "lng": -76.767
        },
        "keyAccentLanguage": "barbican"
      },
      {
        "code": 0,
        "type": "City",
        "enNameLanguage": "Dallas Castle",
        "location": {
          "lat": 17.983,
          "lng": -76.717
        },
        "keyAccentLanguage": "dallas_castle"
      },
      {
        "code": 0,
        "type": "City",
        "enNameLanguage": "Gordon Town",
        "location": {
          "lat": 18.033,
          "lng": -76.717
        },
        "keyAccentLanguage": "gordon_town"
      },
      {
        "code": 0,
        "type": "City",
        "enNameLanguage": "Cockburn Gardens",
        "location": {
          "lat": 18,
          "lng": -76.817
        },
        "keyAccentLanguage": "cockburn_gardens"
      },
      {
        "code": 0,
        "type": "City",
        "enNameLanguage": "Bull Bay",
        "location": {
          "lat": 17.95,
          "lng": -76.667
        },
        "keyAccentLanguage": "bull_bay"
      },
      {
        "code": 0,
        "type": "City",
        "enNameLanguage": "Cavaliers",
        "location": {
          "lat": 18.1,
          "lng": -76.85
        },
        "keyAccentLanguage": "cavaliers"
      },
      {
        "code": 0,
        "type": "City",
        "enNameLanguage": "Cherry Garden",
        "location": {
          "lat": 18.05,
          "lng": -76.783
        },
        "keyAccentLanguage": "cherry_garden"
      },
      {
        "code": 0,
        "type": "City",
        "enNameLanguage": "August Town",
        "location": {
          "lat": 17.983,
          "lng": -76.733
        },
        "keyAccentLanguage": "august_town"
      },
      {
        "code": 0,
        "type": "City",
        "enNameLanguage": "Kirklands",
        "location": {
          "lat": 18.05,
          "lng": -76.833
        },
        "keyAccentLanguage": "kirklands"
      },
      {
        "code": 0,
        "type": "City",
        "enNameLanguage": "Constant Spring",
        "location": {
          "lat": 18.05,
          "lng": -76.8
        },
        "keyAccentLanguage": "constant_spring"
      },
      {
        "code": 0,
        "type": "City",
        "enNameLanguage": "Constitution Hill",
        "location": {
          "lat": 18,
          "lng": -76.717
        },
        "keyAccentLanguage": "constitution_hill"
      },
      {
        "code": 0,
        "type": "City",
        "enNameLanguage": "Beverly Hills",
        "location": {
          "lat": 18,
          "lng": -76.767
        },
        "keyAccentLanguage": "beverly_hills"
      },
      {
        "code": 0,
        "type": "City",
        "enNameLanguage": "Half Way Tree",
        "location": {
          "lat": 18.009,
          "lng": -76.8
        },
        "keyAccentLanguage": "half_way_tree"
      },
      {
        "code": 0,
        "type": "City",
        "enNameLanguage": "Mavis Bank",
        "location": {
          "lat": 18.033,
          "lng": -76.667
        },
        "keyAccentLanguage": "mavis_bank"
      },
      {
        "code": 0,
        "type": "City",
        "enNameLanguage": "Border",
        "location": {
          "lat": 18.15,
          "lng": -76.867
        },
        "keyAccentLanguage": "border"
      },
      {
        "code": 0,
        "type": "City",
        "enNameLanguage": "Tower Hill",
        "location": {
          "lat": 18,
          "lng": -76.65
        },
        "keyAccentLanguage": "tower_hill"
      },
      {
        "code": 0,
        "type": "City",
        "enNameLanguage": "Golden Spring",
        "location": {
          "lat": 18.1,
          "lng": -76.8
        },
        "keyAccentLanguage": "golden_spring"
      },
      {
        "code": 0,
        "type": "City",
        "enNameLanguage": "Kencot",
        "location": {
          "lat": 17.983,
          "lng": -76.8
        },
        "keyAccentLanguage": "kencot"
      },
      {
        "code": 0,
        "type": "City",
        "enNameLanguage": "Mount Dispute",
        "location": {
          "lat": 17.983,
          "lng": -76.683
        },
        "keyAccentLanguage": "mount_dispute"
      },
      {
        "code": 0,
        "type": "City",
        "enNameLanguage": "Liguanea",
        "location": {
          "lat": 18.017,
          "lng": -76.767
        },
        "keyAccentLanguage": "liguanea"
      },
      {
        "code": 0,
        "type": "City",
        "enNameLanguage": "St. Christopher",
        "location": {
          "lat": 18.083,
          "lng": -76.833
        },
        "keyAccentLanguage": "st._christopher"
      },
      {
        "code": 0,
        "type": "City",
        "enNameLanguage": "Mount James",
        "location": {
          "lat": 18.117,
          "lng": -76.783
        },
        "keyAccentLanguage": "mount_james"
      },
      {
        "code": 0,
        "type": "City",
        "enNameLanguage": "Content",
        "location": {
          "lat": 18.05,
          "lng": -76.7
        },
        "keyAccentLanguage": "content"
      },
      {
        "code": 0,
        "type": "City",
        "enNameLanguage": "Bloxburgh",
        "location": {
          "lat": 17.983,
          "lng": -76.65
        },
        "keyAccentLanguage": "bloxburgh"
      },
      {
        "code": 0,
        "type": "City",
        "enNameLanguage": "Greenwich",
        "location": {
          "lat": 18.067,
          "lng": -76.733
        },
        "keyAccentLanguage": "greenwich"
      },
      {
        "code": 0,
        "type": "City",
        "enNameLanguage": "Camperdown",
        "location": {
          "lat": 18.017,
          "lng": -76.8
        },
        "keyAccentLanguage": "camperdown"
      },
      {
        "code": 0,
        "type": "City",
        "enNameLanguage": "Castleton",
        "location": {
          "lat": 18.167,
          "lng": -76.817
        },
        "keyAccentLanguage": "castleton"
      },
      {
        "code": 0,
        "type": "City",
        "enNameLanguage": "Parks Road",
        "location": {
          "lat": 18.083,
          "lng": -76.867
        },
        "keyAccentLanguage": "parks_road"
      },
      {
        "code": 0,
        "type": "City",
        "enNameLanguage": "Palm Beach",
        "location": {
          "lat": 17.945,
          "lng": -76.693
        },
        "keyAccentLanguage": "palm_beach"
      },
      {
        "code": 0,
        "type": "City",
        "enNameLanguage": "Mocho House",
        "location": {
          "lat": 18.017,
          "lng": -76.65
        },
        "keyAccentLanguage": "mocho_house"
      },
      {
        "code": 0,
        "type": "City",
        "enNameLanguage": "Whitfield Town",
        "location": {
          "lat": 17.983,
          "lng": -76.817
        },
        "keyAccentLanguage": "whitfield_town"
      },
      {
        "code": 0,
        "type": "City",
        "enNameLanguage": "Halberstadt",
        "location": {
          "lat": 17.967,
          "lng": -76.667
        },
        "keyAccentLanguage": "halberstadt"
      },
      {
        "code": 0,
        "type": "City",
        "enNameLanguage": "Glebe Farm",
        "location": {
          "lat": 18.033,
          "lng": -76.817
        },
        "keyAccentLanguage": "glebe_farm"
      },
      {
        "code": 0,
        "type": "City",
        "enNameLanguage": "Jones Town",
        "location": {
          "lat": 17.983,
          "lng": -76.8
        },
        "keyAccentLanguage": "jones_town"
      },
      {
        "code": 0,
        "type": "City",
        "enNameLanguage": "Hope Pastures",
        "location": {
          "lat": 18.017,
          "lng": -76.75
        },
        "keyAccentLanguage": "hope_pastures"
      },
      {
        "code": 0,
        "type": "City",
        "enNameLanguage": "Chestervale",
        "location": {
          "lat": 18.067,
          "lng": -76.667
        },
        "keyAccentLanguage": "chestervale"
      },
      {
        "code": 0,
        "type": "City",
        "enNameLanguage": "Guava Ridge",
        "location": {
          "lat": 18.017,
          "lng": -76.683
        },
        "keyAccentLanguage": "guava_ridge"
      },
      {
        "code": 0,
        "type": "City",
        "enNameLanguage": "Jacks Hill",
        "location": {
          "lat": 18.05,
          "lng": -76.75
        },
        "keyAccentLanguage": "jacks_hill"
      },
      {
        "code": 0,
        "type": "City",
        "enNameLanguage": "Lawrence Tavern",
        "location": {
          "lat": 18.117,
          "lng": -76.85
        },
        "keyAccentLanguage": "lawrence_tavern"
      },
      {
        "code": 0,
        "type": "City",
        "enNameLanguage": "Oberlin",
        "location": {
          "lat": 18.133,
          "lng": -76.85
        },
        "keyAccentLanguage": "oberlin"
      },
      {
        "code": 0,
        "type": "City",
        "enNameLanguage": "Up Park Camp",
        "location": {
          "lat": 17.983,
          "lng": -76.783
        },
        "keyAccentLanguage": "up_park_camp"
      },
      {
        "code": 0,
        "type": "City",
        "enNameLanguage": "Four Mile",
        "location": {
          "lat": 18,
          "lng": -76.833
        },
        "keyAccentLanguage": "four_mile"
      },
      {
        "code": 0,
        "type": "City",
        "enNameLanguage": "Halls Delight",
        "location": {
          "lat": 18.05,
          "lng": -76.667
        },
        "keyAccentLanguage": "halls_delight"
      },
      {
        "code": 0,
        "type": "City",
        "enNameLanguage": "Hope",
        "location": {
          "lat": 18.033,
          "lng": -76.75
        },
        "keyAccentLanguage": "hope"
      },
      {
        "code": 0,
        "type": "City",
        "enNameLanguage": "Toms River",
        "location": {
          "lat": 18.15,
          "lng": -76.833
        },
        "keyAccentLanguage": "toms_river"
      },
      {
        "code": 0,
        "type": "City",
        "enNameLanguage": "Newcastle",
        "location": {
          "lat": 18.067,
          "lng": -76.717
        },
        "keyAccentLanguage": "newcastle"
      },
      {
        "code": 0,
        "type": "City",
        "enNameLanguage": "Cross Roads",
        "location": {
          "lat": 17.983,
          "lng": -76.783
        },
        "keyAccentLanguage": "cross_roads"
      },
      {
        "code": 0,
        "type": "City",
        "enNameLanguage": "Mount Belmore",
        "location": {
          "lat": 18.1,
          "lng": -76.783
        },
        "keyAccentLanguage": "mount_belmore"
      },
      {
        "code": 0,
        "type": "City",
        "enNameLanguage": "New Kingston",
        "location": {
          "lat": 18,
          "lng": -76.783
        },
        "keyAccentLanguage": "new_kingston"
      },
      {
        "code": 0,
        "type": "City",
        "enNameLanguage": "Unity",
        "location": {
          "lat": 18.133,
          "lng": -76.867
        },
        "keyAccentLanguage": "unity"
      },
      {
        "code": 0,
        "type": "City",
        "enNameLanguage": "Stanmore",
        "location": {
          "lat": 18.05,
          "lng": -76.85
        },
        "keyAccentLanguage": "stanmore"
      },
      {
        "code": 0,
        "type": "City",
        "enNameLanguage": "Happy Grove",
        "location": {
          "lat": 18.033,
          "lng": -76.867
        },
        "keyAccentLanguage": "happy_grove"
      },
      {
        "code": 0,
        "type": "City",
        "enNameLanguage": "St. Peter's",
        "location": {
          "lat": 18.067,
          "lng": -76.683
        },
        "keyAccentLanguage": "st._peter's"
      },