[
  {
    "code": 0,
    "type": "State",
    "location": {
      "lat": 9.3407804,
      "lng": -82.2408032
    },
    "districtList": [
      {
        "code": 0,
        "type": "City",
        "enNameLanguage": "Chimborazo",
        "location": {
          "lat": 9.3407804,
          "lng": -82.2408032
        },
        "keyAccentLanguage": "chimborazo"
      },
      {
        "code": 0,
        "type": "City",
        "enNameLanguage": "Botabite",
        "location": {
          "lat": 9.3407804,
          "lng": -82.2408032
        },
        "keyAccentLanguage": "botabite"
      },
      {
        "code": 0,
        "type": "City",
        "enNameLanguage": "Calle Larga",
        "location": {
          "lat": -32.8549147,
          "lng": -70.6257692
        },
        "keyAccentLanguage": "calle_larga"
      },
      {
        "code": 0,
        "type": "City",
        "enNameLanguage": "Boca Guarumo",
        "location": {
          "lat": 9.3407804,
          "lng": -82.2408032
        },
        "keyAccentLanguage": "boca_guarumo"
      },
      {
        "code": 0,
        "type": "City",
        "enNameLanguage": "Catalina",
        "location": {
          "lat": 9.3407804,
          "lng": -82.2408032
        },
        "keyAccentLanguage": "catalina"
      },
      {
        "code": 0,
        "type": "City",
        "enNameLanguage": "Chiriqui Grande",
        "location": {
          "lat": 8.9570626,
          "lng": -82.1441643
        },
        "keyAccentLanguage": "chiriqui_grande"
      },
      {
        "code": 0,
        "type": "City",
        "enNameLanguage": "Bocas Town",
        "location": {
          "lat": 9.3407804,
          "lng": -82.2408032
        },
        "keyAccentLanguage": "bocas_town"
      },
      {
        "code": 0,
        "type": "City",
        "enNameLanguage": "Cuan Bight",
        "location": {
          "lat": 9.3407804,
          "lng": -82.2408032
        },
        "keyAccentLanguage": "cuan_bight"
      },
      {
        "code": 0,
        "type": "City",
        "enNameLanguage": "Guarumo",
        "location": {
          "lat": 9.3407804,
          "lng": -82.2408032
        },
        "keyAccentLanguage": "guarumo"
      },
      {
        "code": 0,
        "type": "City",
        "enNameLanguage": "El Chungal",
        "location": {
          "lat": 9.3407804,
          "lng": -82.2408032
        },
        "keyAccentLanguage": "el_chungal"
      },
      {
        "code": 0,
        "type": "City",
        "enNameLanguage": "El Peligro",
        "location": {
          "lat": 9.3407804,
          "lng": -82.2408032
        },
        "keyAccentLanguage": "el_peligro"
      },
      {
        "code": 0,
        "type": "City",
        "enNameLanguage": "Garza",
        "location": {
          "lat": 9.3407804,
          "lng": -82.2408032
        },
        "keyAccentLanguage": "garza"
      },
      {
        "code": 0,
        "type": "City",
        "enNameLanguage": "El Empalme",
        "location": {
          "lat": 9.4117613,
          "lng": -82.5943072
        },
        "keyAccentLanguage": "el_empalme"
      },
      {
        "code": 0,
        "type": "City",
        "enNameLanguage": "Finca Cincuenta y Uno",
        "location": {
          "lat": 9.293417900000001,
          "lng": -82.7347142
        },
        "keyAccentLanguage": "finca_cincuenta_y_uno"
      },
      {
        "code": 0,
        "type": "City",
        "enNameLanguage": "Cayo de Coco",
        "location": {
          "lat": 9.3407804,
          "lng": -82.2408032
        },
        "keyAccentLanguage": "cayo_de_coco"
      },
      {
        "code": 0,
        "type": "City",
        "enNameLanguage": "Bonyic",
        "location": {
          "lat": 9.3552314,
          "lng": -82.59295569999999
        },
        "keyAccentLanguage": "bonyic"
      },
      {
        "code": 0,
        "type": "City",
        "enNameLanguage": "Boca de Daira",
        "location": {
          "lat": 8.95,
          "lng": -82.016667
        },
        "keyAccentLanguage": "boca_de_daira"
      },
      {
        "code": 0,
        "type": "City",
        "enNameLanguage": "Aguadulce",
        "location": {
          "lat": 9.211701999999999,
          "lng": -82.50775929999999
        },
        "keyAccentLanguage": "aguadulce"
      },
      {
        "code": 0,
        "type": "City",
        "enNameLanguage": "El Aji",
        "location": {
          "lat": 9.3407804,
          "lng": -82.2408032
        },
        "keyAccentLanguage": "el_aji"
      },
      {
        "code": 0,
        "type": "City",
        "enNameLanguage": "Aguacate",
        "location": {
          "lat": 9.166667,
          "lng": -82.216667
        },
        "keyAccentLanguage": "aguacate"
      },
      {
        "code": 0,
        "type": "City",
        "enNameLanguage": "Changuinola",
        "location": {
          "lat": 9.448870399999999,
          "lng": -82.485187
        },
        "keyAccentLanguage": "changuinola"
      },
      {
        "code": 0,
        "type": "City",
        "enNameLanguage": "Casas Viejas",
        "location": {
          "lat": 9.3407804,
          "lng": -82.2408032
        },
        "keyAccentLanguage": "casas_viejas"
      },
      {
        "code": 0,
        "type": "City",
        "enNameLanguage": "Boquete",
        "location": {
          "lat": 8.738203799999999,
          "lng": -82.4102628
        },
        "keyAccentLanguage": "boquete"
      },
      {
        "code": 0,
        "type": "City",
        "enNameLanguage": "Corriente Grande",
        "location": {
          "lat": 9.3407804,
          "lng": -82.2408032
        },
        "keyAccentLanguage": "corriente_grande"
      },
      {
        "code": 0,
        "type": "City",
        "enNameLanguage": "Fish Creek",
        "location": {
          "lat": 8.992135,
          "lng": -82.229889
        },
        "keyAccentLanguage": "fish_creek"
      },
      {
        "code": 0,
        "type": "City",
        "enNameLanguage": "El Guabo",
        "location": {
          "lat": 9.3407804,
          "lng": -82.2408032
        },
        "keyAccentLanguage": "el_guabo"
      },
      {
        "code": 0,
        "type": "City",
        "enNameLanguage": "Jamaica Town",
        "location": {
          "lat": 9.3407804,
          "lng": -82.2408032
        },
        "keyAccentLanguage": "jamaica_town"
      },
      {
        "code": 0,
        "type": "City",
        "enNameLanguage": "Charagre",
        "location": {
          "lat": 9.387768999999999,
          "lng": -82.56732199999999
        },
        "keyAccentLanguage": "charagre"
      },
      {
        "code": 0,
        "type": "City",
        "enNameLanguage": "Finca Cuarenta y Dos",
        "location": {
          "lat": 9.3407804,
          "lng": -82.2408032
        },
        "keyAccentLanguage": "finca_cuarenta_y_dos"
      },
      {
        "code": 0,
        "type": "City",
        "enNameLanguage": "Bastimentos",
        "location": {
          "lat": 9.3030589,
          "lng": -82.1496049
        },
        "keyAccentLanguage": "bastimentos"
      },
      {
        "code": 0,
        "type": "City",
        "enNameLanguage": "Doble Ese",
        "location": {
          "lat": 9.3407804,
          "lng": -82.2408032
        },
        "keyAccentLanguage": "doble_ese"
      },
      {
        "code": 0,
        "type": "City",
        "enNameLanguage": "Bocatorito",
        "location": {
          "lat": 9.2422275,
          "lng": -82.2610457
        },
        "keyAccentLanguage": "bocatorito"
      },
      {
        "code": 0,
        "type": "City",
        "enNameLanguage": "Finca Uno",
        "location": {
          "lat": 9.3407804,
          "lng": -82.2408032
        },
        "keyAccentLanguage": "finca_uno"
      },
      {
        "code": 0,
        "type": "City",
        "enNameLanguage": "El Cafetal",
        "location": {
          "lat": 9.3407804,
          "lng": -82.2408032
        },
        "keyAccentLanguage": "el_cafetal"
      },
      {
        "code": 0,
        "type": "City",
        "enNameLanguage": "Big Bight",
        "location": {
          "lat": 9.371984,
          "lng": -82.271866
        },
        "keyAccentLanguage": "big_bight"
      },
      {
        "code": 0,
        "type": "City",
        "enNameLanguage": "Finca Veinticuatro",
        "location": {
          "lat": 9.3407804,
          "lng": -82.2408032
        },
        "keyAccentLanguage": "finca_veinticuatro"
      },
      {
        "code": 0,
        "type": "City",
        "enNameLanguage": "Daira",
        "location": {
          "lat": 9.3407804,
          "lng": -82.2408032
        },
        "keyAccentLanguage": "daira"
      },
      {
        "code": 0,
        "type": "City",
        "enNameLanguage": "Boca del Brae",
        "location": {
          "lat": 9.5,
          "lng": -82.833333
        },
        "keyAccentLanguage": "boca_del_brae"
      },
      {
        "code": 0,
        "type": "City",
        "enNameLanguage": "Finca Cuatro",
        "location": {
          "lat": 9.3407804,
          "lng": -82.2408032
        },
        "keyAccentLanguage": "finca_cuatro"
      },
      {
        "code": 0,
        "type": "City",
        "enNameLanguage": "Brown Point",
        "location": {
          "lat": 9.3407804,
          "lng": -82.2408032
        },
        "keyAccentLanguage": "brown_point"
      },
      {
        "code": 0,
        "type": "City",
        "enNameLanguage": "Cauchero",
        "location": {
          "lat": 9.1210548,
          "lng": -82.37773349999999
        },
        "keyAccentLanguage": "cauchero"
      },
      {
        "code": 0,
        "type": "City",
        "enNameLanguage": "Africa",
        "location": {
          "lat": 9.3407804,
          "lng": -82.2408032
        },
        "keyAccentLanguage": "africa"
      },
      {
        "code": 0,
        "type": "City",
        "enNameLanguage": "Cana Chiriquicito",
        "location": {
          "lat": 8.983333,
          "lng": -82.14999999999999
        },
        "keyAccentLanguage": "cana_chiriquicito"
      },
      {
        "code": 0,
        "type": "City",
        "enNameLanguage": "Almirante",
        "location": {
          "lat": 9.2979179,
          "lng": -82.42110249999999
        },
        "keyAccentLanguage": "almirante"
      },
      {
        "code": 0,
        "type": "City",
        "enNameLanguage": "La Barra",
        "location": {
          "lat": 9.3407804,
          "lng": -82.2408032
        },
        "keyAccentLanguage": "la_barra"
      },
      {
        "code": 0,
        "type": "City",
        "enNameLanguage": "Corecucon",
        "location": {
          "lat": 9.3407804,
          "lng": -82.2408032
        },
        "keyAccentLanguage": "corecucon"
      },
      {
        "code": 0,
        "type": "City",
        "enNameLanguage": "Finca Cuarenta y Cuatro",
        "location": {
          "lat": 9.3407804,
          "lng": -82.2408032
        },
        "keyAccentLanguage": "finca_cuarenta_y_cuatro"
      },
      {
        "code": 0,
        "type": "City",
        "enNameLanguage": "Big Creek",
        "location": {
          "lat": 9.3644103,
          "lng": -82.248823
        },
        "keyAccentLanguage": "big_creek"
      },
      {
        "code": 0,
        "type": "City",
        "enNameLanguage": "Barranco",
        "location": {
          "lat": 9.516667000000002,
          "lng": -82.7
        },
        "keyAccentLanguage": "barranco"
      },
      {
        "code": 0,
        "type": "City",
        "enNameLanguage": "Alberrys Creek",
        "location": {
          "lat": 9.286826,
          "lng": -82.116325
        },
        "keyAccentLanguage": "alberrys_creek"
      },
      {
        "code": 0,
        "type": "City",
        "enNameLanguage": "Bella Vista",
        "location": {
          "lat": 9.3407804,
          "lng": -82.2408032
        },
        "keyAccentLanguage": "bella_vista"
      },
      {
        "code": 0,
        "type": "City",
        "enNameLanguage": "El Bajo del Cedro",
        "location": {
          "lat": 9.1,
          "lng": -82.283333
        },
        "keyAccentLanguage": "el_bajo_del_cedro"
      },
      {
        "code": 0,
        "type": "City",
        "enNameLanguage": "Juan Cuero",
        "location": {
          "lat": 9.3407804,
          "lng": -82.2408032
        },
        "keyAccentLanguage": "juan_cuero"
      },
      {
        "code": 0,
        "type": "City",
        "enNameLanguage": "Finca Treinta y Dos",
        "location": {
          "lat": 9.3407804,
          "lng": -82.2408032
        },
        "keyAccentLanguage": "finca_treinta_y_dos"
      },
      {
        "code": 0,
        "type": "City",
        "enNameLanguage": "Cajun Cod",
        "location": {
          "lat": 9.3407804,
          "lng": -82.2408032
        },
        "keyAccentLanguage": "cajun_cod"
      },
      {
        "code": 0,
        "type": "City",
        "enNameLanguage": "Buenos Aires",
        "location": {
          "lat": -34.6036844,
          "lng": -58.3815591
        },
        "keyAccentLanguage": "buenos_aires"
      },
      {
        "code": 0,
        "type": "City",
        "enNameLanguage": "Cedar Creek",
        "location": {
          "lat": 9.3407804,
          "lng": -82.2408032
        },
        "keyAccentLanguage": "cedar_creek"
      },
      {
        "code": 0,
        "type": "City",
        "enNameLanguage": "Cayo Mono",
        "location": {
          "lat": 9.1666667,
          "lng": -82.25
        },
        "keyAccentLanguage": "cayo_mono"
      },
      {
        "code": 0,
        "type": "City",
        "enNameLanguage": "Dos Bocas",
        "location": {
          "lat": 9.3760279,
          "lng": -82.5334646
        },
        "keyAccentLanguage": "dos_bocas"
      },
      {
        "code": 0,
        "type": "City",
        "enNameLanguage": "Finca Cuarenta y Uno",
        "location": {
          "lat": 9.3407804,
          "lng": -82.2408032
        },
        "keyAccentLanguage": "finca_cuarenta_y_uno"
      },
      {
        "code": 0,
        "type": "City",
        "enNameLanguage": "Finca Ocho",
        "location": {
          "lat": 9.3407804,
          "lng": -82.2408032
        },
        "keyAccentLanguage": "finca_ocho"
      },
      {
        "code": 0,
        "type": "City",
        "enNameLanguage": "Dorciyic",
        "location": {
          "lat": 9.374578,
          "lng": -82.636169
        },
        "keyAccentLanguage": "dorciyic"
      },
      {
        "code": 0,
        "type": "City",
        "enNameLanguage": "El Tapao",
        "location": {
          "lat": 9.097533,
          "lng": -82.276428
        },
        "keyAccentLanguage": "el_tapao"
      },
      {
        "code": 0,
        "type": "City",
        "enNameLanguage": "Isla Grande",
        "location": {
          "lat": 9.3407804,
          "lng": -82.2408032
        },
        "keyAccentLanguage": "isla_grande"
      },
      {
        "code": 0,
        "type": "City",
        "enNameLanguage": "Elena",
        "location": {
          "lat": 9.3407804,
          "lng": -82.2408032
        },
        "keyAccentLanguage": "elena"
      },
      {
        "code": 0,
        "type": "City",
        "enNameLanguage": "El Guabito",
        "location": {
          "lat": 9.477959499999999,
          "lng": -82.5943072
        },
        "keyAccentLanguage": "el_guabito"
      },
      {
        "code": 0,
        "type": "City",
        "enNameLanguage": "El Aguacate",
        "location": {
          "lat": 9.3407804,
          "lng": -82.2408032
        },
        "keyAccentLanguage": "el_aguacate"
      },
      {
        "code": 0,
        "type": "City",
        "enNameLanguage": "La Gloria",
        "location": {
          "lat": 8.991754,
          "lng": -82.22876
        },
        "keyAccentLanguage": "la_gloria"
      },
      {
        "code": 0,
        "type": "City",
        "enNameLanguage": "Ensenada Ballena",
        "location": {
          "lat": 8.9309689,
          "lng": -82.0761215
        },
        "keyAccentLanguage": "ensenada_ballena"
      },
      {
        "code": 0,
        "type": "City",
        "enNameLanguage": "Cano Claro",
        "location": {
          "lat": 9.023233,
          "lng": -82.296707
        },
        "keyAccentLanguage": "cano_claro"
      },
      {
        "code": 0,
        "type": "City",
        "enNameLanguage": "Cocoa Elena",
        "location": {
          "lat": 9.3407804,
          "lng": -82.2408032
        },
        "keyAccentLanguage": "cocoa_elena"
      },
      {
        "code": 0,
        "type": "City",
        "enNameLanguage": "La Esperanza",
        "location": {
          "lat": 9.3407804,
          "lng": -82.2408032
        },
        "keyAccentLanguage": "la_esperanza"
      },
      {
        "code": 0,
        "type": "City",
        "enNameLanguage": "Boca del Drago",
        "location": {
          "lat": 9.414187,
          "lng": -82.3207707
        },
        "keyAccentLanguage": "boca_del_drago"
      },
      {
        "code": 0,
        "type": "City",
        "enNameLanguage": "Boquisco",
        "location": {
          "lat": 9.344543,
          "lng": -82.522987
        },
        "keyAccentLanguage": "boquisco"
      },
      {
        "code": 0,
        "type": "City",
        "enNameLanguage": "Jutica",
        "location": {
          "lat": 9.3407804,
          "lng": -82.2408032
        },
        "keyAccentLanguage": "jutica"
      },
      {
        "code": 0,
        "type": "City",
        "enNameLanguage": "Isla Colon",
        "location": {
          "lat": 9.4047951,
          "lng": -82.269193
        },
        "keyAccentLanguage": "isla_colon"
      },
      {
        "code": 0,
        "type": "City",
        "enNameLanguage": "El Guarumito",
        "location": {
          "lat": 8.912170132774705,
          "lng": -82.22164562784586
        },
        "keyAccentLanguage": "el_guarumito"
      },
      {
        "code": 0,
        "type": "City",
        "enNameLanguage": "La Carretera",
        "location": {
          "lat": 9.3407804,
          "lng": -82.2408032
        },
        "keyAccentLanguage": "la_carretera"
      },
      {
        "code": 0,
        "type": "City",
        "enNameLanguage": "Chiriquicito Numero Dos",
        "location": {
          "lat": 9.3407804,
          "lng": -82.2408032
        },
        "keyAccentLanguage": "chiriquicito_numero_dos"
      },
      {
        "code": 0,
        "type": "City",
        "enNameLanguage": "Carenero",
        "location": {
          "lat": 9.3447809,
          "lng": -82.23252269999999
        },
        "keyAccentLanguage": "carenero"
      },
      {
        "code": 0,
        "type": "City",
        "enNameLanguage": "Crawl Cay",
        "location": {
          "lat": 9.2429928,
          "lng": -82.13804309999999
        },
        "keyAccentLanguage": "crawl_cay"
      },
      {
        "code": 0,
        "type": "City",
        "enNameLanguage": "El Silencio",
        "location": {
          "lat": 9.3856445,
          "lng": -82.53211189999999
        },
        "keyAccentLanguage": "el_silencio"
      },
      {
        "code": 0,
        "type": "City",
        "enNameLanguage": "Finca Sesenta y Uno",
        "location": {
          "lat": 9.3407804,
          "lng": -82.2408032
        },
        "keyAccentLanguage": "finca_sesenta_y_uno"
      },
      {
        "code": 0,
        "type": "City",
        "enNameLanguage": "Isla Venado",
        "location": {
          "lat": 9.2324319,
          "lng": -82.1264794
        },
        "keyAccentLanguage": "isla_venado"
      },
      {
        "code": 0,
        "type": "City",
        "enNameLanguage": "Junqito",
        "location": {
          "lat": 9.3822598,
          "lng": -82.50234640000001
        },
        "keyAccentLanguage": "junqito"
      },
      {
        "code": 0,
        "type": "City",
        "enNameLanguage": "Dos Canos",
        "location": {
          "lat": 9.560134,
          "lng": -82.746162
        },
        "keyAccentLanguage": "dos_canos"
      },
      {
        "code": 0,
        "type": "City",
        "enNameLanguage": "Punta Robalo",
        "location": {
          "lat": 9.0529039,
          "lng": -82.269193
        },
        "keyAccentLanguage": "punta_robalo"
      },
      {
        "code": 0,
        "type": "City",
        "enNameLanguage": "Jack Point",
        "location": {
          "lat": 9.3407804,
          "lng": -82.2408032
        },
        "keyAccentLanguage": "jack_point"
      },
      {
        "code": 0,
        "type": "City",
        "enNameLanguage": "Jim Creek",
        "location": {
          "lat": 9.3407804,
          "lng": -82.2408032
        },
        "keyAccentLanguage": "jim_creek"
      },
      {
        "code": 0,
        "type": "City",
        "enNameLanguage": "Punta Laurel",
        "location": {
          "lat": 9.1813931,
          "lng": -82.11695499999999
        },
        "keyAccentLanguage": "punta_laurel"
      },
      {
        "code": 0,
        "type": "City",
        "enNameLanguage": "Chorondro",
        "location": {
          "lat": 9.366667,
          "lng": -82.71666700000002
        },
        "keyAccentLanguage": "chorondro"
      },
      {
        "code": 0,
        "type": "City",
        "enNameLanguage": "La Cabana",
        "location": {
          "lat": 9.3577931,
          "lng": -82.2610457
        },
        "keyAccentLanguage": "la_cabana"
      },
      {
        "code": 0,
        "type": "City",
        "enNameLanguage": "Istmito",
        "location": {
          "lat": 9.3483649,
          "lng": -82.25422929999999
        },
        "keyAccentLanguage": "istmito"
      },
      {
        "code": 0,
        "type": "City",
        "enNameLanguage": "Fruitdale",
        "location": {
          "lat": 9.301727999999999,
          "lng": -82.423576
        },
        "keyAccentLanguage": "fruitdale"
      },
      {
        "code": 0,
        "type": "City",
        "enNameLanguage": "Ground Creek",
        "location": {
          "lat": 9.4029286,
          "lng": -82.3099154
        },
        "keyAccentLanguage": "ground_creek"
      },
      {
        "code": 0,
        "type": "City",
        "enNameLanguage": "Cilico Creek",
        "location": {
          "lat": 9.05639,
          "lng": -82.3044871
        },
        "keyAccentLanguage": "cilico_creek"
      },
      {
        "code": 0,
        "type": "City",
        "enNameLanguage": "La Dalia",
        "location": {
          "lat": 9.408415,
          "lng": -82.559929
        },
        "keyAccentLanguage": "la_dalia"
      },
      {
        "code": 0,
        "type": "City",
        "enNameLanguage": "Hope Well",
        "location": {
          "lat": 9.181875699999999,
          "lng": -82.2664774
        },
        "keyAccentLanguage": "hope_well"
      },
      {
        "code": 0,
        "type": "City",
        "enNameLanguage": "Finca Treinta y Uno",
        "location": {
          "lat": 9.4361724,
          "lng": -82.5586548
        },
        "keyAccentLanguage": "finca_treinta_y_uno"
      },
      {
        "code": 0,
        "type": "City",
        "enNameLanguage": "Congrord",
        "location": {
          "lat": 9.3666509,
          "lng": -82.67987099999999
        },
        "keyAccentLanguage": "congrord"
      }
    ],
    "enNameLanguage": "Bocas del Toro",
    "keyAccentLanguage": "bocas_del_toro"
  },
  {
    "code": 0,
    "type": "State",
    "location": {
      "lat": 8.584897999999999,
      "lng": -82.38857829999999
    },
    "districtList": [
      {
        "code": 0,
        "type": "City",
        "enNameLanguage": "David",
        "location": {
          "lat": 8.4007278,
          "lng": -82.4427769
        },
        "keyAccentLanguage": "david"
      },
      {
        "code": 0,
        "type": "City",
        "enNameLanguage": "Alto del Roble",
        "location": {
          "lat": 8.398782900000002,
          "lng": -82.31993279999999
        },
        "keyAccentLanguage": "alto_del_roble"
      },
      {
        "code": 0,
        "type": "City",
        "enNameLanguage": "Bajo Quiel",
        "location": {
          "lat": 8.398782900000002,
          "lng": -82.31993279999999
        },
        "keyAccentLanguage": "bajo_quiel"
      },
      {
        "code": 0,
        "type": "City",
        "enNameLanguage": "Alto Boquete",
        "location": {
          "lat": 8.6463632,
          "lng": -82.43727160000002
        },
        "keyAccentLanguage": "alto_boquete"
      },
      {
        "code": 0,
        "type": "City",
        "enNameLanguage": "Bajo Negro",
        "location": {
          "lat": 8.398782900000002,
          "lng": -82.31993279999999
        },
        "keyAccentLanguage": "bajo_negro"
      },
      {
        "code": 0,
        "type": "City",
        "enNameLanguage": "Alambique",
        "location": {
          "lat": 8.398782900000002,
          "lng": -82.31993279999999
        },
        "keyAccentLanguage": "alambique"
      },
      {
        "code": 0,
        "type": "City",
        "enNameLanguage": "Alto de la Playa",
        "location": {
          "lat": 8.398782900000002,
          "lng": -82.31993279999999
        },
        "keyAccentLanguage": "alto_de_la_playa"
      },
      {
        "code": 0,
        "type": "City",
        "enNameLanguage": "Bajo Frio",
        "location": {
          "lat": 8.398782900000002,
          "lng": -82.31993279999999
        },
        "keyAccentLanguage": "bajo_frio"
      },
      {
        "code": 0,
        "type": "City",
        "enNameLanguage": "Acequias Abajo",
        "location": {
          "lat": 8.398782900000002,
          "lng": -82.31993279999999
        },
        "keyAccentLanguage": "acequias_abajo"
      },
      {
        "code": 0,
        "type": "City",
        "enNameLanguage": "Bajo del Cerro",
        "location": {
          "lat": 8.398782900000002,
          "lng": -82.31993279999999
        },
        "keyAccentLanguage": "bajo_del_cerro"
      },
      {
        "code": 0,
        "type": "City",
        "enNameLanguage": "Alto Corrales",
        "location": {
          "lat": 8.398782900000002,
          "lng": -82.31993279999999
        },
        "keyAccentLanguage": "alto_corrales"
      },
      {
        "code": 0,
        "type": "City",
        "enNameLanguage": "Alto de Colorado",
        "location": {
          "lat": 8.398782900000002,
          "lng": -82.31993279999999
        },
        "keyAccentLanguage": "alto_de_colorado"
      },
      {
        "code": 0,
        "type": "City",
        "enNameLanguage": "Alto del Quira",
        "location": {
          "lat": 8.398782900000002,
          "lng": -82.31993279999999
        },
        "keyAccentLanguage": "alto_del_quira"
      },
      {
        "code": 0,
        "type": "City",
        "enNameLanguage": "Alto Corotu",
        "location": {
          "lat": 8.398782900000002,
          "lng": -82.31993279999999
        },
        "keyAccentLanguage": "alto_corotu"
      },
      {
        "code": 0,
        "type": "City",
        "enNameLanguage": "Bejuco",
        "location": {
          "lat": 8.398782900000002,
          "lng": -82.31993279999999
        },
        "keyAccentLanguage": "bejuco"
      },
      {
        "code": 0,
        "type": "City",
        "enNameLanguage": "Alto los Mirandas",
        "location": {
          "lat": 8.398782900000002,
          "lng": -82.31993279999999
        },
        "keyAccentLanguage": "alto_los_mirandas"
      },
      {
        "code": 0,
        "type": "City",
        "enNameLanguage": "Alanje",
        "location": {
          "lat": 8.3972444,
          "lng": -82.54563739999999
        },
        "keyAccentLanguage": "alanje"
      },
      {
        "code": 0,
        "type": "City",
        "enNameLanguage": "Bajo Jacoy",
        "location": {
          "lat": 8.398782900000002,
          "lng": -82.31993279999999
        },
        "keyAccentLanguage": "bajo_jacoy"
      },
      {
        "code": 0,
        "type": "City",
        "enNameLanguage": "Alto de los Machos",
        "location": {
          "lat": 8.309,
          "lng": -81.69414499999999
        },
        "keyAccentLanguage": "alto_de_los_machos"
      },
      {
        "code": 0,
        "type": "City",
        "enNameLanguage": "Bugaba",
        "location": {
          "lat": 8.47491,
          "lng": -82.62133109999999
        },
        "keyAccentLanguage": "bugaba"
      },
      {
        "code": 0,
        "type": "City",
        "enNameLanguage": "Alto Divala",
        "location": {
          "lat": 8.4052192,
          "lng": -82.6807458
        },
        "keyAccentLanguage": "alto_divala"
      },
      {
        "code": 0,
        "type": "City",
        "enNameLanguage": "Aguacatal",
        "location": {
          "lat": 8.4526995,
          "lng": -82.4563199
        },
        "keyAccentLanguage": "aguacatal"
      },
      {
        "code": 0,
        "type": "City",
        "enNameLanguage": "Adentro Lajas",
        "location": {
          "lat": 8.398782900000002,
          "lng": -82.31993279999999
        },
        "keyAccentLanguage": "adentro_lajas"
      },
      {
        "code": 0,
        "type": "City",
        "enNameLanguage": "Chiriqui",
        "location": {
          "lat": 8.398782900000002,
          "lng": -82.31993279999999
        },
        "keyAccentLanguage": "chiriqui"
      },
      {
        "code": 0,
        "type": "City",
        "enNameLanguage": "Bajo Seco",
        "location": {
          "lat": 8.398782900000002,
          "lng": -82.31993279999999
        },
        "keyAccentLanguage": "bajo_seco"
      },
      {
        "code": 0,
        "type": "City",
        "enNameLanguage": "Bajo Lino",
        "location": {
          "lat": 8.398782900000002,
          "lng": -82.31993279999999
        },
        "keyAccentLanguage": "bajo_lino"
      },
      {
        "code": 0,
        "type": "City",
        "enNameLanguage": "Tole",
        "location": {
          "lat": 8.2122162,
          "lng": -81.7021049
        },
        "keyAccentLanguage": "tole"
      },
      {
        "code": 0,
        "type": "City",
        "enNameLanguage": "Acequias Arriba",
        "location": {
          "lat": 8.62553,
          "lng": -82.456131
        },
        "keyAccentLanguage": "acequias_arriba"
      },
      {
        "code": 0,
        "type": "City",
        "enNameLanguage": "Alto Guayabo",
        "location": {
          "lat": 8.299999999999999,
          "lng": -81.516667
        },
        "keyAccentLanguage": "alto_guayabo"
      },
      {
        "code": 0,
        "type": "City",
        "enNameLanguage": "Bajo Largo",
        "location": {
          "lat": 8.398782900000002,
          "lng": -82.31993279999999
        },
        "keyAccentLanguage": "bajo_largo"
      },
      {
        "code": 0,
        "type": "City",
        "enNameLanguage": "Alto de Panama",
        "location": {
          "lat": 8.398782900000002,
          "lng": -82.31993279999999
        },
        "keyAccentLanguage": "alto_de_panama"
      },
      {
        "code": 0,
        "type": "City",
        "enNameLanguage": "Bajo Mono",
        "location": {
          "lat": 8.8130577,
          "lng": -82.46173639999999
        },
        "keyAccentLanguage": "bajo_mono"
      },
      {
        "code": 0,
        "type": "City",
        "enNameLanguage": "Bajo de la Arena",
        "location": {
          "lat": 8.398782900000002,
          "lng": -82.31993279999999
        },
        "keyAccentLanguage": "bajo_de_la_arena"
      },
      {
        "code": 0,
        "type": "City",
        "enNameLanguage": "Alto Lino",
        "location": {
          "lat": 8.802967599999999,
          "lng": -82.4360044
        },
        "keyAccentLanguage": "alto_lino"
      },
      {
        "code": 0,
        "type": "City",
        "enNameLanguage": "Alto de Monte Lirio",
        "location": {
          "lat": 8.7867762,
          "lng": -82.79672459999999
        },
        "keyAccentLanguage": "alto_de_monte_lirio"
      },
      {
        "code": 0,
        "type": "City",
        "enNameLanguage": "Bajo Corrales",
        "location": {
          "lat": 10.1088313,
          "lng": -84.3988806
        },
        "keyAccentLanguage": "bajo_corrales"
      },
      {
        "code": 0,
        "type": "City",
        "enNameLanguage": "Bagala",
        "location": {
          "lat": 8.5335269,
          "lng": -82.5510469
        },
        "keyAccentLanguage": "bagala"
      },
      {
        "code": 0,
        "type": "City",
        "enNameLanguage": "Alto de Gariche",
        "location": {
          "lat": 8.5392119,
          "lng": -82.76894399999999
        },
        "keyAccentLanguage": "alto_de_gariche"
      },
      {
        "code": 0,
        "type": "City",
        "enNameLanguage": "Boqueron Viejo",
        "location": {
          "lat": 8.520646,
          "lng": -82.587013
        },
        "keyAccentLanguage": "boqueron_viejo"
      },
      {
        "code": 0,
        "type": "City",
        "enNameLanguage": "Alto de la Arena",
        "location": {
          "lat": 8.398782900000002,
          "lng": -82.31993279999999
        },
        "keyAccentLanguage": "alto_de_la_arena"
      },
      {
        "code": 0,
        "type": "City",
        "enNameLanguage": "Pedregal",
        "location": {
          "lat": 8.3410005,
          "lng": -82.4481944
        },
        "keyAccentLanguage": "pedregal"
      },
      {
        "code": 0,
        "type": "City",
        "enNameLanguage": "Barniz",
        "location": {
          "lat": 8.398782900000002,
          "lng": -82.31993279999999
        },
        "keyAccentLanguage": "barniz"
      },
      {
        "code": 0,
        "type": "City",
        "enNameLanguage": "Balsa Numero Dos",
        "location": {
          "lat": 8.398782900000002,
          "lng": -82.31993279999999
        },
        "keyAccentLanguage": "balsa_numero_dos"
      },
      {
        "code": 0,
        "type": "City",
        "enNameLanguage": "Arguea",
        "location": {
          "lat": 8.5,
          "lng": -82.36666699999999
        },
        "keyAccentLanguage": "arguea"
      },
      {
        "code": 0,
        "type": "City",
        "enNameLanguage": "Acequia de Cochea",
        "location": {
          "lat": 8.5464085,
          "lng": -82.37231050000001
        },
        "keyAccentLanguage": "acequia_de_cochea"
      },
      {
        "code": 0,
        "type": "City",
        "enNameLanguage": "Bajo Gualaca",
        "location": {
          "lat": 8.4954761,
          "lng": -82.2080653
        },
        "keyAccentLanguage": "bajo_gualaca"
      },
      {
        "code": 0,
        "type": "City",
        "enNameLanguage": "Boquita",
        "location": {
          "lat": 8.398782900000002,
          "lng": -82.31993279999999
        },
        "keyAccentLanguage": "boquita"
      },
      {
        "code": 0,
        "type": "City",
        "enNameLanguage": "Boca del Monte",
        "location": {
          "lat": 8.3561866,
          "lng": -82.1115119
        },
        "keyAccentLanguage": "boca_del_monte"
      },
      {
        "code": 0,
        "type": "City",
        "enNameLanguage": "Alto Gualaca",
        "location": {
          "lat": 8.483333,
          "lng": -82.216667
        },
        "keyAccentLanguage": "alto_gualaca"
      },
      {
        "code": 0,
        "type": "City",
        "enNameLanguage": "Alto de la Mina",
        "location": {
          "lat": 8.7050314,
          "lng": -82.8128918
        },
        "keyAccentLanguage": "alto_de_la_mina"
      },
      {
        "code": 0,
        "type": "City",
        "enNameLanguage": "Alto Majagua",
        "location": {
          "lat": 8.548705,
          "lng": -82.475121
        },
        "keyAccentLanguage": "alto_majagua"
      },
      {
        "code": 0,
        "type": "City",
        "enNameLanguage": "Boca Toro",
        "location": {
          "lat": 8.136713,
          "lng": -81.783788
        },
        "keyAccentLanguage": "boca_toro"
      },
      {
        "code": 0,
        "type": "City",
        "enNameLanguage": "Divala",
        "location": {
          "lat": 8.4052192,
          "lng": -82.6807458
        },
        "keyAccentLanguage": "divala"
      },
      {
        "code": 0,
        "type": "City",
        "enNameLanguage": "Barriles",
        "location": {
          "lat": 8.7921176,
          "lng": -82.6913672
        },
        "keyAccentLanguage": "barriles"
      },
      {
        "code": 0,
        "type": "City",
        "enNameLanguage": "Sabalo",
        "location": {
          "lat": 8.4074496,
          "lng": -82.0924577
        },
        "keyAccentLanguage": "sabalo"
      },
      {
        "code": 0,
        "type": "City",
        "enNameLanguage": "Barranca",
        "location": {
          "lat": 8.3263489,
          "lng": -82.31325369999999
        },
        "keyAccentLanguage": "barranca"
      },
      {
        "code": 0,
        "type": "City",
        "enNameLanguage": "Bajo Chirigagua",
        "location": {
          "lat": 8.4119298,
          "lng": -82.53075919999999
        },
        "keyAccentLanguage": "bajo_chirigagua"
      },
      {
        "code": 0,
        "type": "City",
        "enNameLanguage": "Boqueron",
        "location": {
          "lat": 8.5394975,
          "lng": -82.57808779999999
        },
        "keyAccentLanguage": "boqueron"
      },
      {
        "code": 0,
        "type": "City",
        "enNameLanguage": "Alto de Jacu",
        "location": {
          "lat": 8.544183,
          "lng": -82.7724379
        },
        "keyAccentLanguage": "alto_de_jacu"
      },
      {
        "code": 0,
        "type": "City",
        "enNameLanguage": "Puerto Armuelles",
        "location": {
          "lat": 8.2742896,
          "lng": -82.8600183
        },
        "keyAccentLanguage": "puerto_armuelles"
      },
      {
        "code": 0,
        "type": "City",
        "enNameLanguage": "Paraiso",
        "location": {
          "lat": 8.6488438,
          "lng": -82.5889012
        },
        "keyAccentLanguage": "paraiso"
      },
      {
        "code": 0,
        "type": "City",
        "enNameLanguage": "Boca Quebrada de Hacha",
        "location": {
          "lat": 8.477405149878745,
          "lng": -82.04189137985097
        },
        "keyAccentLanguage": "boca_quebrada_de_hacha"
      },
      {
        "code": 0,
        "type": "City",
        "enNameLanguage": "Bajo Mendez",
        "location": {
          "lat": 8.398782900000002,
          "lng": -82.31993279999999
        },
        "keyAccentLanguage": "bajo_mendez"
      },
      {
        "code": 0,
        "type": "City",
        "enNameLanguage": "Remedios",
        "location": {
          "lat": 8.1711057,
          "lng": -81.81150509999999
        },
        "keyAccentLanguage": "remedios"
      },
      {
        "code": 0,
        "type": "City",
        "enNameLanguage": "Brazo de Cochea",
        "location": {
          "lat": 8.72973,
          "lng": -82.505371
        },
        "keyAccentLanguage": "brazo_de_cochea"
      },
      {
        "code": 0,
        "type": "City",
        "enNameLanguage": "Bambito",
        "location": {
          "lat": 8.8310885,
          "lng": -82.61187389999999
        },
        "keyAccentLanguage": "bambito"
      },
      {
        "code": 0,
        "type": "City",
        "enNameLanguage": "Balitas",
        "location": {
          "lat": 8.398782900000002,
          "lng": -82.31993279999999
        },
        "keyAccentLanguage": "balitas"
      },
      {
        "code": 0,
        "type": "City",
        "enNameLanguage": "Plaza De Caisan",
        "location": {
          "lat": 8.7430304,
          "lng": -82.82054699999999
        },
        "keyAccentLanguage": "plaza_de_caisan"
      },
      {
        "code": 0,
        "type": "City",
        "enNameLanguage": "Bajo de la Canoa",
        "location": {
          "lat": 8.398782900000002,
          "lng": -82.31993279999999
        },
        "keyAccentLanguage": "bajo_de_la_canoa"
      },
      {
        "code": 0,
        "type": "City",
        "enNameLanguage": "Bocalatun",
        "location": {
          "lat": 8.5940463,
          "lng": -82.57808779999999
        },
        "keyAccentLanguage": "bocalatun"
      },
      {
        "code": 0,
        "type": "City",
        "enNameLanguage": "Brazos de Gariche",
        "location": {
          "lat": 8.4873973,
          "lng": -82.77920569999999
        },
        "keyAccentLanguage": "brazos_de_gariche"
      },
      {
        "code": 0,
        "type": "City",
        "enNameLanguage": "Boquete",
        "location": {
          "lat": 8.777231800000001,
          "lng": -82.4481944
        },
        "keyAccentLanguage": "boquete"
      },
      {
        "code": 0,
        "type": "City",
        "enNameLanguage": "Progreso",
        "location": {
          "lat": 8.429781900000002,
          "lng": -82.8317486
        },
        "keyAccentLanguage": "progreso"
      },
      {
        "code": 0,
        "type": "City",
        "enNameLanguage": "Baitun",
        "location": {
          "lat": 8.654498,
          "lng": -82.78121999999999
        },
        "keyAccentLanguage": "baitun"
      },
      {
        "code": 0,
        "type": "City",
        "enNameLanguage": "La Concepcion",
        "location": {
          "lat": 8.5133672,
          "lng": -82.63754019999999
        },
        "keyAccentLanguage": "la_concepcion"
      },
      {
        "code": 0,
        "type": "City",
        "enNameLanguage": "San Lorenzo",
        "location": {
          "lat": 8.306968900000001,
          "lng": -82.09518
        },
        "keyAccentLanguage": "san_lorenzo"
      },
      {
        "code": 0,
        "type": "City",
        "enNameLanguage": "Baules",
        "location": {
          "lat": 8.398782900000002,
          "lng": -82.31993279999999
        },
        "keyAccentLanguage": "baules"
      },
      {
        "code": 0,
        "type": "City",
        "enNameLanguage": "Aserrio de Gariche",
        "location": {
          "lat": 8.5273038,
          "lng": -82.79941939999999
        },
        "keyAccentLanguage": "aserrio_de_gariche"
      },
      {
        "code": 0,
        "type": "City",
        "enNameLanguage": "Bijagual",
        "location": {
          "lat": 8.5075138,
          "lng": -82.33433749999999
        },
        "keyAccentLanguage": "bijagual"
      },
      {
        "code": 0,
        "type": "City",
        "enNameLanguage": "Dolega",
        "location": {
          "lat": 8.569282399999999,
          "lng": -82.4265217
        },
        "keyAccentLanguage": "dolega"
      },
      {
        "code": 0,
        "type": "City",
        "enNameLanguage": "Algarrobal",
        "location": {
          "lat": 8.549999999999999,
          "lng": -82.25
        },
        "keyAccentLanguage": "algarrobal"
      },
      {
        "code": 0,
        "type": "City",
        "enNameLanguage": "Bajo Grande",
        "location": {
          "lat": 8.8573937,
          "lng": -82.5578081
        },
        "keyAccentLanguage": "bajo_grande"
      },
      {
        "code": 0,
        "type": "City",
        "enNameLanguage": "Barrero",
        "location": {
          "lat": 8.398782900000002,
          "lng": -82.31993279999999
        },
        "keyAccentLanguage": "barrero"
      },
      {
        "code": 0,
        "type": "City",
        "enNameLanguage": "Bajo Volcancito",
        "location": {
          "lat": 8.763507299999999,
          "lng": -82.44548569999999
        },
        "keyAccentLanguage": "bajo_volcancito"
      },
      {
        "code": 0,
        "type": "City",
        "enNameLanguage": "Barrio San Jose",
        "location": {
          "lat": 8.398782900000002,
          "lng": -82.31993279999999
        },
        "keyAccentLanguage": "barrio_san_jose"
      },
      {
        "code": 0,
        "type": "City",
        "enNameLanguage": "Boca de los Rios",
        "location": {
          "lat": 18.883333,
          "lng": -70.6333329
        },
        "keyAccentLanguage": "boca_de_los_rios"
      },
      {
        "code": 0,
        "type": "City",
        "enNameLanguage": "Horconcitos",
        "location": {
          "lat": 8.3029356,
          "lng": -82.1659243
        },
        "keyAccentLanguage": "horconcitos"
      },
      {
        "code": 0,
        "type": "City",
        "enNameLanguage": "Puerto Real",
        "location": {
          "lat": 8.249061,
          "lng": -82.424583
        },
        "keyAccentLanguage": "puerto_real"
      },
      {
        "code": 0,
        "type": "City",
        "enNameLanguage": "San Felix",
        "location": {
          "lat": 8.302579999999999,
          "lng": -81.87706709999999
        },
        "keyAccentLanguage": "san_felix"
      },
      {
        "code": 0,
        "type": "City",
        "enNameLanguage": "Las Lajas",
        "location": {
          "lat": 8.1936631,
          "lng": -81.8552196
        },
        "keyAccentLanguage": "las_lajas"
      },
      {
        "code": 0,
        "type": "City",
        "enNameLanguage": "Alto Quiel",
        "location": {
          "lat": 8.8078033,
          "lng": -82.472568
        },
        "keyAccentLanguage": "alto_quiel"
      },
      {
        "code": 0,
        "type": "City",
        "enNameLanguage": "Volcan",
        "location": {
          "lat": 8.732166099999999,
          "lng": -82.65914649999999
        },
        "keyAccentLanguage": "volcan"
      },
      {
        "code": 0,
        "type": "City",
        "enNameLanguage": "Rio Sereno",
        "location": {
          "lat": 8.828707099999999,
          "lng": -82.864463
        },
        "keyAccentLanguage": "rio_sereno"
      },
      {
        "code": 0,
        "type": "City",
        "enNameLanguage": "Batipa",
        "location": {
          "lat": 8.3372365,
          "lng": -82.2528975
        },
        "keyAccentLanguage": "batipa"
      },
      {
        "code": 0,
        "type": "City",
        "enNameLanguage": "Cerro Punta",
        "location": {
          "lat": 8.8729633,
          "lng": -82.5834947
        },
        "keyAccentLanguage": "cerro_punta"
      },
      {
        "code": 0,
        "type": "City",
        "enNameLanguage": "Santo Tomas",
        "location": {
          "lat": 8.3881859,
          "lng": -82.6429424
        },
        "keyAccentLanguage": "santo_tomas"
      },
      {
        "code": 0,
        "type": "City",
        "enNameLanguage": "Boca Chica",
        "location": {
          "lat": 8.2111926,
          "lng": -82.1931149
        },
        "keyAccentLanguage": "boca_chica"
      },
      {
        "code": 0,
        "type": "City",
        "enNameLanguage": "Bajo Boquete",
        "location": {
          "lat": 8.777231800000001,
          "lng": -82.4481944
        },
        "keyAccentLanguage": "bajo_boquete"
      },
      {
        "code": 0,
        "type": "City",
        "enNameLanguage": "Barrigon",
        "location": {
          "lat": 8.398782900000002,
          "lng": -82.31993279999999
        },
        "keyAccentLanguage": "barrigon"
      },
      {
        "code": 0,
        "type": "City",
        "enNameLanguage": "Balita",
        "location": {
          "lat": 8.4,
          "lng": -82.083
        },
        "keyAccentLanguage": "balita"
      }
    ],
    "enNameLanguage": "Chiriquí",
    "keyAccentLanguage": "chiriquí"
  },
  {
    "code": 0,
    "type": "State",
    "location": {
      "lat": 8.6266068,
      "lng": -80.365865
    },
    "districtList": [
      {
        "code": 0,
        "type": "City",
        "enNameLanguage": "Rio Hato",
        "location": {
          "lat": 8.3788583,
          "lng": -80.1645207
        },
        "keyAccentLanguage": "rio_hato"
      },
      {
        "code": 0,
        "type": "City",
        "enNameLanguage": "Canoa Numero Dos",
        "location": {
          "lat": 8.400144899999999,
          "lng": -80.42152460000001
        },
        "keyAccentLanguage": "canoa_numero_dos"
      },
      {
        "code": 0,
        "type": "City",
        "enNameLanguage": "Cermeno",
        "location": {
          "lat": 8.490246899999999,
          "lng": -80.44959999999999
        },
        "keyAccentLanguage": "cermeno"
      },
      {
        "code": 0,
        "type": "City",
        "enNameLanguage": "Churuquita Grande",
        "location": {
          "lat": 8.6010478,
          "lng": -80.2692586
        },
        "keyAccentLanguage": "churuquita_grande"
      },
      {
        "code": 0,
        "type": "City",
        "enNameLanguage": "Angostura",
        "location": {
          "lat": 8.568788000000001,
          "lng": -80.1763
        },
        "keyAccentLanguage": "angostura"
      },
      {
        "code": 0,
        "type": "City",
        "enNameLanguage": "Boca de Tucue",
        "location": {
          "lat": 8.7544889,
          "lng": -80.3297613
        },
        "keyAccentLanguage": "boca_de_tucue"
      },
      {
        "code": 0,
        "type": "City",
        "enNameLanguage": "Alto del Jujucal",
        "location": {
          "lat": 8.631031799999999,
          "lng": -80.5374137
        },
        "keyAccentLanguage": "alto_del_jujucal"
      },
      {
        "code": 0,
        "type": "City",
        "enNameLanguage": "Bajo de la Cruz",
        "location": {
          "lat": 8.400144899999999,
          "lng": -80.42152460000001
        },
        "keyAccentLanguage": "bajo_de_la_cruz"
      },
      {
        "code": 0,
        "type": "City",
        "enNameLanguage": "Alto del Mora",
        "location": {
          "lat": 8.897821,
          "lng": -80.214226
        },
        "keyAccentLanguage": "alto_del_mora"
      },
      {
        "code": 0,
        "type": "City",
        "enNameLanguage": "Banazo",
        "location": {
          "lat": 8.400144899999999,
          "lng": -80.42152460000001
        },
        "keyAccentLanguage": "banazo"
      },
      {
        "code": 0,
        "type": "City",
        "enNameLanguage": "Agua Fria",
        "location": {
          "lat": 8.420686,
          "lng": -80.34272000000001
        },
        "keyAccentLanguage": "agua_fria"
      },
      {
        "code": 0,
        "type": "City",
        "enNameLanguage": "Cabuyita",
        "location": {
          "lat": 8.400144899999999,
          "lng": -80.42152460000001
        },
        "keyAccentLanguage": "cabuyita"
      },
      {
        "code": 0,
        "type": "City",
        "enNameLanguage": "Banazo Abajo",
        "location": {
          "lat": 8.400144899999999,
          "lng": -80.42152460000001
        },
        "keyAccentLanguage": "banazo_abajo"
      },
      {
        "code": 0,
        "type": "City",
        "enNameLanguage": "Agua Blanca",
        "location": {
          "lat": 8.483333,
          "lng": -80.64999999999999
        },
        "keyAccentLanguage": "agua_blanca"
      },
      {
        "code": 0,
        "type": "City",
        "enNameLanguage": "Alto de la Rosa",
        "location": {
          "lat": 8.400144899999999,
          "lng": -80.42152460000001
        },
        "keyAccentLanguage": "alto_de_la_rosa"
      },
      {
        "code": 0,
        "type": "City",
        "enNameLanguage": "Andariel",
        "location": {
          "lat": 8.400144899999999,
          "lng": -80.42152460000001
        },
        "keyAccentLanguage": "andariel"
      },
      {
        "code": 0,
        "type": "City",
        "enNameLanguage": "Bito",
        "location": {
          "lat": 8.400144899999999,
          "lng": -80.42152460000001
        },
        "keyAccentLanguage": "bito"
      },
      {
        "code": 0,
        "type": "City",
        "enNameLanguage": "Alto del Gallo",
        "location": {
          "lat": 8.400144899999999,
          "lng": -80.42152460000001
        },
        "keyAccentLanguage": "alto_del_gallo"
      },
      {
        "code": 0,
        "type": "City",
        "enNameLanguage": "Caimito",
        "location": {
          "lat": 8.62332,
          "lng": -80.24034100000002
        },
        "keyAccentLanguage": "caimito"
      },
      {
        "code": 0,
        "type": "City",
        "enNameLanguage": "Boqueron",
        "location": {
          "lat": 8.400144899999999,
          "lng": -80.42152460000001
        },
        "keyAccentLanguage": "boqueron"
      },
      {
        "code": 0,
        "type": "City",
        "enNameLanguage": "Calle Larga",
        "location": {
          "lat": 8.4575589,
          "lng": -80.2543647
        },
        "keyAccentLanguage": "calle_larga"
      },
      {
        "code": 0,
        "type": "City",
        "enNameLanguage": "Bella Vista",
        "location": {
          "lat": 8.400144899999999,
          "lng": -80.42152460000001
        },
        "keyAccentLanguage": "bella_vista"
      },
      {
        "code": 0,
        "type": "City",
        "enNameLanguage": "Aguila",
        "location": {
          "lat": 8.952458,
          "lng": -80.191383
        },
        "keyAccentLanguage": "aguila"
      },
      {
        "code": 0,
        "type": "City",
        "enNameLanguage": "Boca de Chiguiri",
        "location": {
          "lat": 8.7107844,
          "lng": -80.2817403
        },
        "keyAccentLanguage": "boca_de_chiguiri"
      },
      {
        "code": 0,
        "type": "City",
        "enNameLanguage": "Anton",
        "location": {
          "lat": 8.4018641,
          "lng": -80.2711588
        },
        "keyAccentLanguage": "anton"
      },
      {
        "code": 0,
        "type": "City",
        "enNameLanguage": "Boca de Banazo",
        "location": {
          "lat": 8.400144899999999,
          "lng": -80.42152460000001
        },
        "keyAccentLanguage": "boca_de_banazo"
      },
      {
        "code": 0,
        "type": "City",
        "enNameLanguage": "Penonome",
        "location": {
          "lat": 8.5503103,
          "lng": -80.3547286
        },
        "keyAccentLanguage": "penonome"
      },
      {
        "code": 0,
        "type": "City",
        "enNameLanguage": "Aguacate",
        "location": {
          "lat": 8.400144899999999,
          "lng": -80.42152460000001
        },
        "keyAccentLanguage": "aguacate"
      },
      {
        "code": 0,
        "type": "City",
        "enNameLanguage": "Aguas Blancas",
        "location": {
          "lat": 8.507528,
          "lng": -80.307182
        },
        "keyAccentLanguage": "aguas_blancas"
      },
      {
        "code": 0,
        "type": "City",
        "enNameLanguage": "Buena Vista",
        "location": {
          "lat": 8.400144899999999,
          "lng": -80.42152460000001
        },
        "keyAccentLanguage": "buena_vista"
      },
      {
        "code": 0,
        "type": "City",
        "enNameLanguage": "Alto del Maranon",
        "location": {
          "lat": 8.400144899999999,
          "lng": -80.42152460000001
        },
        "keyAccentLanguage": "alto_del_maranon"
      },
      {
        "code": 0,
        "type": "City",
        "enNameLanguage": "Boca Lura",
        "location": {
          "lat": 8.400144899999999,
          "lng": -80.42152460000001
        },
        "keyAccentLanguage": "boca_lura"
      },
      {
        "code": 0,
        "type": "City",
        "enNameLanguage": "Pocri",
        "location": {
          "lat": 8.2573425,
          "lng": -80.5605111
        },
        "keyAccentLanguage": "pocri"
      },
      {
        "code": 0,
        "type": "City",
        "enNameLanguage": "Brazo Chico",
        "location": {
          "lat": 8.400144899999999,
          "lng": -80.42152460000001
        },
        "keyAccentLanguage": "brazo_chico"
      },
      {
        "code": 0,
        "type": "City",
        "enNameLanguage": "Canablancal",
        "location": {
          "lat": 8.400144899999999,
          "lng": -80.42152460000001
        },
        "keyAccentLanguage": "canablancal"
      },
      {
        "code": 0,
        "type": "City",
        "enNameLanguage": "Buenos Aires",
        "location": {
          "lat": -34.6036844,
          "lng": -58.3815591
        },
        "keyAccentLanguage": "buenos_aires"
      },
      {
        "code": 0,
        "type": "City",
        "enNameLanguage": "Aguas Claras",
        "location": {
          "lat": 8.6266068,
          "lng": -80.365865
        },
        "keyAccentLanguage": "aguas_claras"
      },
      {
        "code": 0,
        "type": "City",
        "enNameLanguage": "Boca Nueva",
        "location": {
          "lat": 8.299999999999999,
          "lng": -80.266667
        },
        "keyAccentLanguage": "boca_nueva"
      },
      {
        "code": 0,
        "type": "City",
        "enNameLanguage": "Boca de Bejuco",
        "location": {
          "lat": 8.583333,
          "lng": -80.7
        },
        "keyAccentLanguage": "boca_de_bejuco"
      },
      {
        "code": 0,
        "type": "City",
        "enNameLanguage": "Bejuco",
        "location": {
          "lat": 8.697761999999999,
          "lng": -80.240196
        },
        "keyAccentLanguage": "bejuco"
      },
      {
        "code": 0,
        "type": "City",
        "enNameLanguage": "Bermejo",
        "location": {
          "lat": 8.658413,
          "lng": -80.540604
        },
        "keyAccentLanguage": "bermejo"
      },
      {
        "code": 0,
        "type": "City",
        "enNameLanguage": "Atre Abajo",
        "location": {
          "lat": 8.6699,
          "lng": -80.23893
        },
        "keyAccentLanguage": "atre_abajo"
      },
      {
        "code": 0,
        "type": "City",
        "enNameLanguage": "Boca de Marica",
        "location": {
          "lat": 8.400144899999999,
          "lng": -80.42152460000001
        },
        "keyAccentLanguage": "boca_de_marica"
      },
      {
        "code": 0,
        "type": "City",
        "enNameLanguage": "Atre",
        "location": {
          "lat": 8.6699,
          "lng": -80.23893
        },
        "keyAccentLanguage": "atre"
      },
      {
        "code": 0,
        "type": "City",
        "enNameLanguage": "Boca de Cuiria",
        "location": {
          "lat": 8.816666999999999,
          "lng": -80.3833329
        },
        "keyAccentLanguage": "boca_de_cuiria"
      },
      {
        "code": 0,
        "type": "City",
        "enNameLanguage": "Alto de Canazas",
        "location": {
          "lat": 8.400144899999999,
          "lng": -80.42152460000001
        },
        "keyAccentLanguage": "alto_de_canazas"
      },
      {
        "code": 0,
        "type": "City",
        "enNameLanguage": "Cabecera de Limon",
        "location": {
          "lat": 8.400144899999999,
          "lng": -80.42152460000001
        },
        "keyAccentLanguage": "cabecera_de_limon"
      },
      {
        "code": 0,
        "type": "City",
        "enNameLanguage": "Aguadulce",
        "location": {
          "lat": 8.230175599999999,
          "lng": -80.5549561
        },
        "keyAccentLanguage": "aguadulce"
      },
      {
        "code": 0,
        "type": "City",
        "enNameLanguage": "Bajo Grande",
        "location": {
          "lat": 8.588445,
          "lng": -80.676491
        },
        "keyAccentLanguage": "bajo_grande"
      },
      {
        "code": 0,
        "type": "City",
        "enNameLanguage": "Atre Arriba",
        "location": {
          "lat": 8.6699,
          "lng": -80.23893
        },
        "keyAccentLanguage": "atre_arriba"
      },
      {
        "code": 0,
        "type": "City",
        "enNameLanguage": "Brazos de U",
        "location": {
          "lat": 8.400144899999999,
          "lng": -80.42152460000001
        },
        "keyAccentLanguage": "brazos_de_u"
      },
      {
        "code": 0,
        "type": "City",
        "enNameLanguage": "Cabecera de Riecito",
        "location": {
          "lat": 8.6266068,
          "lng": -80.365865
        },
        "keyAccentLanguage": "cabecera_de_riecito"
      },
      {
        "code": 0,
        "type": "City",
        "enNameLanguage": "Arenas Blancas",
        "location": {
          "lat": 8.316666999999999,
          "lng": -80.3833329
        },
        "keyAccentLanguage": "arenas_blancas"
      },
      {
        "code": 0,
        "type": "City",
        "enNameLanguage": "Caimitillo",
        "location": {
          "lat": 8.62332,
          "lng": -80.24034100000002
        },
        "keyAccentLanguage": "caimitillo"
      },
      {
        "code": 0,
        "type": "City",
        "enNameLanguage": "Barranquilla",
        "location": {
          "lat": 8.5431139,
          "lng": -80.170357
        },
        "keyAccentLanguage": "barranquilla"
      },
      {
        "code": 0,
        "type": "City",
        "enNameLanguage": "Cabecera de Tranquilla",
        "location": {
          "lat": 8.492151,
          "lng": -80.22952289999999
        },
        "keyAccentLanguage": "cabecera_de_tranquilla"
      },
      {
        "code": 0,
        "type": "City",
        "enNameLanguage": "Alto Bonito",
        "location": {
          "lat": 8.759990499999999,
          "lng": -80.3957314
        },
        "keyAccentLanguage": "alto_bonito"
      },
      {
        "code": 0,
        "type": "City",
        "enNameLanguage": "Ola",
        "location": {
          "lat": 8.423220299999999,
          "lng": -80.6479524
        },
        "keyAccentLanguage": "ola"
      },
      {
        "code": 0,
        "type": "City",
        "enNameLanguage": "Nata",
        "location": {
          "lat": 8.3029735,
          "lng": -80.4326521
        },
        "keyAccentLanguage": "nata"
      },
      {
        "code": 0,
        "type": "City",
        "enNameLanguage": "Barranco Colorado",
        "location": {
          "lat": 8.388511,
          "lng": -80.637512
        },
        "keyAccentLanguage": "barranco_colorado"
      },
      {
        "code": 0,
        "type": "City",
        "enNameLanguage": "Cabuya",
        "location": {
          "lat": 8.6266068,
          "lng": -80.365865
        },
        "keyAccentLanguage": "cabuya"
      },
      {
        "code": 0,
        "type": "City",
        "enNameLanguage": "Canazas",
        "location": {
          "lat": 8.3102946,
          "lng": -81.2188355
        },
        "keyAccentLanguage": "canazas"
      },
      {
        "code": 0,
        "type": "City",
        "enNameLanguage": "El Cano",
        "location": {
          "lat": 8.4462028,
          "lng": -80.5327324
        },
        "keyAccentLanguage": "el_cano"
      },
      {
        "code": 0,
        "type": "City",
        "enNameLanguage": "Caballerito",
        "location": {
          "lat": 8.545549,
          "lng": -80.19650999999999
        },
        "keyAccentLanguage": "caballerito"
      },
      {
        "code": 0,
        "type": "City",
        "enNameLanguage": "Cerrezuela",
        "location": {
          "lat": 8.3673439,
          "lng": -80.472816
        },
        "keyAccentLanguage": "cerrezuela"
      },
      {
        "code": 0,
        "type": "City",
        "enNameLanguage": "Boca de Rio Hato",
        "location": {
          "lat": 8.3788583,
          "lng": -80.1645207
        },
        "keyAccentLanguage": "boca_de_rio_hato"
      },
      {
        "code": 0,
        "type": "City",
        "enNameLanguage": "Cabecera de Uracillo",
        "location": {
          "lat": 8.965095999999999,
          "lng": -80.183899
        },
        "keyAccentLanguage": "cabecera_de_uracillo"
      },
      {
        "code": 0,
        "type": "City",
        "enNameLanguage": "Boca de las Minas",
        "location": {
          "lat": 8.733333000000002,
          "lng": -80.14999999999999
        },
        "keyAccentLanguage": "boca_de_las_minas"
      },
      {
        "code": 0,
        "type": "City",
        "enNameLanguage": "Canaveral",
        "location": {
          "lat": 8.521417999999999,
          "lng": -80.426903
        },
        "keyAccentLanguage": "canaveral"
      },
      {
        "code": 0,
        "type": "City",
        "enNameLanguage": "Chiguiri Abajo",
        "location": {
          "lat": 8.698753,
          "lng": -80.240295
        },
        "keyAccentLanguage": "chiguiri_abajo"
      },
      {
        "code": 0,
        "type": "City",
        "enNameLanguage": "Capellania",
        "location": {
          "lat": 8.3048218,
          "lng": -80.55695659999999
        },
        "keyAccentLanguage": "capellania"
      },
      {
        "code": 0,
        "type": "City",
        "enNameLanguage": "Bijagual",
        "location": {
          "lat": 8.378007,
          "lng": -80.259636
        },
        "keyAccentLanguage": "bijagual"
      },
      {
        "code": 0,
        "type": "City",
        "enNameLanguage": "Las Huacas Del Quije",
        "location": {
          "lat": 8.4690529,
          "lng": -80.7505417
        },
        "keyAccentLanguage": "las_huacas_del_quije"
      },
      {
        "code": 0,
        "type": "City",
        "enNameLanguage": "Algarrobal",
        "location": {
          "lat": 8.400144899999999,
          "lng": -80.42152460000001
        },
        "keyAccentLanguage": "algarrobal"
      },
      {
        "code": 0,
        "type": "City",
        "enNameLanguage": "Cascajal",
        "location": {
          "lat": 8.716667,
          "lng": -80.46666700000002
        },
        "keyAccentLanguage": "cascajal"
      },
      {
        "code": 0,
        "type": "City",
        "enNameLanguage": "Santa Clara",
        "location": {
          "lat": 8.382824,
          "lng": -80.11039699999999
        },
        "keyAccentLanguage": "santa_clara"
      },
      {
        "code": 0,
        "type": "City",
        "enNameLanguage": "Rio Grande",
        "location": {
          "lat": 8.444581,
          "lng": -80.4660256
        },
        "keyAccentLanguage": "rio_grande"
      },
      {
        "code": 0,
        "type": "City",
        "enNameLanguage": "Caimital",
        "location": {
          "lat": 8.583333,
          "lng": -80.36666699999999
        },
        "keyAccentLanguage": "caimital"
      },
      {
        "code": 0,
        "type": "City",
        "enNameLanguage": "Sagreja",
        "location": {
          "lat": 8.663013,
          "lng": -80.29534079999999
        },
        "keyAccentLanguage": "sagreja"
      },
      {
        "code": 0,
        "type": "City",
        "enNameLanguage": "Boca de Cutevilla",
        "location": {
          "lat": 8.833333,
          "lng": -80.483333
        },
        "keyAccentLanguage": "boca_de_cutevilla"
      },
      {
        "code": 0,
        "type": "City",
        "enNameLanguage": "Buen Retiro",
        "location": {
          "lat": 8.4307496,
          "lng": -80.2349196
        },
        "keyAccentLanguage": "buen_retiro"
      },
      {
        "code": 0,
        "type": "City",
        "enNameLanguage": "Alto de Riecito",
        "location": {
          "lat": 8.6266068,
          "lng": -80.365865
        },
        "keyAccentLanguage": "alto_de_riecito"
      },
      {
        "code": 0,
        "type": "City",
        "enNameLanguage": "Boca de San Miguel",
        "location": {
          "lat": 8.400144899999999,
          "lng": -80.42152460000001
        },
        "keyAccentLanguage": "boca_de_san_miguel"
      },
      {
        "code": 0,
        "type": "City",
        "enNameLanguage": "Barrigon",
        "location": {
          "lat": 8.5597535,
          "lng": -80.32064609999999
        },
        "keyAccentLanguage": "barrigon"
      },
      {
        "code": 0,
        "type": "City",
        "enNameLanguage": "Coclecito",
        "location": {
          "lat": 8.7378854,
          "lng": -80.4725867
        },
        "keyAccentLanguage": "coclecito"
      },
      {
        "code": 0,
        "type": "City",
        "enNameLanguage": "Alto de la Estancia",
        "location": {
          "lat": 8.597431199999999,
          "lng": -80.1791368
        },
        "keyAccentLanguage": "alto_de_la_estancia"
      },
      {
        "code": 0,
        "type": "City",
        "enNameLanguage": "Bermeja",
        "location": {
          "lat": 8.539894,
          "lng": -80.49065399999999
        },
        "keyAccentLanguage": "bermeja"
      },
      {
        "code": 0,
        "type": "City",
        "enNameLanguage": "Altos de San Miguel",
        "location": {
          "lat": 8.753878799999999,
          "lng": -80.31098159999999
        },
        "keyAccentLanguage": "altos_de_san_miguel"
      },
      {
        "code": 0,
        "type": "City",
        "enNameLanguage": "Piedras Gordas",
        "location": {
          "lat": 8.630265999999999,
          "lng": -80.518608
        },
        "keyAccentLanguage": "piedras_gordas"
      },
      {
        "code": 0,
        "type": "City",
        "enNameLanguage": "El Cope",
        "location": {
          "lat": 8.438604999999999,
          "lng": -80.67920699999999
        },
        "keyAccentLanguage": "el_cope"
      },
      {
        "code": 0,
        "type": "City",
        "enNameLanguage": "La Pintada",
        "location": {
          "lat": 8.5933178,
          "lng": -80.4465594
        },
        "keyAccentLanguage": "la_pintada"
      },
      {
        "code": 0,
        "type": "City",
        "enNameLanguage": "Boquillas",
        "location": {
          "lat": 8.565626,
          "lng": -80.478844
        },
        "keyAccentLanguage": "boquillas"
      },
      {
        "code": 0,
        "type": "City",
        "enNameLanguage": "Boca de Vaquilla",
        "location": {
          "lat": 8.6266068,
          "lng": -80.365865
        },
        "keyAccentLanguage": "boca_de_vaquilla"
      },
      {
        "code": 0,
        "type": "City",
        "enNameLanguage": "Tranquilla",
        "location": {
          "lat": 8.492151,
          "lng": -80.22952289999999
        },
        "keyAccentLanguage": "tranquilla"
      },
      {
        "code": 0,
        "type": "City",
        "enNameLanguage": "Caballero",
        "location": {
          "lat": 8.545549,
          "lng": -80.19650999999999
        },
        "keyAccentLanguage": "caballero"
      },
      {
        "code": 0,
        "type": "City",
        "enNameLanguage": "Cerro Colorado",
        "location": {
          "lat": 8.5741099,
          "lng": -80.231689
        },
        "keyAccentLanguage": "cerro_colorado"
      },
      {
        "code": 0,
        "type": "City",
        "enNameLanguage": "Boca de los Rios",
        "location": {
          "lat": 8.5727128,
          "lng": -80.5558432
        },
        "keyAccentLanguage": "boca_de_los_rios"
      },
      {
        "code": 0,
        "type": "City",
        "enNameLanguage": "Cerro Calabazo",
        "location": {
          "lat": 8.566666699999999,
          "lng": -80.33333329999999
        },
        "keyAccentLanguage": "cerro_calabazo"
      },
      {
        "code": 0,
        "type": "City",
        "enNameLanguage": "Ana Maria",
        "location": {
          "lat": 8.400144899999999,
          "lng": -80.42152460000001
        },
        "keyAccentLanguage": "ana_maria"
      },
      {
        "code": 0,
        "type": "City",
        "enNameLanguage": "Caimito",
        "location": {
          "lat": 8.62332,
          "lng": -80.24034100000002
        },
        "keyAccentLanguage": "caimito"
      }
    ],
    "enNameLanguage": "Coclé",
    "keyAccentLanguage": "coclé"
  },
  {
    "code": 0,
    "type": "State",
    "location": {
      "lat": 9.359302,
      "lng": -79.89986080000001
    },
    "districtList": [
      {
        "code": 0,
        "type": "City",
        "enNameLanguage": "Achiote",
        "location": {
          "lat": 15.567,
          "lng": -86.183
        },
        "keyAccentLanguage": "achiote"
      },
      {
        "code": 0,
        "type": "City",
        "enNameLanguage": "Buena Vista",
        "location": {
          "lat": 15.617,
          "lng": -85.033
        },
        "keyAccentLanguage": "buena_vista"
      },
      {
        "code": 0,
        "type": "City",
        "enNameLanguage": "El Congo",
        "location": {
          "lat": 9.359302,
          "lng": -79.89986080000001
        },
        "keyAccentLanguage": "el_congo"
      },
      {
        "code": 0,
        "type": "City",
        "enNameLanguage": "Bejucal",
        "location": {
          "lat": 22.9290295,
          "lng": -82.3912892
        },
        "keyAccentLanguage": "bejucal"
      },
      {
        "code": 0,
        "type": "City",
        "enNameLanguage": "Boca de Mosquera",
        "location": {
          "lat": 4.7092566,
          "lng": -74.22622989999999
        },
        "keyAccentLanguage": "boca_de_mosquera"
      },
      {
        "code": 0,
        "type": "City",
        "enNameLanguage": "Boqueron",
        "location": {
          "lat": 9.356297,
          "lng": -79.564087
        },
        "keyAccentLanguage": "boqueron"
      },
      {
        "code": 0,
        "type": "City",
        "enNameLanguage": "Canazas",
        "location": {
          "lat": 8.3102946,
          "lng": -81.2188355
        },
        "keyAccentLanguage": "canazas"
      },
      {
        "code": 0,
        "type": "City",
        "enNameLanguage": "Agua Clara",
        "location": {
          "lat": 9.183333,
          "lng": -79.68333299999999
        },
        "keyAccentLanguage": "agua_clara"
      },
      {
        "code": 0,
        "type": "City",
        "enNameLanguage": "Berolizar",
        "location": {
          "lat": 9.049999999999999,
          "lng": -80.316667
        },
        "keyAccentLanguage": "berolizar"
      },
      {
        "code": 0,
        "type": "City",
        "enNameLanguage": "Bahia Las Minas",
        "location": {
          "lat": 9.381867999999999,
          "lng": -79.83162
        },
        "keyAccentLanguage": "bahia_las_minas"
      },
      {
        "code": 0,
        "type": "City",
        "enNameLanguage": "Cacique",
        "location": {
          "lat": 9.6129506,
          "lng": -79.615819
        },
        "keyAccentLanguage": "cacique"
      },
      {
        "code": 0,
        "type": "City",
        "enNameLanguage": "Buenaventura",
        "location": {
          "lat": 9.5327647,
          "lng": -79.66424409999999
        },
        "keyAccentLanguage": "buenaventura"
      },
      {
        "code": 0,
        "type": "City",
        "enNameLanguage": "Brisas del Mar",
        "location": {
          "lat": 15.873732,
          "lng": -85.76023769999999
        },
        "keyAccentLanguage": "brisas_del_mar"
      },
      {
        "code": 0,
        "type": "City",
        "enNameLanguage": "Boca del Rio Indio",
        "location": {
          "lat": 9.1851989,
          "lng": -80.0534923
        },
        "keyAccentLanguage": "boca_del_rio_indio"
      },
      {
        "code": 0,
        "type": "City",
        "enNameLanguage": "Boca de la Encantada",
        "location": {
          "lat": 8.883333,
          "lng": -80.35000000000001
        },
        "keyAccentLanguage": "boca_de_la_encantada"
      },
      {
        "code": 0,
        "type": "City",
        "enNameLanguage": "Boca de la Quebrada",
        "location": {
          "lat": -30.15059789999999,
          "lng": -68.621079
        },
        "keyAccentLanguage": "boca_de_la_quebrada"
      },
      {
        "code": 0,
        "type": "City",
        "enNameLanguage": "Campana",
        "location": {
          "lat": -34.1704087,
          "lng": -58.9564011
        },
        "keyAccentLanguage": "campana"
      },
      {
        "code": 0,
        "type": "City",
        "enNameLanguage": "Boca de Gatuncillo",
        "location": {
          "lat": 9.244633,
          "lng": -79.646278
        },
        "keyAccentLanguage": "boca_de_gatuncillo"
      },
      {
        "code": 0,
        "type": "City",
        "enNameLanguage": "Aguas Claras",
        "location": {
          "lat": 9.183333,
          "lng": -79.68333299999999
        },
        "keyAccentLanguage": "aguas_claras"
      },
      {
        "code": 0,
        "type": "City",
        "enNameLanguage": "Brazos Heights",
        "location": {
          "lat": 9.359302,
          "lng": -79.89986080000001
        },
        "keyAccentLanguage": "brazos_heights"
      },
      {
        "code": 0,
        "type": "City",
        "enNameLanguage": "El Astillero",
        "location": {
          "lat": 43.3983734,
          "lng": -3.822281
        },
        "keyAccentLanguage": "el_astillero"
      },
      {
        "code": 0,
        "type": "City",
        "enNameLanguage": "Cangandi",
        "location": {
          "lat": 9.466667,
          "lng": -79.11666699999999
        },
        "keyAccentLanguage": "cangandi"
      },
      {
        "code": 0,
        "type": "City",
        "enNameLanguage": "Demostenes Arosemena",
        "location": {
          "lat": 9.3575945,
          "lng": -79.9023079
        },
        "keyAccentLanguage": "demostenes_arosemena"
      },
      {
        "code": 0,
        "type": "City",
        "enNameLanguage": "Cartagenita",
        "location": {
          "lat": 4.79001,
          "lng": -74.3351265
        },
        "keyAccentLanguage": "cartagenita"
      },
      {
        "code": 0,
        "type": "City",
        "enNameLanguage": "Palenque",
        "location": {
          "lat": 9.573105499999999,
          "lng": -79.36626749999999
        },
        "keyAccentLanguage": "palenque"
      },
      {
        "code": 0,
        "type": "City",
        "enNameLanguage": "Cocle del Norte",
        "location": {
          "lat": 9.0746342,
          "lng": -80.5702314
        },
        "keyAccentLanguage": "cocle_del_norte"
      },
      {
        "code": 0,
        "type": "City",
        "enNameLanguage": "Coco Solo",
        "location": {
          "lat": 9.368985,
          "lng": -79.879913
        },
        "keyAccentLanguage": "coco_solo"
      },
      {
        "code": 0,
        "type": "City",
        "enNameLanguage": "Canazas Arriba",
        "location": {
          "lat": 8.117500800000002,
          "lng": -80.8941263
        },
        "keyAccentLanguage": "canazas_arriba"
      },
      {
        "code": 0,
        "type": "City",
        "enNameLanguage": "Boqueron Abajo",
        "location": {
          "lat": 9.360833,
          "lng": -79.56444400000001
        },
        "keyAccentLanguage": "boqueron_abajo"
      },
      {
        "code": 0,
        "type": "City",
        "enNameLanguage": "Cardenillo",
        "location": {
          "lat": 9.15,
          "lng": -80.11666699999999
        },
        "keyAccentLanguage": "cardenillo"
      },
      {
        "code": 0,
        "type": "City",
        "enNameLanguage": "Dos Hermanas",
        "location": {
          "lat": 37.2864406,
          "lng": -5.9240958
        },
        "keyAccentLanguage": "dos_hermanas"
      },
      {
        "code": 0,
        "type": "City",
        "enNameLanguage": "Campana de Piedra",
        "location": {
          "lat": 9.359302,
          "lng": -79.89986080000001
        },
        "keyAccentLanguage": "campana_de_piedra"
      },
      {
        "code": 0,
        "type": "City",
        "enNameLanguage": "Cativa",
        "location": {
          "lat": 9.362287199999999,
          "lng": -79.8324755
        },
        "keyAccentLanguage": "cativa"
      },
      {
        "code": 0,
        "type": "City",
        "enNameLanguage": "Puerto Pilon",
        "location": {
          "lat": 9.3595051,
          "lng": -79.79292749999999
        },
        "keyAccentLanguage": "puerto_pilon"
      },
      {
        "code": 0,
        "type": "City",
        "enNameLanguage": "Almirante",
        "location": {
          "lat": 10.3865943,
          "lng": -75.496004
        },
        "keyAccentLanguage": "almirante"
      },
      {
        "code": 0,
        "type": "City",
        "enNameLanguage": "Palmas Bellas",
        "location": {
          "lat": 9.2284759,
          "lng": -80.0856189
        },
        "keyAccentLanguage": "palmas_bellas"
      },
      {
        "code": 0,
        "type": "City",
        "enNameLanguage": "Cuango",
        "location": {
          "lat": 9.559887999999999,
          "lng": -79.30937999999999
        },
        "keyAccentLanguage": "cuango"
      },
      {
        "code": 0,
        "type": "City",
        "enNameLanguage": "Nombre de Dios",
        "location": {
          "lat": 9.5777102,
          "lng": -79.47179469999999
        },
        "keyAccentLanguage": "nombre_de_dios"
      },
      {
        "code": 0,
        "type": "City",
        "enNameLanguage": "Santa Isabel",
        "location": {
          "lat": 9.535121,
          "lng": -79.18300599999999
        },
        "keyAccentLanguage": "santa_isabel"
      },
      {
        "code": 0,
        "type": "City",
        "enNameLanguage": "Cano Claro",
        "location": {
          "lat": -32.2195918,
          "lng": -58.14789030000001
        },
        "keyAccentLanguage": "cano_claro"
      },
      {
        "code": 0,
        "type": "City",
        "enNameLanguage": "Cano Sucio",
        "location": {
          "lat": 8.933333,
          "lng": -80.3
        },
        "keyAccentLanguage": "cano_sucio"
      },
      {
        "code": 0,
        "type": "City",
        "enNameLanguage": "Miramar",
        "location": {
          "lat": 9.570744999999999,
          "lng": -79.339409
        },
        "keyAccentLanguage": "miramar"
      },
      {
        "code": 0,
        "type": "City",
        "enNameLanguage": "Cano Victoria",
        "location": {
          "lat": 23.7369164,
          "lng": -99.14111539999999
        },
        "keyAccentLanguage": "cano_victoria"
      },
      {
        "code": 0,
        "type": "City",
        "enNameLanguage": "Cocuye Arriba",
        "location": {
          "lat": 9.551549999999999,
          "lng": -79.126194
        },
        "keyAccentLanguage": "cocuye_arriba"
      },
      {
        "code": 0,
        "type": "City",
        "enNameLanguage": "Ciri Grande",
        "location": {
          "lat": 8.871285,
          "lng": -80.053276
        },
        "keyAccentLanguage": "ciri_grande"
      },
      {
        "code": 0,
        "type": "City",
        "enNameLanguage": "Boca de Toabre",
        "location": {
          "lat": 8.933333,
          "lng": -80.533333
        },
        "keyAccentLanguage": "boca_de_toabre"
      },
      {
        "code": 0,
        "type": "City",
        "enNameLanguage": "Gamboa",
        "location": {
          "lat": 9.1164638,
          "lng": -79.696513
        },
        "keyAccentLanguage": "gamboa"
      },
      {
        "code": 0,
        "type": "City",
        "enNameLanguage": "Sabanita",
        "location": {
          "lat": 9.3450522,
          "lng": -79.804459
        },
        "keyAccentLanguage": "sabanita"
      },
      {
        "code": 0,
        "type": "City",
        "enNameLanguage": "Cocuye Abajo",
        "location": {
          "lat": 9.551549999999999,
          "lng": -79.126194
        },
        "keyAccentLanguage": "cocuye_abajo"
      },
      {
        "code": 0,
        "type": "City",
        "enNameLanguage": "Colon",
        "location": {
          "lat": 20.7812807,
          "lng": -100.0509673
        },
        "keyAccentLanguage": "colon"
      },
      {
        "code": 0,
        "type": "City",
        "enNameLanguage": "Palmira",
        "location": {
          "lat": 9.545299,
          "lng": -79.21541599999999
        },
        "keyAccentLanguage": "palmira"
      },
      {
        "code": 0,
        "type": "City",
        "enNameLanguage": "Coca Cola",
        "location": {
          "lat": 9.3416006,
          "lng": -79.8045289
        },
        "keyAccentLanguage": "coca_cola"
      },
      {
        "code": 0,
        "type": "City",
        "enNameLanguage": "Ciricito Abajo",
        "location": {
          "lat": 9.02843,
          "lng": -80.08219199999999
        },
        "keyAccentLanguage": "ciricito_abajo"
      },
      {
        "code": 0,
        "type": "City",
        "enNameLanguage": "Cuipo",
        "location": {
          "lat": 9.078531,
          "lng": -80.051323
        },
        "keyAccentLanguage": "cuipo"
      },
      {
        "code": 0,
        "type": "City",
        "enNameLanguage": "Playa Chiquita",
        "location": {
          "lat": 9.5622779,
          "lng": -79.296562
        },
        "keyAccentLanguage": "playa_chiquita"
      },
      {
        "code": 0,
        "type": "City",
        "enNameLanguage": "Viento Frio",
        "location": {
          "lat": 9.5813027,
          "lng": -79.4099
        },
        "keyAccentLanguage": "viento_frio"
      },
      {
        "code": 0,
        "type": "City",
        "enNameLanguage": "Cano de Ciricito",
        "location": {
          "lat": 9.02843,
          "lng": -80.08219199999999
        },
        "keyAccentLanguage": "cano_de_ciricito"
      },
      {
        "code": 0,
        "type": "City",
        "enNameLanguage": "Cuatro Calles",
        "location": {
          "lat": 13.7077278,
          "lng": -89.3465799
        },
        "keyAccentLanguage": "cuatro_calles"
      },
      {
        "code": 0,
        "type": "City",
        "enNameLanguage": "Margarita",
        "location": {
          "lat": 9.3269688,
          "lng": -79.8898816
        },
        "keyAccentLanguage": "margarita"
      },
      {
        "code": 0,
        "type": "City",
        "enNameLanguage": "Portobelo",
        "location": {
          "lat": 9.5488889,
          "lng": -79.6530174
        },
        "keyAccentLanguage": "portobelo"
      },
      {
        "code": 0,
        "type": "City",
        "enNameLanguage": "Aguacate",
        "location": {
          "lat": 8.993,
          "lng": -80.215
        },
        "keyAccentLanguage": "aguacate"
      },
      {
        "code": 0,
        "type": "City",
        "enNameLanguage": "Arrieros",
        "location": {
          "lat": 9.15,
          "lng": -80
        },
        "keyAccentLanguage": "arrieros"
      },
      {
        "code": 0,
        "type": "City",
        "enNameLanguage": "Boca del Jobo",
        "location": {
          "lat": 9.05,
          "lng": -80.2
        },
        "keyAccentLanguage": "boca_del_jobo"
      },
      {
        "code": 0,
        "type": "City",
        "enNameLanguage": "Cano Quebrado Arriba",
        "location": {
          "lat": 9.083,
          "lng": -80.05
        },
        "keyAccentLanguage": "cano_quebrado_arriba"
      },
      {
        "code": 0,
        "type": "City",
        "enNameLanguage": "El Bateo",
        "location": {
          "lat": 8.99,
          "lng": -80.029
        },
        "keyAccentLanguage": "el_bateo"
      },
      {
        "code": 0,
        "type": "City",
        "enNameLanguage": "Barriada Juan Demostenes Arosemena",
        "location": {
          "lat": 9.233,
          "lng": -79.633
        },
        "keyAccentLanguage": "barriada_juan_demostenes_arosemena"
      },
      {
        "code": 0,
        "type": "City",
        "enNameLanguage": "Cano Quebrado",
        "location": {
          "lat": 9.189,
          "lng": -80.041
        },
        "keyAccentLanguage": "cano_quebrado"
      },
      {
        "code": 0,
        "type": "City",
        "enNameLanguage": "Cristobal",
        "location": {
          "lat": 9.352,
          "lng": -79.904
        },
        "keyAccentLanguage": "cristobal"
      },
      {
        "code": 0,
        "type": "City",
        "enNameLanguage": "Cabresto",
        "location": {
          "lat": 9.15,
          "lng": -80.233
        },
        "keyAccentLanguage": "cabresto"
      },
      {
        "code": 0,
        "type": "City",
        "enNameLanguage": "Castillito",
        "location": {
          "lat": 9.083,
          "lng": -80.2
        },
        "keyAccentLanguage": "castillito"
      },
      {
        "code": 0,
        "type": "City",
        "enNameLanguage": "Bracito",
        "location": {
          "lat": 9.133,
          "lng": -80.017
        },
        "keyAccentLanguage": "bracito"
      },
      {
        "code": 0,
        "type": "City",
        "enNameLanguage": "Aranagatal",
        "location": {
          "lat": 8.992,
          "lng": -80.071
        },
        "keyAccentLanguage": "aranagatal"
      },
      {
        "code": 0,
        "type": "City",
        "enNameLanguage": "Barbusal",
        "location": {
          "lat": 9.05,
          "lng": -80.017
        },
        "keyAccentLanguage": "barbusal"
      },
      {
        "code": 0,
        "type": "City",
        "enNameLanguage": "Cardenillo Arriba",
        "location": {
          "lat": 9.133,
          "lng": -80.083
        },
        "keyAccentLanguage": "cardenillo_arriba"
      },
      {
        "code": 0,
        "type": "City",
        "enNameLanguage": "Diamante",
        "location": {
          "lat": 9.37,
          "lng": -79.568
        },
        "keyAccentLanguage": "diamante"
      },
      {
        "code": 0,
        "type": "City",
        "enNameLanguage": "El Barnizal",
        "location": {
          "lat": 9.1,
          "lng": -80.133
        },
        "keyAccentLanguage": "el_barnizal"
      },
      {
        "code": 0,
        "type": "City",
        "enNameLanguage": "El Bendito",
        "location": {
          "lat": 9.189,
          "lng": -80.132
        },
        "keyAccentLanguage": "el_bendito"
      },
      {
        "code": 0,
        "type": "City",
        "enNameLanguage": "El Arbol",
        "location": {
          "lat": 9.083,
          "lng": -80.167
        },
        "keyAccentLanguage": "el_arbol"
      },
      {
        "code": 0,
        "type": "City",
        "enNameLanguage": "El Duende",
        "location": {
          "lat": 9.017,
          "lng": -80.117
        },
        "keyAccentLanguage": "el_duende"
      },
      {
        "code": 0,
        "type": "City",
        "enNameLanguage": "Campamento de la Mina de Cemento",
        "location": {
          "lat": 9.25,
          "lng": -79.65
        },
        "keyAccentLanguage": "campamento_de_la_mina_de_cemento"
      },
      {
        "code": 0,
        "type": "City",
        "enNameLanguage": "Congal",
        "location": {
          "lat": 9.083,
          "lng": -80.083
        },
        "keyAccentLanguage": "congal"
      },
      {
        "code": 0,
        "type": "City",
        "enNameLanguage": "Campeon",
        "location": {
          "lat": 9.33,
          "lng": -79.808
        },
        "keyAccentLanguage": "campeon"
      },
      {
        "code": 0,
        "type": "City",
        "enNameLanguage": "Can Can",
        "location": {
          "lat": 9.517,
          "lng": -79.683
        },
        "keyAccentLanguage": "can_can"
      },
      {
        "code": 0,
        "type": "City",
        "enNameLanguage": "Arrieral",
        "location": {
          "lat": 9.167,
          "lng": -80.2
        },
        "keyAccentLanguage": "arrieral"
      },
      {
        "code": 0,
        "type": "City",
        "enNameLanguage": "Agua Sucia",
        "location": {
          "lat": 9.267,
          "lng": -79.75
        },
        "keyAccentLanguage": "agua_sucia"
      },
      {
        "code": 0,
        "type": "City",
        "enNameLanguage": "El Charcon",
        "location": {
          "lat": 9.173,
          "lng": -80.194
        },
        "keyAccentLanguage": "el_charcon"
      },
      {
        "code": 0,
        "type": "City",
        "enNameLanguage": "Belen",
        "location": {
          "lat": 8.883,
          "lng": -80.867
        },
        "keyAccentLanguage": "belen"
      },
      {
        "code": 0,
        "type": "City",
        "enNameLanguage": "Casa Blanca",
        "location": {
          "lat": 9.567,
          "lng": -79.117
        },
        "keyAccentLanguage": "casa_blanca"
      },
      {
        "code": 0,
        "type": "City",
        "enNameLanguage": "Diego",
        "location": {
          "lat": 9.133,
          "lng": -80.417
        },
        "keyAccentLanguage": "diego"
      },
      {
        "code": 0,
        "type": "City",
        "enNameLanguage": "Cana Brava",
        "location": {
          "lat": 9.067,
          "lng": -80.067
        },
        "keyAccentLanguage": "cana_brava"
      },
      {
        "code": 0,
        "type": "City",
        "enNameLanguage": "El Congal",
        "location": {
          "lat": 9.017,
          "lng": -80.067
        },
        "keyAccentLanguage": "el_congal"
      },
      {
        "code": 0,
        "type": "City",
        "enNameLanguage": "Canigal",
        "location": {
          "lat": 9.467,
          "lng": -79.117
        },
        "keyAccentLanguage": "canigal"
      },
      {
        "code": 0,
        "type": "City",
        "enNameLanguage": "Los Uveros",
        "location": {
          "lat": 8.954,
          "lng": -80.135
        },
        "keyAccentLanguage": "los_uveros"
      },
      {
        "code": 0,
        "type": "City",
        "enNameLanguage": "El Coquillo",
        "location": {
          "lat": 9.15,
          "lng": -80.133
        },
        "keyAccentLanguage": "el_coquillo"
      },
      {
        "code": 0,
        "type": "City",
        "enNameLanguage": "Cuatro Callitas",
        "location": {
          "lat": 8.95,
          "lng": -80.55
        },
        "keyAccentLanguage": "cuatro_callitas"
      },
      {
        "code": 0,
        "type": "City",
        "enNameLanguage": "Alfajia",
        "location": {
          "lat": 9.25,
          "lng": -79.783
        },
        "keyAccentLanguage": "alfajia"
      },
      {
        "code": 0,
        "type": "City",
        "enNameLanguage": "Cano de la Humildad",
        "location": {
          "lat": 9.017,
          "lng": -80.017
        },
        "keyAccentLanguage": "cano_de_la_humildad"
      },
      {
        "code": 0,
        "type": "City",
        "enNameLanguage": "Cano Rey",
        "location": {
          "lat": 9.05,
          "lng": -80.567
        },
        "keyAccentLanguage": "cano_rey"
      },
      {
        "code": 0,
        "type": "City",
        "enNameLanguage": "Bella Vista",
        "location": {
          "lat": 9.167,
          "lng": -80.2
        },
        "keyAccentLanguage": "bella_vista"
      },
      {
        "code": 0,
        "type": "City",
        "enNameLanguage": "El Chilar",
        "location": {
          "lat": 9.15,
          "lng": -80.2
        },
        "keyAccentLanguage": "el_chilar"
      }
    ],
    "enNameLanguage": "Colón",
    "keyAccentLanguage": "colón"
  },
  {
    "code": 0,
    "type": "State",
    "location": {
      "lat": 7.868171299999999,
      "lng": -77.8367282
    },
    "districtList": [
      {
        "code": 0,
        "type": "City",
        "enNameLanguage": "Boca de Sabalo",
        "location": {
          "lat": 11.044924,
          "lng": -84.4737018
        },
        "keyAccentLanguage": "boca_de_sabalo"
      },
      {
        "code": 0,
        "type": "City",
        "enNameLanguage": "Aguadilla",
        "location": {
          "lat": 8.45,
          "lng": -78.11666699999999
        },
        "keyAccentLanguage": "aguadilla"
      },
      {
        "code": 0,
        "type": "City",
        "enNameLanguage": "Carrizal",
        "location": {
          "lat": 8.7,
          "lng": -78.15
        },
        "keyAccentLanguage": "carrizal"
      },
      {
        "code": 0,
        "type": "City",
        "enNameLanguage": "Bajo Grande",
        "location": {
          "lat": 8.380632,
          "lng": -78.15422099999999
        },
        "keyAccentLanguage": "bajo_grande"
      },
      {
        "code": 0,
        "type": "City",
        "enNameLanguage": "Bajo Chiquito",
        "location": {
          "lat": 8.4572655,
          "lng": -77.67887879999999
        },
        "keyAccentLanguage": "bajo_chiquito"
      },
      {
        "code": 0,
        "type": "City",
        "enNameLanguage": "La Paz",
        "location": {
          "lat": -16.494359,
          "lng": -68.1212091
        },
        "keyAccentLanguage": "la_paz"
      },
      {
        "code": 0,
        "type": "City",
        "enNameLanguage": "Bellavista",
        "location": {
          "lat": 8.65,
          "lng": -77.966667
        },
        "keyAccentLanguage": "bellavista"
      },
      {
        "code": 0,
        "type": "City",
        "enNameLanguage": "Chuculero",
        "location": {
          "lat": -1.3868278,
          "lng": -79.8828503
        },
        "keyAccentLanguage": "chuculero"
      },
      {
        "code": 0,
        "type": "City",
        "enNameLanguage": "Canablancal",
        "location": {
          "lat": 8.434818,
          "lng": -78.029793
        },
        "keyAccentLanguage": "canablancal"
      },
      {
        "code": 0,
        "type": "City",
        "enNameLanguage": "Casa Vieja",
        "location": {
          "lat": 7.9763906,
          "lng": -78.4172079
        },
        "keyAccentLanguage": "casa_vieja"
      },
      {
        "code": 0,
        "type": "City",
        "enNameLanguage": "El Tigre",
        "location": {
          "lat": 8.433333,
          "lng": -78.05
        },
        "keyAccentLanguage": "el_tigre"
      },
      {
        "code": 0,
        "type": "City",
        "enNameLanguage": "Buena Vista",
        "location": {
          "lat": 8.383333,
          "lng": -78.233333
        },
        "keyAccentLanguage": "buena_vista"
      },
      {
        "code": 0,
        "type": "City",
        "enNameLanguage": "El Pixvae",
        "location": {
          "lat": 8.516667,
          "lng": -78.2
        },
        "keyAccentLanguage": "el_pixvae"
      },
      {
        "code": 0,
        "type": "City",
        "enNameLanguage": "Arreti",
        "location": {
          "lat": 8.543944999999999,
          "lng": -78.07933
        },
        "keyAccentLanguage": "arreti"
      },
      {
        "code": 0,
        "type": "City",
        "enNameLanguage": "Camoganti",
        "location": {
          "lat": 8.133333,
          "lng": -77.8833329
        },
        "keyAccentLanguage": "camoganti"
      },
      {
        "code": 0,
        "type": "City",
        "enNameLanguage": "Escondido",
        "location": {
          "lat": 8.016667,
          "lng": -78.41666699999999
        },
        "keyAccentLanguage": "escondido"
      },
      {
        "code": 0,
        "type": "City",
        "enNameLanguage": "El Quintin",
        "location": {
          "lat": 8.541511999999999,
          "lng": -78.09442899999999
        },
        "keyAccentLanguage": "el_quintin"
      },