[
  {
    "code": 0,
    "type": "State",
    "location": {
      "lat": 37.568694,
      "lng": -84.2963223
    },
    "districtList": [
      {
        "code": 0,
        "type": "City",
        "enNameLanguage": "Moletsane",
        "location": {
          "lat": -29.164,
          "lng": 28.043
        },
        "keyAccentLanguage": "moletsane"
      },
      {
        "code": 0,
        "type": "City",
        "enNameLanguage": "Hobsons",
        "location": {
          "lat": -29.12073849999999,
          "lng": 27.9762173
        },
        "keyAccentLanguage": "hobsons"
      },
      {
        "code": 0,
        "type": "City",
        "enNameLanguage": "Berea Hills",
        "location": {
          "lat": -29.2640341,
          "lng": 27.6112116
        },
        "keyAccentLanguage": "berea_hills"
      },
      {
        "code": 0,
        "type": "City",
        "enNameLanguage": "Hangers Drift",
        "location": {
          "lat": -29.1978695,
          "lng": 27.5657269
        },
        "keyAccentLanguage": "hangers_drift"
      },
      {
        "code": 0,
        "type": "City",
        "enNameLanguage": "Senekane",
        "location": {
          "lat": -29.2538525,
          "lng": 27.7285406
        },
        "keyAccentLanguage": "senekane"
      },
      {
        "code": 0,
        "type": "City",
        "enNameLanguage": "Mapoteng",
        "location": {
          "lat": -29.12073849999999,
          "lng": 27.9762173
        },
        "keyAccentLanguage": "mapoteng"
      },
      {
        "code": 0,
        "type": "City",
        "enNameLanguage": "Koali",
        "location": {
          "lat": 37.568694,
          "lng": -84.2963223
        },
        "keyAccentLanguage": "koali"
      },
      {
        "code": 0,
        "type": "City",
        "enNameLanguage": "Koeneng",
        "location": {
          "lat": -29.07293019999999,
          "lng": 28.0098257
        },
        "keyAccentLanguage": "koeneng"
      },
      {
        "code": 0,
        "type": "City",
        "enNameLanguage": "Kueneng",
        "location": {
          "lat": -29.07293019999999,
          "lng": 28.0098257
        },
        "keyAccentLanguage": "kueneng"
      },
      {
        "code": 0,
        "type": "City",
        "enNameLanguage": "Teyateyaneng",
        "location": {
          "lat": -29.1481467,
          "lng": 27.748454
        },
        "keyAccentLanguage": "teyateyaneng"
      },
      {
        "code": 0,
        "type": "City",
        "enNameLanguage": "Mokonyane",
        "location": {
          "lat": -29.2880017,
          "lng": 27.8560518
        },
        "keyAccentLanguage": "mokonyane"
      },
      {
        "code": 0,
        "type": "City",
        "enNameLanguage": "Lekokoaneng",
        "location": {
          "lat": -29.1298469,
          "lng": 27.6728185
        },
        "keyAccentLanguage": "lekokoaneng"
      },
      {
        "code": 0,
        "type": "City",
        "enNameLanguage": "Phoofolo",
        "location": {
          "lat": -29.0613229,
          "lng": 27.8296775
        },
        "keyAccentLanguage": "phoofolo"
      },
      {
        "code": 0,
        "type": "City",
        "enNameLanguage": "Qalaheng",
        "location": {
          "lat": -29.2137741,
          "lng": 27.662552
        },
        "keyAccentLanguage": "qalaheng"
      },
      {
        "code": 0,
        "type": "City",
        "enNameLanguage": "Sefikeng",
        "location": {
          "lat": -29.27451409999999,
          "lng": 27.8091614
        },
        "keyAccentLanguage": "sefikeng"
      },
      {
        "code": 0,
        "type": "City",
        "enNameLanguage": "Khotsi",
        "location": {
          "lat": -29.0583688,
          "lng": 27.9380809
        },
        "keyAccentLanguage": "khotsi"
      },
      {
        "code": 0,
        "type": "City",
        "enNameLanguage": "Mahatlanes",
        "location": {
          "lat": -29.2074514,
          "lng": 27.8399346
        },
        "keyAccentLanguage": "mahatlanes"
      },
      {
        "code": 0,
        "type": "City",
        "enNameLanguage": "Corn Exchange",
        "location": {
          "lat": -28.9966243,
          "lng": 27.9688322
        },
        "keyAccentLanguage": "corn_exchange"
      },
      {
        "code": 0,
        "type": "City",
        "enNameLanguage": "Mateka",
        "location": {
          "lat": -29.2312908,
          "lng": 27.8824224
        },
        "keyAccentLanguage": "mateka"
      },
      {
        "code": 0,
        "type": "City",
        "enNameLanguage": "Cana",
        "location": {
          "lat": -29.1217545,
          "lng": 27.8494586
        },
        "keyAccentLanguage": "cana"
      },
      {
        "code": 0,
        "type": "City",
        "enNameLanguage": "Fako",
        "location": {
          "lat": -29.27451409999999,
          "lng": 27.8091614
        },
        "keyAccentLanguage": "fako"
      },
      {
        "code": 0,
        "type": "City",
        "enNameLanguage": "Moletsanes",
        "location": {
          "lat": -29.1581612,
          "lng": 28.0522732
        },
        "keyAccentLanguage": "moletsanes"
      },
      {
        "code": 0,
        "type": "City",
        "enNameLanguage": "Kokolia",
        "location": {
          "lat": -29.3241868,
          "lng": 27.9205064
        },
        "keyAccentLanguage": "kokolia"
      },
      {
        "code": 0,
        "type": "City",
        "enNameLanguage": "Seshophe",
        "location": {
          "lat": -29.0403821,
          "lng": 27.9585823
        },
        "keyAccentLanguage": "seshophe"
      },
      {
        "code": 0,
        "type": "City",
        "enNameLanguage": "Mamathes",
        "location": {
          "lat": -29.1366175,
          "lng": 27.8457956
        },
        "keyAccentLanguage": "mamathes"
      },
      {
        "code": 0,
        "type": "City",
        "enNameLanguage": "Mokhathis",
        "location": {
          "lat": -29.0994799,
          "lng": 27.9395454
        },
        "keyAccentLanguage": "mokhathis"
      },
      {
        "code": 0,
        "type": "City",
        "enNameLanguage": "Seutloali",
        "location": {
          "lat": -29.1695001,
          "lng": 27.9519929
        },
        "keyAccentLanguage": "seutloali"
      },
      {
        "code": 0,
        "type": "City",
        "enNameLanguage": "Foso",
        "location": {
          "lat": -29.2937602,
          "lng": 27.5378439
        },
        "keyAccentLanguage": "foso"
      },
      {
        "code": 0,
        "type": "City",
        "enNameLanguage": "Ntlamas",
        "location": {
          "lat": -29.1718002,
          "lng": 27.8736326
        },
        "keyAccentLanguage": "ntlamas"
      },
      {
        "code": 0,
        "type": "City",
        "enNameLanguage": "Litsilong",
        "location": {
          "lat": -29.2100738,
          "lng": 27.6940828
        },
        "keyAccentLanguage": "litsilong"
      },
      {
        "code": 0,
        "type": "City",
        "enNameLanguage": "Tsehlo",
        "location": {
          "lat": -29.3110085,
          "lng": 27.7805817
        },
        "keyAccentLanguage": "tsehlo"
      },
      {
        "code": 0,
        "type": "City",
        "enNameLanguage": "Morameng",
        "location": {
          "lat": -29.0869534,
          "lng": 27.7270744
        },
        "keyAccentLanguage": "morameng"
      },
      {
        "code": 0,
        "type": "City",
        "enNameLanguage": "Mantoetsi",
        "location": {
          "lat": -29.1491641,
          "lng": 27.9029301
        },
        "keyAccentLanguage": "mantoetsi"
      },
      {
        "code": 0,
        "type": "City",
        "enNameLanguage": "Mahlatsas Nek",
        "location": {
          "lat": -29.2132831,
          "lng": 27.9710285
        },
        "keyAccentLanguage": "mahlatsas_nek"
      },
      {
        "code": 0,
        "type": "City",
        "enNameLanguage": "George",
        "location": {
          "lat": -29.25,
          "lng": 27.95
        },
        "keyAccentLanguage": "george"
      },
      {
        "code": 0,
        "type": "City",
        "enNameLanguage": "Kepi",
        "location": {
          "lat": -29.167,
          "lng": 27.783
        },
        "keyAccentLanguage": "kepi"
      }
    ],
    "enNameLanguage": "Berea",
    "keyAccentLanguage": "berea"
  },
  {
    "code": 0,
    "type": "State",
    "location": {
      "lat": -28.7653754,
      "lng": 28.2468148
    },
    "districtList": [
      {
        "code": 0,
        "type": "City",
        "enNameLanguage": "Kala",
        "location": {
          "lat": -28.704719,
          "lng": 28.3374283
        },
        "keyAccentLanguage": "kala"
      },
      {
        "code": 0,
        "type": "City",
        "enNameLanguage": "Butha-Buthe",
        "location": {
          "lat": -28.7680029,
          "lng": 28.2504442
        },
        "keyAccentLanguage": "butha-buthe"
      },
      {
        "code": 0,
        "type": "City",
        "enNameLanguage": "Libono",
        "location": {
          "lat": -28.6197088,
          "lng": 28.5870929
        },
        "keyAccentLanguage": "libono"
      },
      {
        "code": 0,
        "type": "City",
        "enNameLanguage": "Mokomane",
        "location": {
          "lat": -28.9970172,
          "lng": 28.544049
        },
        "keyAccentLanguage": "mokomane"
      },
      {
        "code": 0,
        "type": "City",
        "enNameLanguage": "Serutle",
        "location": {
          "lat": -28.7653852,
          "lng": 28.246907
        },
        "keyAccentLanguage": "serutle"
      },
      {
        "code": 0,
        "type": "City",
        "enNameLanguage": "Tholo",
        "location": {
          "lat": -29.0480364,
          "lng": 28.5192389
        },
        "keyAccentLanguage": "tholo"
      },
      {
        "code": 0,
        "type": "City",
        "enNameLanguage": "Rakotoane",
        "location": {
          "lat": -29.0272185,
          "lng": 28.5531694
        },
        "keyAccentLanguage": "rakotoane"
      },
      {
        "code": 0,
        "type": "City",
        "enNameLanguage": "Khukuhune",
        "location": {
          "lat": -28.7191582,
          "lng": 28.4090079
        },
        "keyAccentLanguage": "khukuhune"
      },
      {
        "code": 0,
        "type": "City",
        "enNameLanguage": "Joels Drift",
        "location": {
          "lat": -28.7680029,
          "lng": 28.2504442
        },
        "keyAccentLanguage": "joels_drift"
      },
      {
        "code": 0,
        "type": "City",
        "enNameLanguage": "Tafu",
        "location": {
          "lat": -28.7680029,
          "lng": 28.2504442
        },
        "keyAccentLanguage": "tafu"
      },
      {
        "code": 0,
        "type": "City",
        "enNameLanguage": "Thakabannas",
        "location": {
          "lat": -28.6155073,
          "lng": 28.4623076
        },
        "keyAccentLanguage": "thakabannas"
      },
      {
        "code": 0,
        "type": "City",
        "enNameLanguage": "Hlakametsas",
        "location": {
          "lat": -28.7006427,
          "lng": 28.4345647
        },
        "keyAccentLanguage": "hlakametsas"
      },
      {
        "code": 0,
        "type": "City",
        "enNameLanguage": "Dinkung",
        "location": {
          "lat": -28.6165402,
          "lng": 28.5163198
        },
        "keyAccentLanguage": "dinkung"
      },
      {
        "code": 0,
        "type": "City",
        "enNameLanguage": "Mutlanyane",
        "location": {
          "lat": -28.8172917,
          "lng": 28.4586574
        },
        "keyAccentLanguage": "mutlanyane"
      },
      {
        "code": 0,
        "type": "City",
        "enNameLanguage": "Tsime",
        "location": {
          "lat": -28.7864297,
          "lng": 28.41558
        },
        "keyAccentLanguage": "tsime"
      },
      {
        "code": 0,
        "type": "City",
        "enNameLanguage": "Selomas",
        "location": {
          "lat": -28.7745343,
          "lng": 28.3418116
        },
        "keyAccentLanguage": "selomas"
      },
      {
        "code": 0,
        "type": "City",
        "enNameLanguage": "Rasekilas",
        "location": {
          "lat": -28.7489958,
          "lng": 28.3513084
        },
        "keyAccentLanguage": "rasekilas"
      },
      {
        "code": 0,
        "type": "City",
        "enNameLanguage": "Molefis",
        "location": {
          "lat": -28.7624428,
          "lng": 28.2892046
        },
        "keyAccentLanguage": "molefis"
      },
      {
        "code": 0,
        "type": "City",
        "enNameLanguage": "Thakabannas Cattle Post",
        "location": {
          "lat": -28.75,
          "lng": 28.65
        },
        "keyAccentLanguage": "thakabannas_cattle_post"
      },
      {
        "code": 0,
        "type": "City",
        "enNameLanguage": "Liphakoeng",
        "location": {
          "lat": -28.7261279,
          "lng": 28.3608046
        },
        "keyAccentLanguage": "liphakoeng"
      },
      {
        "code": 0,
        "type": "City",
        "enNameLanguage": "Laoti",
        "location": {
          "lat": -29.0337045,
          "lng": 28.5236174
        },
        "keyAccentLanguage": "laoti"
      }
    ],
    "enNameLanguage": "Butha-Buthe",
    "keyAccentLanguage": "butha-buthe"
  },
  {
    "code": 0,
    "type": "State",
    "location": {
      "lat": -28.95107729999999,
      "lng": 28.2526623
    },
    "districtList": [
      {
        "code": 0,
        "type": "City",
        "enNameLanguage": "Hlotse",
        "location": {
          "lat": -28.8638065,
          "lng": 28.0478826
        },
        "keyAccentLanguage": "hlotse"
      },
      {
        "code": 0,
        "type": "City",
        "enNameLanguage": "Eldoraigne",
        "location": {
          "lat": -28.8710369,
          "lng": 28.0434201
        },
        "keyAccentLanguage": "eldoraigne"
      },
      {
        "code": 0,
        "type": "City",
        "enNameLanguage": "Maputsoe",
        "location": {
          "lat": -28.8953831,
          "lng": 27.9073244
        },
        "keyAccentLanguage": "maputsoe"
      },
      {
        "code": 0,
        "type": "City",
        "enNameLanguage": "Lersuelas",
        "location": {
          "lat": -29.03519349999999,
          "lng": 28.0969053
        },
        "keyAccentLanguage": "lersuelas"
      },
      {
        "code": 0,
        "type": "City",
        "enNameLanguage": "Khabos",
        "location": {
          "lat": -28.8385076,
          "lng": 28.224885
        },
        "keyAccentLanguage": "khabos"
      },
      {
        "code": 0,
        "type": "City",
        "enNameLanguage": "Hlotse Camp",
        "location": {
          "lat": -28.8710369,
          "lng": 28.0434201
        },
        "keyAccentLanguage": "hlotse_camp"
      },
      {
        "code": 0,
        "type": "City",
        "enNameLanguage": "Mathokoane",
        "location": {
          "lat": -28.96977369999999,
          "lng": 28.046419
        },
        "keyAccentLanguage": "mathokoane"
      },
      {
        "code": 0,
        "type": "City",
        "enNameLanguage": "Lejone",
        "location": {
          "lat": -29.1048604,
          "lng": 28.5009938
        },
        "keyAccentLanguage": "lejone"
      },
      {
        "code": 0,
        "type": "City",
        "enNameLanguage": "Khabo",
        "location": {
          "lat": -28.8710369,
          "lng": 28.0434201
        },
        "keyAccentLanguage": "khabo"
      },
      {
        "code": 0,
        "type": "City",
        "enNameLanguage": "Makhoas",
        "location": {
          "lat": -28.9612741,
          "lng": 28.1312863
        },
        "keyAccentLanguage": "makhoas"
      },
      {
        "code": 0,
        "type": "City",
        "enNameLanguage": "Thokoa",
        "location": {
          "lat": -29.0222202,
          "lng": 27.7651908
        },
        "keyAccentLanguage": "thokoa"
      },
      {
        "code": 0,
        "type": "City",
        "enNameLanguage": "Ramapepe",
        "location": {
          "lat": -28.9893579,
          "lng": 28.1488399
        },
        "keyAccentLanguage": "ramapepe"
      },
      {
        "code": 0,
        "type": "City",
        "enNameLanguage": "Jonathans",
        "location": {
          "lat": -28.819137,
          "lng": 28.0917842
        },
        "keyAccentLanguage": "jonathans"
      },
      {
        "code": 0,
        "type": "City",
        "enNameLanguage": "Peka",
        "location": {
          "lat": -28.8538395,
          "lng": 28.2044146
        },
        "keyAccentLanguage": "peka"
      },
      {
        "code": 0,
        "type": "City",
        "enNameLanguage": "Tsikoane",
        "location": {
          "lat": -28.8950527,
          "lng": 27.9922582
        },
        "keyAccentLanguage": "tsikoane"
      },
      {
        "code": 0,
        "type": "City",
        "enNameLanguage": "Khetisas",
        "location": {
          "lat": -28.9062011,
          "lng": 28.1561533
        },
        "keyAccentLanguage": "khetisas"
      },
      {
        "code": 0,
        "type": "City",
        "enNameLanguage": "Tau",
        "location": {
          "lat": -29.0116038,
          "lng": 28.1832105
        },
        "keyAccentLanguage": "tau"
      },
      {
        "code": 0,
        "type": "City",
        "enNameLanguage": "Kolonyama",
        "location": {
          "lat": -29.06523839999999,
          "lng": 27.7344051
        },
        "keyAccentLanguage": "kolonyama"
      },
      {
        "code": 0,
        "type": "City",
        "enNameLanguage": "Tabola",
        "location": {
          "lat": -28.9816883,
          "lng": 27.8267467
        },
        "keyAccentLanguage": "tabola"
      },
      {
        "code": 0,
        "type": "City",
        "enNameLanguage": "Pitseng",
        "location": {
          "lat": -29.0068593,
          "lng": 28.2130537
        },
        "keyAccentLanguage": "pitseng"
      },
      {
        "code": 0,
        "type": "City",
        "enNameLanguage": "Makhaketsa",
        "location": {
          "lat": -29.0000849,
          "lng": 27.7563954
        },
        "keyAccentLanguage": "makhaketsa"
      },
      {
        "code": 0,
        "type": "City",
        "enNameLanguage": "Mohlafateng",
        "location": {
          "lat": -29.0253198,
          "lng": 27.8589821
        },
        "keyAccentLanguage": "mohlafateng"
      },
      {
        "code": 0,
        "type": "City",
        "enNameLanguage": "Moliboeas",
        "location": {
          "lat": -28.8927025,
          "lng": 28.0976369
        },
        "keyAccentLanguage": "moliboeas"
      },
      {
        "code": 0,
        "type": "City",
        "enNameLanguage": "Seetsas",
        "location": {
          "lat": -28.9020643,
          "lng": 28.1773607
        },
        "keyAccentLanguage": "seetsas"
      }
    ],
    "enNameLanguage": "Leribe",
    "keyAccentLanguage": "leribe"
  },
  {
    "code": 0,
    "type": "State",
    "location": {
      "lat": -29.8224312,
      "lng": 27.2388161
    },
    "districtList": [
      {
        "code": 0,
        "type": "City",
        "enNameLanguage": "Likhakeng",
        "location": {
          "lat": -29.8223118,
          "lng": 27.2386534
        },
        "keyAccentLanguage": "likhakeng"
      },
      {
        "code": 0,
        "type": "City",
        "enNameLanguage": "Richard",
        "location": {
          "lat": -29.8223118,
          "lng": 27.2386534
        },
        "keyAccentLanguage": "richard"
      },
      {
        "code": 0,
        "type": "City",
        "enNameLanguage": "Kolo",
        "location": {
          "lat": -29.8223118,
          "lng": 27.2386534
        },
        "keyAccentLanguage": "kolo"
      },
      {
        "code": 0,
        "type": "City",
        "enNameLanguage": "Mafeteng",
        "location": {
          "lat": -29.8223118,
          "lng": 27.2386534
        },
        "keyAccentLanguage": "mafeteng"
      },
      {
        "code": 0,
        "type": "City",
        "enNameLanguage": "Qamako",
        "location": {
          "lat": -29.7982223,
          "lng": 27.3888215
        },
        "keyAccentLanguage": "qamako"
      },
      {
        "code": 0,
        "type": "City",
        "enNameLanguage": "Qaba",
        "location": {
          "lat": -29.8223118,
          "lng": 27.2386534
        },
        "keyAccentLanguage": "qaba"
      },
      {
        "code": 0,
        "type": "City",
        "enNameLanguage": "Lekoatsa",
        "location": {
          "lat": -29.9099447,
          "lng": 27.4233344
        },
        "keyAccentLanguage": "lekoatsa"
      },
      {
        "code": 0,
        "type": "City",
        "enNameLanguage": "Motsekuoa",
        "location": {
          "lat": -29.6990757,
          "lng": 27.4350821
        },
        "keyAccentLanguage": "motsekuoa"
      },
      {
        "code": 0,
        "type": "City",
        "enNameLanguage": "Mpobong",
        "location": {
          "lat": -29.8223118,
          "lng": 27.2386534
        },
        "keyAccentLanguage": "mpobong"
      },
      {
        "code": 0,
        "type": "City",
        "enNameLanguage": "Malealea",
        "location": {
          "lat": -29.848582,
          "lng": 27.5598572
        },
        "keyAccentLanguage": "malealea"
      },
      {
        "code": 0,
        "type": "City",
        "enNameLanguage": "Berente",
        "location": {
          "lat": -29.8975141,
          "lng": 27.6530184
        },
        "keyAccentLanguage": "berente"
      },
      {
        "code": 0,
        "type": "City",
        "enNameLanguage": "Letsie",
        "location": {
          "lat": -29.8338131,
          "lng": 27.3161044
        },
        "keyAccentLanguage": "letsie"
      },
      {
        "code": 0,
        "type": "City",
        "enNameLanguage": "Phafoli",
        "location": {
          "lat": -29.7880776,
          "lng": 27.662552
        },
        "keyAccentLanguage": "phafoli"
      },
      {
        "code": 0,
        "type": "City",
        "enNameLanguage": "Chere",
        "location": {
          "lat": -29.8223118,
          "lng": 27.2386534
        },
        "keyAccentLanguage": "chere"
      },
      {
        "code": 0,
        "type": "City",
        "enNameLanguage": "Mabotse",
        "location": {
          "lat": -29.6430403,
          "lng": 27.0661687
        },
        "keyAccentLanguage": "mabotse"
      },
      {
        "code": 0,
        "type": "City",
        "enNameLanguage": "Helspoort",
        "location": {
          "lat": -29.8715084,
          "lng": 27.3983683
        },
        "keyAccentLanguage": "helspoort"
      },
      {
        "code": 0,
        "type": "City",
        "enNameLanguage": "Likhoele",
        "location": {
          "lat": -29.8160159,
          "lng": 27.2940637
        },
        "keyAccentLanguage": "likhoele"
      },
      {
        "code": 0,
        "type": "City",
        "enNameLanguage": "Ribaneng",
        "location": {
          "lat": -29.8223118,
          "lng": 27.2386534
        },
        "keyAccentLanguage": "ribaneng"
      },
      {
        "code": 0,
        "type": "City",
        "enNameLanguage": "Likupa",
        "location": {
          "lat": -29.7653025,
          "lng": 27.3058191
        },
        "keyAccentLanguage": "likupa"
      },
      {
        "code": 0,
        "type": "City",
        "enNameLanguage": "Tajane",
        "location": {
          "lat": -29.71527649999999,
          "lng": 27.4820657
        },
        "keyAccentLanguage": "tajane"
      },
      {
        "code": 0,
        "type": "City",
        "enNameLanguage": "Helehehle",
        "location": {
          "lat": -29.9819254,
          "lng": 27.4857358
        },
        "keyAccentLanguage": "helehehle"
      },
      {
        "code": 0,
        "type": "City",
        "enNameLanguage": "Rasebetsane",
        "location": {
          "lat": -29.8223118,
          "lng": 27.2386534
        },
        "keyAccentLanguage": "rasebetsane"
      },
      {
        "code": 0,
        "type": "City",
        "enNameLanguage": "Emmaus",
        "location": {
          "lat": -29.8223118,
          "lng": 27.2386534
        },
        "keyAccentLanguage": "emmaus"
      },
      {
        "code": 0,
        "type": "City",
        "enNameLanguage": "Ranko",
        "location": {
          "lat": -29.5651167,
          "lng": 27.2345416
        },
        "keyAccentLanguage": "ranko"
      },
      {
        "code": 0,
        "type": "City",
        "enNameLanguage": "Monaheng",
        "location": {
          "lat": -29.8685672,
          "lng": 27.7102128
        },
        "keyAccentLanguage": "monaheng"
      },
      {
        "code": 0,
        "type": "City",
        "enNameLanguage": "Molomos Hoek",
        "location": {
          "lat": -29.71527649999999,
          "lng": 27.4820657
        },
        "keyAccentLanguage": "molomos_hoek"
      },
      {
        "code": 0,
        "type": "City",
        "enNameLanguage": "Hermon",
        "location": {
          "lat": -29.7350553,
          "lng": 27.1209602
        },
        "keyAccentLanguage": "hermon"
      },
      {
        "code": 0,
        "type": "City",
        "enNameLanguage": "Morunyaneng",
        "location": {
          "lat": -29.8223118,
          "lng": 27.2386534
        },
        "keyAccentLanguage": "morunyaneng"
      },
      {
        "code": 0,
        "type": "City",
        "enNameLanguage": "Mankimane",
        "location": {
          "lat": -29.8466094,
          "lng": 27.3425501
        },
        "keyAccentLanguage": "mankimane"
      },
      {
        "code": 0,
        "type": "City",
        "enNameLanguage": "Mohlehli",
        "location": {
          "lat": -29.743409,
          "lng": 27.2117569
        },
        "keyAccentLanguage": "mohlehli"
      },
      {
        "code": 0,
        "type": "City",
        "enNameLanguage": "Thabaneng",
        "location": {
          "lat": -29.8114469,
          "lng": 27.5055532
        },
        "keyAccentLanguage": "thabaneng"
      },
      {
        "code": 0,
        "type": "City",
        "enNameLanguage": "Ramosoeu",
        "location": {
          "lat": -29.8940086,
          "lng": 27.5209654
        },
        "keyAccentLanguage": "ramosoeu"
      },
      {
        "code": 0,
        "type": "City",
        "enNameLanguage": "Sepechele",
        "location": {
          "lat": -29.7962657,
          "lng": 27.3587096
        },
        "keyAccentLanguage": "sepechele"
      },
      {
        "code": 0,
        "type": "City",
        "enNameLanguage": "Makojang",
        "location": {
          "lat": -29.933333,
          "lng": 27.733333
        },
        "keyAccentLanguage": "makojang"
      },
      {
        "code": 0,
        "type": "City",
        "enNameLanguage": "Thulo",
        "location": {
          "lat": -29.5791246,
          "lng": 27.2529145
        },
        "keyAccentLanguage": "thulo"
      },
      {
        "code": 0,
        "type": "City",
        "enNameLanguage": "Kena",
        "location": {
          "lat": -29.7700587,
          "lng": 27.6478848
        },
        "keyAccentLanguage": "kena"
      },
      {
        "code": 0,
        "type": "City",
        "enNameLanguage": "Baroaneng",
        "location": {
          "lat": -29.7148995,
          "lng": 27.349161
        },
        "keyAccentLanguage": "baroaneng"
      },
      {
        "code": 0,
        "type": "City",
        "enNameLanguage": "Reisi",
        "location": {
          "lat": -29.6316898,
          "lng": 27.416726
        },
        "keyAccentLanguage": "reisi"
      },
      {
        "code": 0,
        "type": "City",
        "enNameLanguage": "Mosala",
        "location": {
          "lat": -29.7285265,
          "lng": 27.5598572
        },
        "keyAccentLanguage": "mosala"
      },
      {
        "code": 0,
        "type": "City",
        "enNameLanguage": "Ramahleas",
        "location": {
          "lat": -29.740006,
          "lng": 27.1485343
        },
        "keyAccentLanguage": "ramahleas"
      },
      {
        "code": 0,
        "type": "City",
        "enNameLanguage": "Mapotu",
        "location": {
          "lat": -29.6408134,
          "lng": 27.2220471
        },
        "keyAccentLanguage": "mapotu"
      },
      {
        "code": 0,
        "type": "City",
        "enNameLanguage": "Malaleng",
        "location": {
          "lat": -29.6535039,
          "lng": 27.3337353
        },
        "keyAccentLanguage": "malaleng"
      },
      {
        "code": 0,
        "type": "City",
        "enNameLanguage": "Tsa Kholo",
        "location": {
          "lat": -29.6407012,
          "lng": 27.1558867
        },
        "keyAccentLanguage": "tsa_kholo"
      },
      {
        "code": 0,
        "type": "City",
        "enNameLanguage": "Van Rooyens Gate",
        "location": {
          "lat": -29.75481049999999,
          "lng": 27.111768
        },
        "keyAccentLanguage": "van_rooyens_gate"
      }
    ],
    "enNameLanguage": "Mafeteng",
    "keyAccentLanguage": "mafeteng"
  },
  {
    "code": 0,
    "type": "State",
    "location": {
      "lat": -29.3150767,
      "lng": 27.4869229
    },
    "districtList": [
      {
        "code": 0,
        "type": "City",
        "enNameLanguage": "Mazenod",
        "location": {
          "lat": -29.4390507,
          "lng": 27.5701292
        },
        "keyAccentLanguage": "mazenod"
      },
      {
        "code": 0,
        "type": "City",
        "enNameLanguage": "Roma",
        "location": {
          "lat": -29.4476039,
          "lng": 27.7226759
        },
        "keyAccentLanguage": "roma"
      },
      {
        "code": 0,
        "type": "City",
        "enNameLanguage": "Morija",
        "location": {
          "lat": -29.6243069,
          "lng": 27.5092
        },
        "keyAccentLanguage": "morija"
      },
      {
        "code": 0,
        "type": "City",
        "enNameLanguage": "Maseru",
        "location": {
          "lat": -29.3150767,
          "lng": 27.4869229
        },
        "keyAccentLanguage": "maseru"
      },
      {
        "code": 0,
        "type": "City",
        "enNameLanguage": "Leutsoa",
        "location": {
          "lat": -29.5470969,
          "lng": 27.5172959
        },
        "keyAccentLanguage": "leutsoa"
      },
      {
        "code": 0,
        "type": "City",
        "enNameLanguage": "Motloang",
        "location": {
          "lat": -29.3441887,
          "lng": 27.6654854
        },
        "keyAccentLanguage": "motloang"
      },
      {
        "code": 0,
        "type": "City",
        "enNameLanguage": "Fosi",
        "location": {
          "lat": -29.4262503,
          "lng": 27.8941414
        },
        "keyAccentLanguage": "fosi"
      },
      {
        "code": 0,
        "type": "City",
        "enNameLanguage": "Jaele",
        "location": {
          "lat": -29.4494132,
          "lng": 27.8772951
        },
        "keyAccentLanguage": "jaele"
      },
      {
        "code": 0,
        "type": "City",
        "enNameLanguage": "Khamolane",
        "location": {
          "lat": -29.339755,
          "lng": 27.732939
        },
        "keyAccentLanguage": "khamolane"
      },
      {
        "code": 0,
        "type": "City",
        "enNameLanguage": "Mantsebo",
        "location": {
          "lat": -29.4864154,
          "lng": 27.5248201
        },
        "keyAccentLanguage": "mantsebo"
      },
      {
        "code": 0,
        "type": "City",
        "enNameLanguage": "Patrick",
        "location": {
          "lat": -29.3150767,
          "lng": 27.4869229
        },
        "keyAccentLanguage": "patrick"
      },
      {
        "code": 0,
        "type": "City",
        "enNameLanguage": "Boqate",
        "location": {
          "lat": -29.3395779,
          "lng": 27.4431449
        },
        "keyAccentLanguage": "boqate"
      },
      {
        "code": 0,
        "type": "City",
        "enNameLanguage": "Upper Qeme",
        "location": {
          "lat": -29.4864154,
          "lng": 27.5248201
        },
        "keyAccentLanguage": "upper_qeme"
      },
      {
        "code": 0,
        "type": "City",
        "enNameLanguage": "Mahloenyeng",
        "location": {
          "lat": -29.5676053,
          "lng": 27.5510522
        },
        "keyAccentLanguage": "mahloenyeng"
      },
      {
        "code": 0,
        "type": "City",
        "enNameLanguage": "Ramabanta",
        "location": {
          "lat": -29.1277925,
          "lng": 28.0013362
        },
        "keyAccentLanguage": "ramabanta"
      },
      {
        "code": 0,
        "type": "City",
        "enNameLanguage": "Nyakosoba",
        "location": {
          "lat": -29.5211503,
          "lng": 27.7754515
        },
        "keyAccentLanguage": "nyakosoba"
      },
      {
        "code": 0,
        "type": "City",
        "enNameLanguage": "Mojela",
        "location": {
          "lat": -29.5317882,
          "lng": 27.8846197
        },
        "keyAccentLanguage": "mojela"
      },
      {
        "code": 0,
        "type": "City",
        "enNameLanguage": "Mofokas",
        "location": {
          "lat": -29.5073264,
          "lng": 27.5994746
        },
        "keyAccentLanguage": "mofokas"
      },
      {
        "code": 0,
        "type": "City",
        "enNameLanguage": "Tikoe",
        "location": {
          "lat": -29.3150767,
          "lng": 27.4869229
        },
        "keyAccentLanguage": "tikoe"
      },
      {
        "code": 0,
        "type": "City",
        "enNameLanguage": "Abele",
        "location": {
          "lat": -29.6367122,
          "lng": 27.6713519
        },
        "keyAccentLanguage": "abele"
      },
      {
        "code": 0,
        "type": "City",
        "enNameLanguage": "Koro-Koro",
        "location": {
          "lat": -29.5017928,
          "lng": 27.6420175
        },
        "keyAccentLanguage": "koro-koro"
      },
      {
        "code": 0,
        "type": "City",
        "enNameLanguage": "Ntsane",
        "location": {
          "lat": -29.3096424,
          "lng": 27.4960785
        },
        "keyAccentLanguage": "ntsane"
      },
      {
        "code": 0,
        "type": "City",
        "enNameLanguage": "Mphoto",
        "location": {
          "lat": -29.4585178,
          "lng": 27.5906715
        },
        "keyAccentLanguage": "mphoto"
      },
      {
        "code": 0,
        "type": "City",
        "enNameLanguage": "Mantsa",
        "location": {
          "lat": -29.6554178,
          "lng": 27.839202
        },
        "keyAccentLanguage": "mantsa"
      },
      {
        "code": 0,
        "type": "City",
        "enNameLanguage": "Makhoathi",
        "location": {
          "lat": -29.3506012,
          "lng": 27.6009418
        },
        "keyAccentLanguage": "makhoathi"
      },
      {
        "code": 0,
        "type": "City",
        "enNameLanguage": "Matela",
        "location": {
          "lat": -29.3150767,
          "lng": 27.4869229
        },
        "keyAccentLanguage": "matela"
      },
      {
        "code": 0,
        "type": "City",
        "enNameLanguage": "Matsieng",
        "location": {
          "lat": -29.6150729,
          "lng": 27.5657269
        },
        "keyAccentLanguage": "matsieng"
      },
      {
        "code": 0,
        "type": "City",
        "enNameLanguage": "Qiloane",
        "location": {
          "lat": -29.3035297,
          "lng": 27.4716457
        },
        "keyAccentLanguage": "qiloane"
      },
      {
        "code": 0,
        "type": "City",
        "enNameLanguage": "Makhalanyane",
        "location": {
          "lat": -29.4071616,
          "lng": 27.6170798
        },
        "keyAccentLanguage": "makhalanyane"
      },
      {
        "code": 0,
        "type": "City",
        "enNameLanguage": "Mantsonyane",
        "location": {
          "lat": -29.5346252,
          "lng": 28.2662632
        },
        "keyAccentLanguage": "mantsonyane"
      },
      {
        "code": 0,
        "type": "City",
        "enNameLanguage": "Thaba Bosigo",
        "location": {
          "lat": -29.3515975,
          "lng": 27.6801513
        },
        "keyAccentLanguage": "thaba_bosigo"
      },
      {
        "code": 0,
        "type": "City",
        "enNameLanguage": "Toloane",
        "location": {
          "lat": -29.6441187,
          "lng": 27.471789
        },
        "keyAccentLanguage": "toloane"
      },
      {
        "code": 0,
        "type": "City",
        "enNameLanguage": "Metolong",
        "location": {
          "lat": -29.3409385,
          "lng": 27.7930401
        },
        "keyAccentLanguage": "metolong"
      },
      {
        "code": 0,
        "type": "City",
        "enNameLanguage": "Ratau",
        "location": {
          "lat": -29.3631493,
          "lng": 27.7358712
        },
        "keyAccentLanguage": "ratau"
      },
      {
        "code": 0,
        "type": "City",
        "enNameLanguage": "Massabiella",
        "location": {
          "lat": -29.5301297,
          "lng": 27.5781996
        },
        "keyAccentLanguage": "massabiella"
      },
      {
        "code": 0,
        "type": "City",
        "enNameLanguage": "Matsaba",
        "location": {
          "lat": -29.6568607,
          "lng": 27.7593273
        },
        "keyAccentLanguage": "matsaba"
      },
      {
        "code": 0,
        "type": "City",
        "enNameLanguage": "Ntsi",
        "location": {
          "lat": -29.4009687,
          "lng": 27.7637249
        },
        "keyAccentLanguage": "ntsi"
      },
      {
        "code": 0,
        "type": "City",
        "enNameLanguage": "Kelechane",
        "location": {
          "lat": -29.7256103,
          "lng": 27.7721535
        },
        "keyAccentLanguage": "kelechane"
      },
      {
        "code": 0,
        "type": "City",
        "enNameLanguage": "Moitsupelis",
        "location": {
          "lat": -29.5914978,
          "lng": 27.7534635
        },
        "keyAccentLanguage": "moitsupelis"
      },
      {
        "code": 0,
        "type": "City",
        "enNameLanguage": "Tsiame",
        "location": {
          "lat": -29.3917484,
          "lng": 27.4703209
        },
        "keyAccentLanguage": "tsiame"
      },
      {
        "code": 0,
        "type": "City",
        "enNameLanguage": "Sekoala",
        "location": {
          "lat": -29.4185082,
          "lng": 27.4703209
        },
        "keyAccentLanguage": "sekoala"
      },
      {
        "code": 0,
        "type": "City",
        "enNameLanguage": "Machekoaneng",
        "location": {
          "lat": -29.3150767,
          "lng": 27.4869229
        },
        "keyAccentLanguage": "machekoaneng"
      },
      {
        "code": 0,
        "type": "City",
        "enNameLanguage": "Masite Nek",
        "location": {
          "lat": -29.5910744,
          "lng": 27.4879378
        },
        "keyAccentLanguage": "masite_nek"
      },
      {
        "code": 0,
        "type": "City",
        "enNameLanguage": "Theko",
        "location": {
          "lat": -29.4153296,
          "lng": 27.7651908
        },
        "keyAccentLanguage": "theko"
      },
      {
        "code": 0,
        "type": "City",
        "enNameLanguage": "Tseka",
        "location": {
          "lat": -29.3150767,
          "lng": 27.4869229
        },
        "keyAccentLanguage": "tseka"
      },
      {
        "code": 0,
        "type": "City",
        "enNameLanguage": "Ramabitsa",
        "location": {
          "lat": -29.732321,
          "lng": 27.723409
        },
        "keyAccentLanguage": "ramabitsa"
      },
      {
        "code": 0,
        "type": "City",
        "enNameLanguage": "Theetsoa",
        "location": {
          "lat": -29.7127037,
          "lng": 27.8919441
        },
        "keyAccentLanguage": "theetsoa"
      },
      {
        "code": 0,
        "type": "City",
        "enNameLanguage": "Mokema",
        "location": {
          "lat": -29.4700799,
          "lng": 27.646418
        },
        "keyAccentLanguage": "mokema"
      },
      {
        "code": 0,
        "type": "City",
        "enNameLanguage": "Lower Qeme",
        "location": {
          "lat": -29.5319664,
          "lng": 27.4952778
        },
        "keyAccentLanguage": "lower_qeme"
      },
      {
        "code": 0,
        "type": "City",
        "enNameLanguage": "Setleketseng",
        "location": {
          "lat": -29.6648922,
          "lng": 27.7945057
        },
        "keyAccentLanguage": "setleketseng"
      },
      {
        "code": 0,
        "type": "City",
        "enNameLanguage": "Raleqheka",
        "location": {
          "lat": -29.6807889,
          "lng": 27.7006816
        },
        "keyAccentLanguage": "raleqheka"
      },
      {
        "code": 0,
        "type": "City",
        "enNameLanguage": "Lirahalibonoe",
        "location": {
          "lat": -29.45,
          "lng": 27.933333
        },
        "keyAccentLanguage": "lirahalibonoe"
      },
      {
        "code": 0,
        "type": "City",
        "enNameLanguage": "Thaba Putsoa",
        "location": {
          "lat": -29.5741841,
          "lng": 28.0756882
        },
        "keyAccentLanguage": "thaba_putsoa"
      },
      {
        "code": 0,
        "type": "City",
        "enNameLanguage": "Nako",
        "location": {
          "lat": -29.6261952,
          "lng": 27.7651908
        },
        "keyAccentLanguage": "nako"
      },
      {
        "code": 0,
        "type": "City",
        "enNameLanguage": "Tlalis",
        "location": {
          "lat": -29.5859395,
          "lng": 27.7219428
        },
        "keyAccentLanguage": "tlalis"
      },
      {
        "code": 0,
        "type": "City",
        "enNameLanguage": "Mokhalinyane",
        "location": {
          "lat": -29.488026,
          "lng": 27.3711956
        },
        "keyAccentLanguage": "mokhalinyane"
      },
      {
        "code": 0,
        "type": "City",
        "enNameLanguage": "Marakabeis",
        "location": {
          "lat": -29.5504441,
          "lng": 28.1386005
        },
        "keyAccentLanguage": "marakabeis"
      },
      {
        "code": 0,
        "type": "City",
        "enNameLanguage": "Makhaleng",
        "location": {
          "lat": -29.334056,
          "lng": 27.4705891
        },
        "keyAccentLanguage": "makhaleng"
      }
    ],
    "enNameLanguage": "Maseru",
    "keyAccentLanguage": "maseru"
  },
  {
    "code": 0,
    "type": "State",
    "location": {
      "lat": -30.1502601,
      "lng": 27.4595016
    },
    "districtList": [
      {
        "code": 0,
        "type": "City",
        "enNameLanguage": "Phamong",
        "location": {
          "lat": -30.2536082,
          "lng": 27.8032993
        },
        "keyAccentLanguage": "phamong"
      },
      {
        "code": 0,
        "type": "City",
        "enNameLanguage": "Mohale's Hoek",
        "location": {
          "lat": -30.1502601,
          "lng": 27.4595016
        },
        "keyAccentLanguage": "mohale's_hoek"
      },
      {
        "code": 0,
        "type": "City",
        "enNameLanguage": "Khitsane",
        "location": {
          "lat": -30.0909127,
          "lng": 27.4189288
        },
        "keyAccentLanguage": "khitsane"
      },
      {
        "code": 0,
        "type": "City",
        "enNameLanguage": "Morifi",
        "location": {
          "lat": -30.2882868,
          "lng": 27.3998369
        },
        "keyAccentLanguage": "morifi"
      },
      {
        "code": 0,
        "type": "City",
        "enNameLanguage": "Moletsane",
        "location": {
          "lat": -29.9322136,
          "lng": 27.2999415
        },
        "keyAccentLanguage": "moletsane"
      },
      {
        "code": 0,
        "type": "City",
        "enNameLanguage": "Mpharane",
        "location": {
          "lat": -30.0183191,
          "lng": 27.5488509
        },
        "keyAccentLanguage": "mpharane"
      },
      {
        "code": 0,
        "type": "City",
        "enNameLanguage": "Lekhooa",
        "location": {
          "lat": -30.1502601,
          "lng": 27.4595016
        },
        "keyAccentLanguage": "lekhooa"
      },
      {
        "code": 0,
        "type": "City",
        "enNameLanguage": "Maphutseng",
        "location": {
          "lat": -30.2271275,
          "lng": 27.5055532
        },
        "keyAccentLanguage": "maphutseng"
      },
      {
        "code": 0,
        "type": "City",
        "enNameLanguage": "Blue Gums",
        "location": {
          "lat": -30.33981619999999,
          "lng": 27.5305056
        },
        "keyAccentLanguage": "blue_gums"
      },
      {
        "code": 0,
        "type": "City",
        "enNameLanguage": "Siloe",
        "location": {
          "lat": -29.9521656,
          "lng": 27.2823076
        },
        "keyAccentLanguage": "siloe"
      },
      {
        "code": 0,
        "type": "City",
        "enNameLanguage": "Teba",
        "location": {
          "lat": -29.9619218,
          "lng": 27.87876
        },
        "keyAccentLanguage": "teba"
      },
      {
        "code": 0,
        "type": "City",
        "enNameLanguage": "Liphateng",
        "location": {
          "lat": -30.0308091,
          "lng": 27.4343479
        },
        "keyAccentLanguage": "liphateng"
      },
      {
        "code": 0,
        "type": "City",
        "enNameLanguage": "Mokoroane",
        "location": {
          "lat": -29.9228377,
          "lng": 27.216167
        },
        "keyAccentLanguage": "mokoroane"
      },
      {
        "code": 0,
        "type": "City",
        "enNameLanguage": "Schoolplaats",
        "location": {
          "lat": -30.3019451,
          "lng": 27.4982137
        },
        "keyAccentLanguage": "schoolplaats"
      },
      {
        "code": 0,
        "type": "City",
        "enNameLanguage": "Maghalleen",
        "location": {
          "lat": -30.1698156,
          "lng": 27.4057116
        },
        "keyAccentLanguage": "maghalleen"
      },
      {
        "code": 0,
        "type": "City",
        "enNameLanguage": "Mekaling",
        "location": {
          "lat": -30.2909723,
          "lng": 27.5055532
        },
        "keyAccentLanguage": "mekaling"
      },
      {
        "code": 0,
        "type": "City",
        "enNameLanguage": "Monyake",
        "location": {
          "lat": -29.9527295,
          "lng": 27.3454883
        },
        "keyAccentLanguage": "monyake"
      },
      {
        "code": 0,
        "type": "City",
        "enNameLanguage": "Sekake",
        "location": {
          "lat": -29.9920147,
          "lng": 28.3571523
        },
        "keyAccentLanguage": "sekake"
      },
      {
        "code": 0,
        "type": "City",
        "enNameLanguage": "Riet Vlei",
        "location": {
          "lat": -30.0266985,
          "lng": 27.3249201
        },
        "keyAccentLanguage": "riet_vlei"
      },
      {
        "code": 0,
        "type": "City",
        "enNameLanguage": "Sibi Sibi",
        "location": {
          "lat": -29.916667,
          "lng": 27.8
        },
        "keyAccentLanguage": "sibi_sibi"
      },
      {
        "code": 0,
        "type": "City",
        "enNameLanguage": "Old Mohales Hoek",
        "location": {
          "lat": -30.101979,
          "lng": 27.4703209
        },
        "keyAccentLanguage": "old_mohales_hoek"
      },
      {
        "code": 0,
        "type": "City",
        "enNameLanguage": "Tsoloane",
        "location": {
          "lat": -30.0151291,
          "lng": 27.3587096
        },
        "keyAccentLanguage": "tsoloane"
      },
      {
        "code": 0,
        "type": "City",
        "enNameLanguage": "Thabana Morena",
        "location": {
          "lat": -30.1502601,
          "lng": 27.4595016
        },
        "keyAccentLanguage": "thabana_morena"
      },
      {
        "code": 0,
        "type": "City",
        "enNameLanguage": "Nthamaha",
        "location": {
          "lat": -29.976733,
          "lng": 27.941742
        },
        "keyAccentLanguage": "nthamaha"
      },
      {
        "code": 0,
        "type": "City",
        "enNameLanguage": "Ha Nohana",
        "location": {
          "lat": -30.076124,
          "lng": 27.8589821
        },
        "keyAccentLanguage": "ha_nohana"
      },
      {
        "code": 0,
        "type": "City",
        "enNameLanguage": "Brakfontein",
        "location": {
          "lat": -30.2399597,
          "lng": 27.4376877
        },
        "keyAccentLanguage": "brakfontein"
      },
      {
        "code": 0,
        "type": "City",
        "enNameLanguage": "Kaphe",
        "location": {
          "lat": -29.954117,
          "lng": 27.6383504
        },
        "keyAccentLanguage": "kaphe"
      },
      {
        "code": 0,
        "type": "City",
        "enNameLanguage": "Ntilane",
        "location": {
          "lat": -29.9605246,
          "lng": 27.2867162
        },
        "keyAccentLanguage": "ntilane"
      },
      {
        "code": 0,
        "type": "City",
        "enNameLanguage": "Mohale's Hoek",
        "location": {
          "lat": -30.1502601,
          "lng": 27.4595016
        },
        "keyAccentLanguage": "mohale's_hoek"
      }
    ],
    "enNameLanguage": "Mohale's Hoek",
    "keyAccentLanguage": "mohale's_hoek"
  },
  {
    "code": 0,
    "type": "State",
    "location": {
      "lat": -29.2875557,
      "lng": 29.06053889999999
    },
    "districtList": [
      {
        "code": 0,
        "type": "City",
        "enNameLanguage": "Mokhotlong",
        "location": {
          "lat": -29.2875557,
          "lng": 29.06053889999999
        },
        "keyAccentLanguage": "mokhotlong"
      },
      {
        "code": 0,
        "type": "City",
        "enNameLanguage": "Molumong",
        "location": {
          "lat": -29.3477274,
          "lng": 29.0219885
        },
        "keyAccentLanguage": "molumong"
      },
      {
        "code": 0,
        "type": "City",
        "enNameLanguage": "Letseng-la-Terae",
        "location": {
          "lat": -28.916667,
          "lng": 28.816667
        },
        "keyAccentLanguage": "letseng-la-terae"
      },
      {
        "code": 0,
        "type": "City",
        "enNameLanguage": "Rafolatsane",
        "location": {
          "lat": -29.3488687,
          "lng": 29.0059836
        },
        "keyAccentLanguage": "rafolatsane"
      },
      {
        "code": 0,
        "type": "City",
        "enNameLanguage": "Lebingwanas Cattle Post",
        "location": {
          "lat": -28.916667,
          "lng": 28.9
        },
        "keyAccentLanguage": "lebingwanas_cattle_post"
      },
      {
        "code": 0,
        "type": "City",
        "enNameLanguage": "Mokoeng",
        "location": {
          "lat": -29.2441103,
          "lng": 28.9019113
        },
        "keyAccentLanguage": "mokoeng"
      },
      {
        "code": 0,
        "type": "City",
        "enNameLanguage": "Numolani",
        "location": {
          "lat": -29.0425434,
          "lng": 28.9572312
        },
        "keyAccentLanguage": "numolani"
      }
    ],
    "enNameLanguage": "Mokhotlong",
    "keyAccentLanguage": "mokhotlong"
  },
  {
    "code": 0,
    "type": "State",
    "location": {
      "lat": -30.1127382,
      "lng": 28.6830327
    },
    "districtList": [
      {
        "code": 0,
        "type": "City",
        "enNameLanguage": "White Hill",
        "location": {
          "lat": -30.1127382,
          "lng": 28.6830327
        },
        "keyAccentLanguage": "white_hill"
      },
      {
        "code": 0,
        "type": "City",
        "enNameLanguage": "Sehlabathebe",
        "location": {
          "lat": -29.8812953,
          "lng": 29.0619934
        },
        "keyAccentLanguage": "sehlabathebe"
      },
      {
        "code": 0,
        "type": "City",
        "enNameLanguage": "Tsoelike",
        "location": {
          "lat": -30.0173524,
          "lng": 28.668772
        },
        "keyAccentLanguage": "tsoelike"
      },
      {
        "code": 0,
        "type": "City",
        "enNameLanguage": "Patlong",
        "location": {
          "lat": -30.0422274,
          "lng": 28.3549609
        },
        "keyAccentLanguage": "patlong"
      },
      {
        "code": 0,
        "type": "City",
        "enNameLanguage": "Ramatseliso",
        "location": {
          "lat": -30.0458644,
          "lng": 28.92083879999999
        },
        "keyAccentLanguage": "ramatseliso"
      },
      {
        "code": 0,
        "type": "City",
        "enNameLanguage": "Mpite",
        "location": {
          "lat": -30.0733717,
          "lng": 28.6221033
        },
        "keyAccentLanguage": "mpite"
      },
      {
        "code": 0,
        "type": "City",
        "enNameLanguage": "Hill Top",
        "location": {
          "lat": -30.050473,
          "lng": 28.7853845
        },
        "keyAccentLanguage": "hill_top"
      },
      {
        "code": 0,
        "type": "City",
        "enNameLanguage": "Qacha's Nek",
        "location": {
          "lat": -30.1127382,
          "lng": 28.6830327
        },
        "keyAccentLanguage": "qacha's_nek"
      },
      {
        "code": 0,
        "type": "City",
        "enNameLanguage": "Matsaile",
        "location": {
          "lat": -29.833333,
          "lng": 28.8
        },
        "keyAccentLanguage": "matsaile"
      }
    ],
    "enNameLanguage": "Qacha's Nek",
    "keyAccentLanguage": "qacha's_nek"
  },
  {
    "code": 0,
    "type": "State",
    "location": {
      "lat": -30.4015687,
      "lng": 27.7080133
    },
    "districtList": [
      {
        "code": 0,
        "type": "City",
        "enNameLanguage": "Seforong",
        "location": {
          "lat": -30.0477032,
          "lng": 28.2804351
        },
        "keyAccentLanguage": "seforong"
      },
      {
        "code": 0,
        "type": "City",
        "enNameLanguage": "Mohlakoanas",
        "location": {
          "lat": -30.4015687,
          "lng": 27.7080133
        },
        "keyAccentLanguage": "mohlakoanas"
      },
      {
        "code": 0,
        "type": "City",
        "enNameLanguage": "Kubung",
        "location": {
          "lat": -30.0955249,
          "lng": 28.0171449
        },
        "keyAccentLanguage": "kubung"
      },
      {
        "code": 0,
        "type": "City",
        "enNameLanguage": "Makhaba",
        "location": {
          "lat": -30.4015687,
          "lng": 27.7080133
        },
        "keyAccentLanguage": "makhaba"
      },
      {
        "code": 0,
        "type": "City",
        "enNameLanguage": "Nthodimonate",
        "location": {
          "lat": -30.483333,
          "lng": 27.75
        },
        "keyAccentLanguage": "nthodimonate"
      },
      {
        "code": 0,
        "type": "City",
        "enNameLanguage": "Mount Moorosi",
        "location": {
          "lat": -30.2779343,
          "lng": 27.8707026
        },
        "keyAccentLanguage": "mount_moorosi"
      },
      {
        "code": 0,
        "type": "City",
        "enNameLanguage": "Malibe",
        "location": {
          "lat": -30.2524124,
          "lng": 27.9468675
        },
        "keyAccentLanguage": "malibe"
      },
      {
        "code": 0,
        "type": "City",
        "enNameLanguage": "Moyeni Camp",
        "location": {
          "lat": -30.4170991,
          "lng": 27.6720852
        },
        "keyAccentLanguage": "moyeni_camp"
      },
      {
        "code": 0,
        "type": "City",
        "enNameLanguage": "Bolepeletsa",
        "location": {
          "lat": -30.434687,
          "lng": 27.6038761
        },
        "keyAccentLanguage": "bolepeletsa"
      },
      {
        "code": 0,
        "type": "City",
        "enNameLanguage": "Sinxondo",
        "location": {
          "lat": -30.5722262,
          "lng": 27.732939
        },
        "keyAccentLanguage": "sinxondo"
      },
      {
        "code": 0,
        "type": "City",
        "enNameLanguage": "Mosetlas",
        "location": {
          "lat": -30.3453665,
          "lng": 27.7505316
        },
        "keyAccentLanguage": "mosetlas"
      },
      {
        "code": 0,
        "type": "City",
        "enNameLanguage": "Quthing",
        "location": {
          "lat": -30.4015687,
          "lng": 27.7080133
        },
        "keyAccentLanguage": "quthing"
      },
      {
        "code": 0,
        "type": "City",
        "enNameLanguage": "Tosing",
        "location": {
          "lat": -30.34135029999999,
          "lng": 27.9292939
        },
        "keyAccentLanguage": "tosing"
      },
      {
        "code": 0,
        "type": "City",
        "enNameLanguage": "Neni",
        "location": {
          "lat": -30.2,
          "lng": 28.35
        },
        "keyAccentLanguage": "neni"
      },
      {
        "code": 0,
        "type": "City",
        "enNameLanguage": "Alwyns Kop",
        "location": {
          "lat": -30.3971379,
          "lng": 27.6229478
        },
        "keyAccentLanguage": "alwyns_kop"
      },
      {
        "code": 0,
        "type": "City",
        "enNameLanguage": "Fort Hartley",
        "location": {
          "lat": -30.3301103,
          "lng": 27.7475996
        },
        "keyAccentLanguage": "fort_hartley"
      },
      {
        "code": 0,
        "type": "City",
        "enNameLanguage": "Cutting Camp",
        "location": {
          "lat": -30.2781841,
          "lng": 27.7395364
        },
        "keyAccentLanguage": "cutting_camp"
      },
      {
        "code": 0,
        "type": "City",
        "enNameLanguage": "Masitise",
        "location": {
          "lat": -30.4033886,
          "lng": 27.6478848
        },
        "keyAccentLanguage": "masitise"
      },
      {
        "code": 0,
        "type": "City",
        "enNameLanguage": "Qomoqomong",
        "location": {
          "lat": -30.4376554,
          "lng": 27.7300067
        },
        "keyAccentLanguage": "qomoqomong"
      },
      {
        "code": 0,
        "type": "City",
        "enNameLanguage": "Makuaes",
        "location": {
          "lat": -30.2822115,
          "lng": 28.0815415
        },
        "keyAccentLanguage": "makuaes"
      }
    ],
    "enNameLanguage": "Quthing",
    "keyAccentLanguage": "quthing"
  },
  {
    "code": 0,
    "type": "State",
    "location": {
      "lat": -29.5238975,
      "lng": 28.6089752
    },
    "districtList": [],
    "enNameLanguage": "Thaba-Tseka",
    "keyAccentLanguage": "thaba-tseka"
  }
]