[
  {
    "code": 0,
    "type": "State",
    "location": {
      "lat": -12.3335474,
      "lng": 39.3206241
    },
    "districtList": [
      {
        "code": 0,
        "type": "City",
        "enNameLanguage": "Namecala",
        "location": {
          "lat": -12.9395749,
          "lng": 39.794869
        },
        "keyAccentLanguage": "namecala"
      },
      {
        "code": 0,
        "type": "City",
        "enNameLanguage": "Abianai",
        "location": {
          "lat": -11.923056,
          "lng": 39.5125
        },
        "keyAccentLanguage": "abianai"
      },
      {
        "code": 0,
        "type": "City",
        "enNameLanguage": "Abudo",
        "location": {
          "lat": -11.7409231,
          "lng": 39.52187139999999
        },
        "keyAccentLanguage": "abudo"
      },
      {
        "code": 0,
        "type": "City",
        "enNameLanguage": "Abibo",
        "location": {
          "lat": -12.4559427,
          "lng": 39.9073353
        },
        "keyAccentLanguage": "abibo"
      },
      {
        "code": 0,
        "type": "City",
        "enNameLanguage": "Atibo",
        "location": {
          "lat": -11.2947507,
          "lng": 39.4411442
        },
        "keyAccentLanguage": "atibo"
      },
      {
        "code": 0,
        "type": "City",
        "enNameLanguage": "Mancoche",
        "location": {
          "lat": -12.3335474,
          "lng": 39.3206241
        },
        "keyAccentLanguage": "mancoche"
      },
      {
        "code": 0,
        "type": "City",
        "enNameLanguage": "Diaca",
        "location": {
          "lat": -11.5353397,
          "lng": 39.93630230000001
        },
        "keyAccentLanguage": "diaca"
      },
      {
        "code": 0,
        "type": "City",
        "enNameLanguage": "Muidumbe",
        "location": {
          "lat": -11.7749971,
          "lng": 39.8951921
        },
        "keyAccentLanguage": "muidumbe"
      },
      {
        "code": 0,
        "type": "City",
        "enNameLanguage": "Cabo Delgado",
        "location": {
          "lat": -12.3335474,
          "lng": 39.3206241
        },
        "keyAccentLanguage": "cabo_delgado"
      },
      {
        "code": 0,
        "type": "City",
        "enNameLanguage": "Alo",
        "location": {
          "lat": -12.3335474,
          "lng": 39.3206241
        },
        "keyAccentLanguage": "alo"
      },
      {
        "code": 0,
        "type": "City",
        "enNameLanguage": "Acudanquela",
        "location": {
          "lat": -12.3335474,
          "lng": 39.3206241
        },
        "keyAccentLanguage": "acudanquela"
      },
      {
        "code": 0,
        "type": "City",
        "enNameLanguage": "Mbau",
        "location": {
          "lat": -11.6243309,
          "lng": 40.1762517
        },
        "keyAccentLanguage": "mbau"
      },
      {
        "code": 0,
        "type": "City",
        "enNameLanguage": "Acombanque",
        "location": {
          "lat": -12.3335474,
          "lng": 39.3206241
        },
        "keyAccentLanguage": "acombanque"
      },
      {
        "code": 0,
        "type": "City",
        "enNameLanguage": "Marere",
        "location": {
          "lat": -11.6619289,
          "lng": 40.3637171
        },
        "keyAccentLanguage": "marere"
      },
      {
        "code": 0,
        "type": "City",
        "enNameLanguage": "Achuche",
        "location": {
          "lat": -12.3335474,
          "lng": 39.3206241
        },
        "keyAccentLanguage": "achuche"
      },
      {
        "code": 0,
        "type": "City",
        "enNameLanguage": "Iangua",
        "location": {
          "lat": -11.7396079,
          "lng": 40.1502341
        },
        "keyAccentLanguage": "iangua"
      },
      {
        "code": 0,
        "type": "City",
        "enNameLanguage": "Sagal",
        "location": {
          "lat": -12.7494926,
          "lng": 39.0078744
        },
        "keyAccentLanguage": "sagal"
      },
      {
        "code": 0,
        "type": "City",
        "enNameLanguage": "Mesa",
        "location": {
          "lat": -12.3335474,
          "lng": 39.3206241
        },
        "keyAccentLanguage": "mesa"
      },
      {
        "code": 0,
        "type": "City",
        "enNameLanguage": "Nangade",
        "location": {
          "lat": -11.0727653,
          "lng": 39.67503689999999
        },
        "keyAccentLanguage": "nangade"
      },
      {
        "code": 0,
        "type": "City",
        "enNameLanguage": "Atolo",
        "location": {
          "lat": -13.0908817,
          "lng": 40.529246
        },
        "keyAccentLanguage": "atolo"
      },
      {
        "code": 0,
        "type": "City",
        "enNameLanguage": "Abdata",
        "location": {
          "lat": -11.4261326,
          "lng": 39.74138629999999
        },
        "keyAccentLanguage": "abdata"
      },
      {
        "code": 0,
        "type": "City",
        "enNameLanguage": "Abdala",
        "location": {
          "lat": -12.5744228,
          "lng": 40.4288021
        },
        "keyAccentLanguage": "abdala"
      },
      {
        "code": 0,
        "type": "City",
        "enNameLanguage": "Achuia",
        "location": {
          "lat": -11.9464458,
          "lng": 40.1856192
        },
        "keyAccentLanguage": "achuia"
      },
      {
        "code": 0,
        "type": "City",
        "enNameLanguage": "M'Tamba",
        "location": {
          "lat": -11.4264099,
          "lng": 39.7375988
        },
        "keyAccentLanguage": "m'tamba"
      },
      {
        "code": 0,
        "type": "City",
        "enNameLanguage": "Acache",
        "location": {
          "lat": -12.8338195,
          "lng": 40.3885188
        },
        "keyAccentLanguage": "acache"
      },
      {
        "code": 0,
        "type": "City",
        "enNameLanguage": "Acalama",
        "location": {
          "lat": -11.4385197,
          "lng": 39.414727
        },
        "keyAccentLanguage": "acalama"
      },
      {
        "code": 0,
        "type": "City",
        "enNameLanguage": "Mavala",
        "location": {
          "lat": -13.2258359,
          "lng": 38.4807655
        },
        "keyAccentLanguage": "mavala"
      },
      {
        "code": 0,
        "type": "City",
        "enNameLanguage": "Macomia",
        "location": {
          "lat": -12.2338525,
          "lng": 40.1401539
        },
        "keyAccentLanguage": "macomia"
      },
      {
        "code": 0,
        "type": "City",
        "enNameLanguage": "Aculahata",
        "location": {
          "lat": -12.3335474,
          "lng": 39.3206241
        },
        "keyAccentLanguage": "aculahata"
      },
      {
        "code": 0,
        "type": "City",
        "enNameLanguage": "Chai",
        "location": {
          "lat": -11.9330191,
          "lng": 40.1081477
        },
        "keyAccentLanguage": "chai"
      },
      {
        "code": 0,
        "type": "City",
        "enNameLanguage": "Meloco",
        "location": {
          "lat": -13.4745473,
          "lng": 39.1725733
        },
        "keyAccentLanguage": "meloco"
      },
      {
        "code": 0,
        "type": "City",
        "enNameLanguage": "Imbuo",
        "location": {
          "lat": -11.5769426,
          "lng": 39.7226227
        },
        "keyAccentLanguage": "imbuo"
      },
      {
        "code": 0,
        "type": "City",
        "enNameLanguage": "Balama",
        "location": {
          "lat": -13.4792966,
          "lng": 38.4008357
        },
        "keyAccentLanguage": "balama"
      },
      {
        "code": 0,
        "type": "City",
        "enNameLanguage": "Chiure",
        "location": {
          "lat": -13.3761298,
          "lng": 39.9594146
        },
        "keyAccentLanguage": "chiure"
      },
      {
        "code": 0,
        "type": "City",
        "enNameLanguage": "Acualahata",
        "location": {
          "lat": -11.4474058,
          "lng": 39.658447
        },
        "keyAccentLanguage": "acualahata"
      },
      {
        "code": 0,
        "type": "City",
        "enNameLanguage": "Abudala",
        "location": {
          "lat": -12.310602,
          "lng": 40.1164336
        },
        "keyAccentLanguage": "abudala"
      },
      {
        "code": 0,
        "type": "City",
        "enNameLanguage": "Inquingir",
        "location": {
          "lat": -12.3335474,
          "lng": 39.3206241
        },
        "keyAccentLanguage": "inquingir"
      },
      {
        "code": 0,
        "type": "City",
        "enNameLanguage": "Megama",
        "location": {
          "lat": -12.9142817,
          "lng": 39.4735025
        },
        "keyAccentLanguage": "megama"
      },
      {
        "code": 0,
        "type": "City",
        "enNameLanguage": "Metuge",
        "location": {
          "lat": -12.9732283,
          "lng": 40.3866644
        },
        "keyAccentLanguage": "metuge"
      },
      {
        "code": 0,
        "type": "City",
        "enNameLanguage": "Gungure",
        "location": {
          "lat": -11.6127683,
          "lng": 39.2070196
        },
        "keyAccentLanguage": "gungure"
      },
      {
        "code": 0,
        "type": "City",
        "enNameLanguage": "Nantulo",
        "location": {
          "lat": -12.5525265,
          "lng": 39.0020883
        },
        "keyAccentLanguage": "nantulo"
      },
      {
        "code": 0,
        "type": "City",
        "enNameLanguage": "Maringa",
        "location": {
          "lat": -12.9970912,
          "lng": 38.3876766
        },
        "keyAccentLanguage": "maringa"
      },
      {
        "code": 0,
        "type": "City",
        "enNameLanguage": "Ibo",
        "location": {
          "lat": -12.3447789,
          "lng": 40.5891034
        },
        "keyAccentLanguage": "ibo"
      },
      {
        "code": 0,
        "type": "City",
        "enNameLanguage": "Holoco",
        "location": {
          "lat": -13.2847231,
          "lng": 39.0658802
        },
        "keyAccentLanguage": "holoco"
      },
      {
        "code": 0,
        "type": "City",
        "enNameLanguage": "Mecufi",
        "location": {
          "lat": -13.3415717,
          "lng": 40.5470443
        },
        "keyAccentLanguage": "mecufi"
      },
      {
        "code": 0,
        "type": "City",
        "enNameLanguage": "Mueda",
        "location": {
          "lat": -11.6644184,
          "lng": 39.5640159
        },
        "keyAccentLanguage": "mueda"
      },
      {
        "code": 0,
        "type": "City",
        "enNameLanguage": "Abissa",
        "location": {
          "lat": -12.3335474,
          "lng": 39.3206241
        },
        "keyAccentLanguage": "abissa"
      },
      {
        "code": 0,
        "type": "City",
        "enNameLanguage": "Chomba",
        "location": {
          "lat": -11.5435716,
          "lng": 39.3550225
        },
        "keyAccentLanguage": "chomba"
      },
      {
        "code": 0,
        "type": "City",
        "enNameLanguage": "Catua",
        "location": {
          "lat": -12.8948653,
          "lng": 38.3715532
        },
        "keyAccentLanguage": "catua"
      },
      {
        "code": 0,
        "type": "City",
        "enNameLanguage": "Abutda",
        "location": {
          "lat": -13.1260108,
          "lng": 38.4123799
        },
        "keyAccentLanguage": "abutda"
      },
      {
        "code": 0,
        "type": "City",
        "enNameLanguage": "Nicage",
        "location": {
          "lat": -12.1564,
          "lng": 38.621861
        },
        "keyAccentLanguage": "nicage"
      },
      {
        "code": 0,
        "type": "City",
        "enNameLanguage": "Panga",
        "location": {
          "lat": -12.3335474,
          "lng": 39.3206241
        },
        "keyAccentLanguage": "panga"
      },
      {
        "code": 0,
        "type": "City",
        "enNameLanguage": "Abdulaimo",
        "location": {
          "lat": -13.6395867,
          "lng": 39.1446641
        },
        "keyAccentLanguage": "abdulaimo"
      },
      {
        "code": 0,
        "type": "City",
        "enNameLanguage": "Montepuez",
        "location": {
          "lat": -13.1340453,
          "lng": 38.9981052
        },
        "keyAccentLanguage": "montepuez"
      },
      {
        "code": 0,
        "type": "City",
        "enNameLanguage": "Olumbe",
        "location": {
          "lat": -10.992602,
          "lng": 40.4783638
        },
        "keyAccentLanguage": "olumbe"
      },
      {
        "code": 0,
        "type": "City",
        "enNameLanguage": "Nassombe",
        "location": {
          "lat": -11.3733106,
          "lng": 38.82185279999999
        },
        "keyAccentLanguage": "nassombe"
      },
      {
        "code": 0,
        "type": "City",
        "enNameLanguage": "Impacha",
        "location": {
          "lat": -11.8044733,
          "lng": 38.5228979
        },
        "keyAccentLanguage": "impacha"
      },
      {
        "code": 0,
        "type": "City",
        "enNameLanguage": "Ancuabe",
        "location": {
          "lat": -12.9779972,
          "lng": 39.8540539
        },
        "keyAccentLanguage": "ancuabe"
      },
      {
        "code": 0,
        "type": "City",
        "enNameLanguage": "Quionga",
        "location": {
          "lat": -10.5969821,
          "lng": 40.5101704
        },
        "keyAccentLanguage": "quionga"
      },
      {
        "code": 0,
        "type": "City",
        "enNameLanguage": "Palma",
        "location": {
          "lat": -10.7754281,
          "lng": 40.47242809999999
        },
        "keyAccentLanguage": "palma"
      },
      {
        "code": 0,
        "type": "City",
        "enNameLanguage": "Gananga",
        "location": {
          "lat": -11.354449,
          "lng": 40.1158307
        },
        "keyAccentLanguage": "gananga"
      },
      {
        "code": 0,
        "type": "City",
        "enNameLanguage": "Chiure Nova",
        "location": {
          "lat": -13.3761298,
          "lng": 39.9594146
        },
        "keyAccentLanguage": "chiure_nova"
      },
      {
        "code": 0,
        "type": "City",
        "enNameLanguage": "Muaguide",
        "location": {
          "lat": -12.4569258,
          "lng": 40.0261335
        },
        "keyAccentLanguage": "muaguide"
      },
      {
        "code": 0,
        "type": "City",
        "enNameLanguage": "Mucojo",
        "location": {
          "lat": -12.069744,
          "lng": 40.4783638
        },
        "keyAccentLanguage": "mucojo"
      },
      {
        "code": 0,
        "type": "City",
        "enNameLanguage": "Ngapa",
        "location": {
          "lat": -11.1959149,
          "lng": 39.3063536
        },
        "keyAccentLanguage": "ngapa"
      },
      {
        "code": 0,
        "type": "City",
        "enNameLanguage": "Namanhumbir",
        "location": {
          "lat": -13.0419874,
          "lng": 39.2739088
        },
        "keyAccentLanguage": "namanhumbir"
      },
      {
        "code": 0,
        "type": "City",
        "enNameLanguage": "Namuiranga",
        "location": {
          "lat": -10.5685927,
          "lng": 40.3790163
        },
        "keyAccentLanguage": "namuiranga"
      },
      {
        "code": 0,
        "type": "City",
        "enNameLanguage": "Culue",
        "location": {
          "lat": -13.2292226,
          "lng": 38.4771072
        },
        "keyAccentLanguage": "culue"
      },
      {
        "code": 0,
        "type": "City",
        "enNameLanguage": "Pemba",
        "location": {
          "lat": -12.9732026,
          "lng": 40.5178014
        },
        "keyAccentLanguage": "pemba"
      },
      {
        "code": 0,
        "type": "City",
        "enNameLanguage": "Reteta",
        "location": {
          "lat": -13.548249,
          "lng": 38.4166232
        },
        "keyAccentLanguage": "reteta"
      },
      {
        "code": 0,
        "type": "City",
        "enNameLanguage": "Quissanga",
        "location": {
          "lat": -12.4357419,
          "lng": 40.4961776
        },
        "keyAccentLanguage": "quissanga"
      },
      {
        "code": 0,
        "type": "City",
        "enNameLanguage": "Tepere",
        "location": {
          "lat": -13.9573052,
          "lng": 38.8074703
        },
        "keyAccentLanguage": "tepere"
      },
      {
        "code": 0,
        "type": "City",
        "enNameLanguage": "Mutamba dos Macondes",
        "location": {
          "lat": -11.4436695,
          "lng": 39.7895021
        },
        "keyAccentLanguage": "mutamba_dos_macondes"
      },
      {
        "code": 0,
        "type": "City",
        "enNameLanguage": "Ocua",
        "location": {
          "lat": -13.6462486,
          "lng": 39.7897198
        },
        "keyAccentLanguage": "ocua"
      },
      {
        "code": 0,
        "type": "City",
        "enNameLanguage": "Mirate",
        "location": {
          "lat": -12.9705977,
          "lng": 38.8229056
        },
        "keyAccentLanguage": "mirate"
      },
      {
        "code": 0,
        "type": "City",
        "enNameLanguage": "Panguia",
        "location": {
          "lat": -12.3822661,
          "lng": 40.2641759
        },
        "keyAccentLanguage": "panguia"
      },
      {
        "code": 0,
        "type": "City",
        "enNameLanguage": "Negomano",
        "location": {
          "lat": -11.4279222,
          "lng": 38.4912167
        },
        "keyAccentLanguage": "negomano"
      },
      {
        "code": 0,
        "type": "City",
        "enNameLanguage": "Namuno",
        "location": {
          "lat": -13.6189251,
          "lng": 38.8153157
        },
        "keyAccentLanguage": "namuno"
      },
      {
        "code": 0,
        "type": "City",
        "enNameLanguage": "Kuekue",
        "location": {
          "lat": -13.5463213,
          "lng": 38.4172026
        },
        "keyAccentLanguage": "kuekue"
      },
      {
        "code": 0,
        "type": "City",
        "enNameLanguage": "Bilibiza",
        "location": {
          "lat": -12.5745447,
          "lng": 40.276269
        },
        "keyAccentLanguage": "bilibiza"
      },
      {
        "code": 0,
        "type": "City",
        "enNameLanguage": "Napaha",
        "location": {
          "lat": -13.3161212,
          "lng": 38.9485423
        },
        "keyAccentLanguage": "napaha"
      },
      {
        "code": 0,
        "type": "City",
        "enNameLanguage": "Metoro",
        "location": {
          "lat": -13.1097316,
          "lng": 39.8707697
        },
        "keyAccentLanguage": "metoro"
      },
      {
        "code": 0,
        "type": "City",
        "enNameLanguage": "Mocimboa da Praia",
        "location": {
          "lat": -11.3535985,
          "lng": 40.3522402
        },
        "keyAccentLanguage": "mocimboa_da_praia"
      },
      {
        "code": 0,
        "type": "City",
        "enNameLanguage": "Nanripo",
        "location": {
          "lat": -14.1010143,
          "lng": 38.8074703
        },
        "keyAccentLanguage": "nanripo"
      },
      {
        "code": 0,
        "type": "City",
        "enNameLanguage": "Meluco",
        "location": {
          "lat": -12.5417526,
          "lng": 39.6440744
        },
        "keyAccentLanguage": "meluco"
      },
      {
        "code": 0,
        "type": "City",
        "enNameLanguage": "Sunate",
        "location": {
          "lat": -13.102446,
          "lng": 39.9799513
        },
        "keyAccentLanguage": "sunate"
      },
      {
        "code": 0,
        "type": "City",
        "enNameLanguage": "Nacatar",
        "location": {
          "lat": -11.8331284,
          "lng": 39.413444
        },
        "keyAccentLanguage": "nacatar"
      },
      {
        "code": 0,
        "type": "City",
        "enNameLanguage": "Mipande",
        "location": {
          "lat": -12.2258697,
          "lng": 40.4429239
        },
        "keyAccentLanguage": "mipande"
      },
      {
        "code": 0,
        "type": "City",
        "enNameLanguage": "Nanhagaia",
        "location": {
          "lat": -11.3735833,
          "lng": 39.5120191
        },
        "keyAccentLanguage": "nanhagaia"
      },
      {
        "code": 0,
        "type": "City",
        "enNameLanguage": "Pundanhar",
        "location": {
          "lat": -10.8924666,
          "lng": 40.0562867
        },
        "keyAccentLanguage": "pundanhar"
      },
      {
        "code": 0,
        "type": "City",
        "enNameLanguage": "Morrola",
        "location": {
          "lat": -13.1932963,
          "lng": 38.5454137
        },
        "keyAccentLanguage": "morrola"
      },
      {
        "code": 0,
        "type": "City",
        "enNameLanguage": "Quiterajo",
        "location": {
          "lat": -11.7518054,
          "lng": 40.44271990000001
        },
        "keyAccentLanguage": "quiterajo"
      },
      {
        "code": 0,
        "type": "City",
        "enNameLanguage": "Nairoto",
        "location": {
          "lat": -12.3075062,
          "lng": 39.1088307
        },
        "keyAccentLanguage": "nairoto"
      },
      {
        "code": 0,
        "type": "City",
        "enNameLanguage": "Chapa",
        "location": {
          "lat": -11.8930849,
          "lng": 39.3455496
        },
        "keyAccentLanguage": "chapa"
      },
      {
        "code": 0,
        "type": "City",
        "enNameLanguage": "Miteda",
        "location": {
          "lat": -11.8024568,
          "lng": 39.6956699
        },
        "keyAccentLanguage": "miteda"
      },
      {
        "code": 0,
        "type": "City",
        "enNameLanguage": "Murrebue",
        "location": {
          "lat": -13.1317579,
          "lng": 40.5470443
        },
        "keyAccentLanguage": "murrebue"
      },
      {
        "code": 0,
        "type": "City",
        "enNameLanguage": "Chinhonao",
        "location": {
          "lat": -11.42438,
          "lng": 39.177731
        },
        "keyAccentLanguage": "chinhonao"
      },
      {
        "code": 0,
        "type": "City",
        "enNameLanguage": "Ingoane",
        "location": {
          "lat": -11.9204682,
          "lng": 40.4802727
        },
        "keyAccentLanguage": "ingoane"
      },
      {
        "code": 0,
        "type": "City",
        "enNameLanguage": "Muico",
        "location": {
          "lat": -13.3981157,
          "lng": 39.4320809
        },
        "keyAccentLanguage": "muico"
      },
      {
        "code": 0,
        "type": "City",
        "enNameLanguage": "Abudala",
        "location": {
          "lat": -12.310602,
          "lng": 40.1164336
        },
        "keyAccentLanguage": "abudala"
      }
    ],
    "enNameLanguage": "Cabo Delgado",
    "keyAccentLanguage": "cabo_delgado"
  },
  {
    "code": 0,
    "type": "State",
    "location": {
      "lat": 31.3546763,
      "lng": 34.3088255
    },
    "districtList": [
      {
        "code": 0,
        "type": "City",
        "enNameLanguage": "Chibuto",
        "location": {
          "lat": -24.6967014,
          "lng": 33.544808
        },
        "keyAccentLanguage": "chibuto"
      },
      {
        "code": 0,
        "type": "City",
        "enNameLanguage": "Chaimite",
        "location": {
          "lat": 31.5016951,
          "lng": 34.4668445
        },
        "keyAccentLanguage": "chaimite"
      },
      {
        "code": 0,
        "type": "City",
        "enNameLanguage": "Chigubo",
        "location": {
          "lat": -22.8336142,
          "lng": 33.5182054
        },
        "keyAccentLanguage": "chigubo"
      },
      {
        "code": 0,
        "type": "City",
        "enNameLanguage": "Chicualacuala",
        "location": {
          "lat": -22.0845253,
          "lng": 31.67963919999999
        },
        "keyAccentLanguage": "chicualacuala"
      },
      {
        "code": 0,
        "type": "City",
        "enNameLanguage": "Massingir",
        "location": {
          "lat": -23.9239146,
          "lng": 32.1660901
        },
        "keyAccentLanguage": "massingir"
      },
      {
        "code": 0,
        "type": "City",
        "enNameLanguage": "Macia",
        "location": {
          "lat": -25.0263578,
          "lng": 33.1070309
        },
        "keyAccentLanguage": "macia"
      },
      {
        "code": 0,
        "type": "City",
        "enNameLanguage": "Chicualacuala",
        "location": {
          "lat": -22.0845253,
          "lng": 31.67963919999999
        },
        "keyAccentLanguage": "chicualacuala"
      },
      {
        "code": 0,
        "type": "City",
        "enNameLanguage": "Guija",
        "location": {
          "lat": -24.4191999,
          "lng": 32.9409494
        },
        "keyAccentLanguage": "guija"
      },
      {
        "code": 0,
        "type": "City",
        "enNameLanguage": "Lionde",
        "location": {
          "lat": -24.5881073,
          "lng": 33.0606124
        },
        "keyAccentLanguage": "lionde"
      },
      {
        "code": 0,
        "type": "City",
        "enNameLanguage": "Mapai",
        "location": {
          "lat": -22.8519483,
          "lng": 31.9672182
        },
        "keyAccentLanguage": "mapai"
      },
      {
        "code": 0,
        "type": "City",
        "enNameLanguage": "Abel",
        "location": {
          "lat": 31.5016951,
          "lng": 34.4668445
        },
        "keyAccentLanguage": "abel"
      },
      {
        "code": 0,
        "type": "City",
        "enNameLanguage": "Aldeia Comunais Mubanguer",
        "location": {
          "lat": 31.5016951,
          "lng": 34.4668445
        },
        "keyAccentLanguage": "aldeia_comunais_mubanguer"
      },
      {
        "code": 0,
        "type": "City",
        "enNameLanguage": "Afonso Guihole",
        "location": {
          "lat": 31.5016951,
          "lng": 34.4668445
        },
        "keyAccentLanguage": "afonso_guihole"
      },
      {
        "code": 0,
        "type": "City",
        "enNameLanguage": "Afonso Matsinhe",
        "location": {
          "lat": 31.5016951,
          "lng": 34.4668445
        },
        "keyAccentLanguage": "afonso_matsinhe"
      },
      {
        "code": 0,
        "type": "City",
        "enNameLanguage": "Dumela",
        "location": {
          "lat": 31.5016951,
          "lng": 34.4668445
        },
        "keyAccentLanguage": "dumela"
      },
      {
        "code": 0,
        "type": "City",
        "enNameLanguage": "A. Titoche",
        "location": {
          "lat": 31.5016951,
          "lng": 34.4668445
        },
        "keyAccentLanguage": "a._titoche"
      },
      {
        "code": 0,
        "type": "City",
        "enNameLanguage": "A. Moaianine",
        "location": {
          "lat": 31.5016951,
          "lng": 34.4668445
        },
        "keyAccentLanguage": "a._moaianine"
      },
      {
        "code": 0,
        "type": "City",
        "enNameLanguage": "Abilio",
        "location": {
          "lat": 31.5016951,
          "lng": 34.4668445
        },
        "keyAccentLanguage": "abilio"
      },
      {
        "code": 0,
        "type": "City",
        "enNameLanguage": "Albino",
        "location": {
          "lat": 31.5016951,
          "lng": 34.4668445
        },
        "keyAccentLanguage": "albino"
      },
      {
        "code": 0,
        "type": "City",
        "enNameLanguage": "A. Marmeleiro",
        "location": {
          "lat": 31.5016951,
          "lng": 34.4668445
        },
        "keyAccentLanguage": "a._marmeleiro"
      },
      {
        "code": 0,
        "type": "City",
        "enNameLanguage": "Aldeia Comunais Zulu",
        "location": {
          "lat": 31.5016951,
          "lng": 34.4668445
        },
        "keyAccentLanguage": "aldeia_comunais_zulu"
      },
      {
        "code": 0,
        "type": "City",
        "enNameLanguage": "Mabalane",
        "location": {
          "lat": -23.8478077,
          "lng": 32.6249195
        },
        "keyAccentLanguage": "mabalane"
      },
      {
        "code": 0,
        "type": "City",
        "enNameLanguage": "Aldeia Comunais Manjangue",
        "location": {
          "lat": 31.5016951,
          "lng": 34.4668445
        },
        "keyAccentLanguage": "aldeia_comunais_manjangue"
      },
      {
        "code": 0,
        "type": "City",
        "enNameLanguage": "Bala-Bala",
        "location": {
          "lat": 31.5016951,
          "lng": 34.4668445
        },
        "keyAccentLanguage": "bala-bala"
      },
      {
        "code": 0,
        "type": "City",
        "enNameLanguage": "Chissano",
        "location": {
          "lat": -24.9340609,
          "lng": 33.3594896
        },
        "keyAccentLanguage": "chissano"
      },
      {
        "code": 0,
        "type": "City",
        "enNameLanguage": "Aldeia Chimangue",
        "location": {
          "lat": -23.4296537,
          "lng": 31.7715459
        },
        "keyAccentLanguage": "aldeia_chimangue"
      },
      {
        "code": 0,
        "type": "City",
        "enNameLanguage": "Aldeia Comunais 25 de Setembro",
        "location": {
          "lat": 31.5016951,
          "lng": 34.4668445
        },
        "keyAccentLanguage": "aldeia_comunais_25_de_setembro"
      },
      {
        "code": 0,
        "type": "City",
        "enNameLanguage": "Albino Manhique",
        "location": {
          "lat": 31.5016951,
          "lng": 34.4668445
        },
        "keyAccentLanguage": "albino_manhique"
      },
      {
        "code": 0,
        "type": "City",
        "enNameLanguage": "Chivonguine",
        "location": {
          "lat": 31.5016951,
          "lng": 34.4668445
        },
        "keyAccentLanguage": "chivonguine"
      },
      {
        "code": 0,
        "type": "City",
        "enNameLanguage": "Aldeia Bingo",
        "location": {
          "lat": 31.5016951,
          "lng": 34.4668445
        },
        "keyAccentLanguage": "aldeia_bingo"
      },
      {
        "code": 0,
        "type": "City",
        "enNameLanguage": "Abdul",
        "location": {
          "lat": 31.5016951,
          "lng": 34.4668445
        },
        "keyAccentLanguage": "abdul"
      },
      {
        "code": 0,
        "type": "City",
        "enNameLanguage": "Afonso Maunge",
        "location": {
          "lat": 31.5016951,
          "lng": 34.4668445
        },
        "keyAccentLanguage": "afonso_maunge"
      },
      {
        "code": 0,
        "type": "City",
        "enNameLanguage": "Aldeia das Laranjeras",
        "location": {
          "lat": 31.5016951,
          "lng": 34.4668445
        },
        "keyAccentLanguage": "aldeia_das_laranjeras"
      },
      {
        "code": 0,
        "type": "City",
        "enNameLanguage": "Aldeia Comunais Machel",
        "location": {
          "lat": 31.5016951,
          "lng": 34.4668445
        },
        "keyAccentLanguage": "aldeia_comunais_machel"
      },
      {
        "code": 0,
        "type": "City",
        "enNameLanguage": "Aldeia da Madragoa",
        "location": {
          "lat": 31.5016951,
          "lng": 34.4668445
        },
        "keyAccentLanguage": "aldeia_da_madragoa"
      },
      {
        "code": 0,
        "type": "City",
        "enNameLanguage": "Chokwe",
        "location": {
          "lat": -24.5323166,
          "lng": 32.9831998
        },
        "keyAccentLanguage": "chokwe"
      },
      {
        "code": 0,
        "type": "City",
        "enNameLanguage": "Devende",
        "location": {
          "lat": -23.3417406,
          "lng": 32.3483031
        },
        "keyAccentLanguage": "devende"
      },
      {
        "code": 0,
        "type": "City",
        "enNameLanguage": "Chicomo",
        "location": {
          "lat": -24.5293535,
          "lng": 34.1879571
        },
        "keyAccentLanguage": "chicomo"
      },
      {
        "code": 0,
        "type": "City",
        "enNameLanguage": "Alberto",
        "location": {
          "lat": 31.5016951,
          "lng": 34.4668445
        },
        "keyAccentLanguage": "alberto"
      },
      {
        "code": 0,
        "type": "City",
        "enNameLanguage": "Aldeia Comunais III Congresso",
        "location": {
          "lat": 31.5016951,
          "lng": 34.4668445
        },
        "keyAccentLanguage": "aldeia_comunais_iii_congresso"
      },
      {
        "code": 0,
        "type": "City",
        "enNameLanguage": "Maquelane",
        "location": {
          "lat": 31.5016951,
          "lng": 34.4668445
        },
        "keyAccentLanguage": "maquelane"
      },
      {
        "code": 0,
        "type": "City",
        "enNameLanguage": "Aldeia de Sagres",
        "location": {
          "lat": 31.5016951,
          "lng": 34.4668445
        },
        "keyAccentLanguage": "aldeia_de_sagres"
      },
      {
        "code": 0,
        "type": "City",
        "enNameLanguage": "Aldeia de Folgares",
        "location": {
          "lat": 31.5016951,
          "lng": 34.4668445
        },
        "keyAccentLanguage": "aldeia_de_folgares"
      },
      {
        "code": 0,
        "type": "City",
        "enNameLanguage": "Macarretane",
        "location": {
          "lat": -24.3927313,
          "lng": 32.8813975
        },
        "keyAccentLanguage": "macarretane"
      },
      {
        "code": 0,
        "type": "City",
        "enNameLanguage": "Aldeia Comunais Obrigado Tanzania",
        "location": {
          "lat": 31.5016951,
          "lng": 34.4668445
        },
        "keyAccentLanguage": "aldeia_comunais_obrigado_tanzania"
      },
      {
        "code": 0,
        "type": "City",
        "enNameLanguage": "Manjacaze",
        "location": {
          "lat": -24.7057037,
          "lng": 33.8801952
        },
        "keyAccentLanguage": "manjacaze"
      },
      {
        "code": 0,
        "type": "City",
        "enNameLanguage": "Aldeia Comunais Matuba",
        "location": {
          "lat": -24.4987219,
          "lng": 32.9063166
        },
        "keyAccentLanguage": "aldeia_comunais_matuba"
      },
      {
        "code": 0,
        "type": "City",
        "enNameLanguage": "Aldeia Comunais Fucue",
        "location": {
          "lat": 31.5016951,
          "lng": 34.4668445
        },
        "keyAccentLanguage": "aldeia_comunais_fucue"
      },
      {
        "code": 0,
        "type": "City",
        "enNameLanguage": "Aldeia Comunais Manhica",
        "location": {
          "lat": -25.3923014,
          "lng": 32.7971649
        },
        "keyAccentLanguage": "aldeia_comunais_manhica"
      },
      {
        "code": 0,
        "type": "City",
        "enNameLanguage": "Lagoa Nova",
        "location": {
          "lat": -23.9185653,
          "lng": 32.02976
        },
        "keyAccentLanguage": "lagoa_nova"
      },
      {
        "code": 0,
        "type": "City",
        "enNameLanguage": "Mahuipanse",
        "location": {
          "lat": 31.5016951,
          "lng": 34.4668445
        },
        "keyAccentLanguage": "mahuipanse"
      },
      {
        "code": 0,
        "type": "City",
        "enNameLanguage": "Maalamba",
        "location": {
          "lat": 31.5016951,
          "lng": 34.4668445
        },
        "keyAccentLanguage": "maalamba"
      },
      {
        "code": 0,
        "type": "City",
        "enNameLanguage": "Aldeia Comunais Maconquele",
        "location": {
          "lat": 31.5016951,
          "lng": 34.4668445
        },
        "keyAccentLanguage": "aldeia_comunais_maconquele"
      },
      {
        "code": 0,
        "type": "City",
        "enNameLanguage": "Chibonzane",
        "location": {
          "lat": 31.5016951,
          "lng": 34.4668445
        },
        "keyAccentLanguage": "chibonzane"
      },
      {
        "code": 0,
        "type": "City",
        "enNameLanguage": "Fumane",
        "location": {
          "lat": -22.6335561,
          "lng": 31.83891939999999
        },
        "keyAccentLanguage": "fumane"
      },
      {
        "code": 0,
        "type": "City",
        "enNameLanguage": "A.C. Tsocane",
        "location": {
          "lat": 31.5016951,
          "lng": 34.4668445
        },
        "keyAccentLanguage": "a.c._tsocane"
      },
      {
        "code": 0,
        "type": "City",
        "enNameLanguage": "Aldeia de Pegoes",
        "location": {
          "lat": 31.5016951,
          "lng": 34.4668445
        },
        "keyAccentLanguage": "aldeia_de_pegoes"
      },
      {
        "code": 0,
        "type": "City",
        "enNameLanguage": "Domasse",
        "location": {
          "lat": -22.5086176,
          "lng": 32.6065484
        },
        "keyAccentLanguage": "domasse"
      },
      {
        "code": 0,
        "type": "City",
        "enNameLanguage": "Zulo",
        "location": {
          "lat": 31.5016951,
          "lng": 34.4668445
        },
        "keyAccentLanguage": "zulo"
      },
      {
        "code": 0,
        "type": "City",
        "enNameLanguage": "Aldeia de Freixiel",
        "location": {
          "lat": 41.3160517,
          "lng": -7.247677700000001
        },
        "keyAccentLanguage": "aldeia_de_freixiel"
      },
      {
        "code": 0,
        "type": "City",
        "enNameLanguage": "Chigamane",
        "location": {
          "lat": -22.0210688,
          "lng": 32.7999862
        },
        "keyAccentLanguage": "chigamane"
      },
      {
        "code": 0,
        "type": "City",
        "enNameLanguage": "Magondene",
        "location": {
          "lat": 31.5016951,
          "lng": 34.4668445
        },
        "keyAccentLanguage": "magondene"
      },
      {
        "code": 0,
        "type": "City",
        "enNameLanguage": "Aldeia da Graca",
        "location": {
          "lat": 31.5016951,
          "lng": 34.4668445
        },
        "keyAccentLanguage": "aldeia_da_graca"
      },
      {
        "code": 0,
        "type": "City",
        "enNameLanguage": "Majarenga",
        "location": {
          "lat": -23.2719773,
          "lng": 32.2809844
        },
        "keyAccentLanguage": "majarenga"
      },
      {
        "code": 0,
        "type": "City",
        "enNameLanguage": "Medahula",
        "location": {
          "lat": -22.3496452,
          "lng": 32.415579
        },
        "keyAccentLanguage": "medahula"
      },
      {
        "code": 0,
        "type": "City",
        "enNameLanguage": "Titane",
        "location": {
          "lat": -21.8006735,
          "lng": 32.8676732
        },
        "keyAccentLanguage": "titane"
      },
      {
        "code": 0,
        "type": "City",
        "enNameLanguage": "Pincel",
        "location": {
          "lat": -21.8240084,
          "lng": 31.9380672
        },
        "keyAccentLanguage": "pincel"
      },
      {
        "code": 0,
        "type": "City",
        "enNameLanguage": "Massangena",
        "location": {
          "lat": -21.5468633,
          "lng": 32.9508094
        },
        "keyAccentLanguage": "massangena"
      },
      {
        "code": 0,
        "type": "City",
        "enNameLanguage": "Praia do Bilene",
        "location": {
          "lat": -25.2760482,
          "lng": 33.2511371
        },
        "keyAccentLanguage": "praia_do_bilene"
      },
      {
        "code": 0,
        "type": "City",
        "enNameLanguage": "Praia do Chongoene",
        "location": {
          "lat": -25.0196711,
          "lng": 33.7964444
        },
        "keyAccentLanguage": "praia_do_chongoene"
      },
      {
        "code": 0,
        "type": "City",
        "enNameLanguage": "Chongoene",
        "location": {
          "lat": -25.0196711,
          "lng": 33.7964444
        },
        "keyAccentLanguage": "chongoene"
      },
      {
        "code": 0,
        "type": "City",
        "enNameLanguage": "Aldeia Comunais Ringane",
        "location": {
          "lat": -24.083333,
          "lng": 32.016667
        },
        "keyAccentLanguage": "aldeia_comunais_ringane"
      },
      {
        "code": 0,
        "type": "City",
        "enNameLanguage": "Dindiza",
        "location": {
          "lat": -23.3956744,
          "lng": 33.4565708
        },
        "keyAccentLanguage": "dindiza"
      },
      {
        "code": 0,
        "type": "City",
        "enNameLanguage": "Aldeia Comunais Macarringue",
        "location": {
          "lat": -24.1230347,
          "lng": 32.5924145
        },
        "keyAccentLanguage": "aldeia_comunais_macarringue"
      },
      {
        "code": 0,
        "type": "City",
        "enNameLanguage": "Aldeia de Ourique",
        "location": {
          "lat": 31.5016951,
          "lng": 34.4668445
        },
        "keyAccentLanguage": "aldeia_de_ourique"
      },
      {
        "code": 0,
        "type": "City",
        "enNameLanguage": "Sucane",
        "location": {
          "lat": -21.9418322,
          "lng": 32.8070391
        },
        "keyAccentLanguage": "sucane"
      },
      {
        "code": 0,
        "type": "City",
        "enNameLanguage": "Petula",
        "location": {
          "lat": -22.394824,
          "lng": 32.188795
        },
        "keyAccentLanguage": "petula"
      },
      {
        "code": 0,
        "type": "City",
        "enNameLanguage": "Muchere",
        "location": {
          "lat": -21.4331891,
          "lng": 32.6658893
        },
        "keyAccentLanguage": "muchere"
      },
      {
        "code": 0,
        "type": "City",
        "enNameLanguage": "Chidenguele",
        "location": {
          "lat": -24.9167416,
          "lng": 34.1879571
        },
        "keyAccentLanguage": "chidenguele"
      },
      {
        "code": 0,
        "type": "City",
        "enNameLanguage": "Maungane",
        "location": {
          "lat": -21.95892,
          "lng": 33.151981
        },
        "keyAccentLanguage": "maungane"
      },
      {
        "code": 0,
        "type": "City",
        "enNameLanguage": "Nhavane",
        "location": {
          "lat": -23.449224,
          "lng": 33.3864833
        },
        "keyAccentLanguage": "nhavane"
      },
      {
        "code": 0,
        "type": "City",
        "enNameLanguage": "Messano",
        "location": {
          "lat": 31.5016951,
          "lng": 34.4668445
        },
        "keyAccentLanguage": "messano"
      },
      {
        "code": 0,
        "type": "City",
        "enNameLanguage": "Xai-Xai",
        "location": {
          "lat": -25.060476,
          "lng": 33.6958809
        },
        "keyAccentLanguage": "xai-xai"
      },
      {
        "code": 0,
        "type": "City",
        "enNameLanguage": "Zongoene",
        "location": {
          "lat": -25.1709075,
          "lng": 33.4805151
        },
        "keyAccentLanguage": "zongoene"
      },
      {
        "code": 0,
        "type": "City",
        "enNameLanguage": "San Martinho",
        "location": {
          "lat": 31.5016951,
          "lng": 34.4668445
        },
        "keyAccentLanguage": "san_martinho"
      },
      {
        "code": 0,
        "type": "City",
        "enNameLanguage": "Alto Changane",
        "location": {
          "lat": -24.3141536,
          "lng": 33.6316622
        },
        "keyAccentLanguage": "alto_changane"
      },
      {
        "code": 0,
        "type": "City",
        "enNameLanguage": "Machaila",
        "location": {
          "lat": -22.2555376,
          "lng": 32.9155906
        },
        "keyAccentLanguage": "machaila"
      },
      {
        "code": 0,
        "type": "City",
        "enNameLanguage": "Combomune",
        "location": {
          "lat": -23.4651808,
          "lng": 32.4475947
        },
        "keyAccentLanguage": "combomune"
      },
      {
        "code": 0,
        "type": "City",
        "enNameLanguage": "Nalazi",
        "location": {
          "lat": -24.0567513,
          "lng": 33.3289733
        },
        "keyAccentLanguage": "nalazi"
      },
      {
        "code": 0,
        "type": "City",
        "enNameLanguage": "Sao Jorge do Limpopo",
        "location": {
          "lat": -22.7317047,
          "lng": 32.0666997
        },
        "keyAccentLanguage": "sao_jorge_do_limpopo"
      },
      {
        "code": 0,
        "type": "City",
        "enNameLanguage": "Chefu",
        "location": {
          "lat": -22.2085234,
          "lng": 32.4622927
        },
        "keyAccentLanguage": "chefu"
      },
      {
        "code": 0,
        "type": "City",
        "enNameLanguage": "Meginge",
        "location": {
          "lat": -23.9233791,
          "lng": 32.943883
        },
        "keyAccentLanguage": "meginge"
      },
      {
        "code": 0,
        "type": "City",
        "enNameLanguage": "Macandze",
        "location": {
          "lat": -23.5793763,
          "lng": 33.8620592
        },
        "keyAccentLanguage": "macandze"
      },
      {
        "code": 0,
        "type": "City",
        "enNameLanguage": "Mazivila",
        "location": {
          "lat": -24.8806368,
          "lng": 33.1000559
        },
        "keyAccentLanguage": "mazivila"
      },
      {
        "code": 0,
        "type": "City",
        "enNameLanguage": "Mambeco",
        "location": {
          "lat": -22.9778187,
          "lng": 33.2517722
        },
        "keyAccentLanguage": "mambeco"
      },
      {
        "code": 0,
        "type": "City",
        "enNameLanguage": "Pumane",
        "location": {
          "lat": -23.4,
          "lng": 33.1666669
        },
        "keyAccentLanguage": "pumane"
      },
      {
        "code": 0,
        "type": "City",
        "enNameLanguage": "Mepuze",
        "location": {
          "lat": -23.1304984,
          "lng": 32.2582504
        },
        "keyAccentLanguage": "mepuze"
      },
      {
        "code": 0,
        "type": "City",
        "enNameLanguage": "Praia do Xai-Xai",
        "location": {
          "lat": -25.1143308,
          "lng": 33.7426922
        },
        "keyAccentLanguage": "praia_do_xai-xai"
      },
      {
        "code": 0,
        "type": "City",
        "enNameLanguage": "Mavue",
        "location": {
          "lat": -21.3929662,
          "lng": 32.5174729
        },
        "keyAccentLanguage": "mavue"
      },
      {
        "code": 0,
        "type": "City",
        "enNameLanguage": "Pafuri",
        "location": {
          "lat": -22.4500975,
          "lng": 31.321279
        },
        "keyAccentLanguage": "pafuri"
      }
    ],
    "enNameLanguage": "Gaza",
    "keyAccentLanguage": "gaza"
  },
  {
    "code": 0,
    "type": "State",
    "location": {
      "lat": -23.8662153,
      "lng": 35.3826756
    },
    "districtList": [
      {
        "code": 0,
        "type": "City",
        "enNameLanguage": "Cumbana",
        "location": {
          "lat": -24.1169344,
          "lng": 35.2144585
        },
        "keyAccentLanguage": "cumbana"
      },
      {
        "code": 0,
        "type": "City",
        "enNameLanguage": "Aldeia dos Sao Guerra",
        "location": {
          "lat": -23.8790203,
          "lng": 35.4025048
        },
        "keyAccentLanguage": "aldeia_dos_sao_guerra"
      },
      {
        "code": 0,
        "type": "City",
        "enNameLanguage": "Tessolo",
        "location": {
          "lat": -23.8790203,
          "lng": 35.4025048
        },
        "keyAccentLanguage": "tessolo"
      },
      {
        "code": 0,
        "type": "City",
        "enNameLanguage": "Tome",
        "location": {
          "lat": -23.8790203,
          "lng": 35.4025048
        },
        "keyAccentLanguage": "tome"
      },
      {
        "code": 0,
        "type": "City",
        "enNameLanguage": "Morrumbene",
        "location": {
          "lat": -23.6581787,
          "lng": 35.3383954
        },
        "keyAccentLanguage": "morrumbene"
      },
      {
        "code": 0,
        "type": "City",
        "enNameLanguage": "Marao",
        "location": {
          "lat": -24.3628671,
          "lng": 34.1114621
        },
        "keyAccentLanguage": "marao"
      },
      {
        "code": 0,
        "type": "City",
        "enNameLanguage": "Maxixe",
        "location": {
          "lat": -23.8606069,
          "lng": 35.3468034
        },
        "keyAccentLanguage": "maxixe"
      },
      {
        "code": 0,
        "type": "City",
        "enNameLanguage": "Afonso",
        "location": {
          "lat": -23.8790203,
          "lng": 35.4025048
        },
        "keyAccentLanguage": "afonso"
      },
      {
        "code": 0,
        "type": "City",
        "enNameLanguage": "Aldeia Bulao",
        "location": {
          "lat": -23.8790203,
          "lng": 35.4025048
        },
        "keyAccentLanguage": "aldeia_bulao"
      },
      {
        "code": 0,
        "type": "City",
        "enNameLanguage": "Antonio",
        "location": {
          "lat": -23.8790203,
          "lng": 35.4025048
        },
        "keyAccentLanguage": "antonio"
      },
      {
        "code": 0,
        "type": "City",
        "enNameLanguage": "Alberto",
        "location": {
          "lat": -23.8790203,
          "lng": 35.4025048
        },
        "keyAccentLanguage": "alberto"
      },
      {
        "code": 0,
        "type": "City",
        "enNameLanguage": "Aldeia Chipone",
        "location": {
          "lat": -23.8790203,
          "lng": 35.4025048
        },
        "keyAccentLanguage": "aldeia_chipone"
      },
      {
        "code": 0,
        "type": "City",
        "enNameLanguage": "Agostinho",
        "location": {
          "lat": -23.8790203,
          "lng": 35.4025048
        },
        "keyAccentLanguage": "agostinho"
      },
      {
        "code": 0,
        "type": "City",
        "enNameLanguage": "Abel",
        "location": {
          "lat": -23.8790203,
          "lng": 35.4025048
        },
        "keyAccentLanguage": "abel"
      },
      {
        "code": 0,
        "type": "City",
        "enNameLanguage": "A. Manjala",
        "location": {
          "lat": -23.8790203,
          "lng": 35.4025048
        },
        "keyAccentLanguage": "a._manjala"
      },
      {
        "code": 0,
        "type": "City",
        "enNameLanguage": "Aldeia Daudo",
        "location": {
          "lat": -23.8790203,
          "lng": 35.4025048
        },
        "keyAccentLanguage": "aldeia_daudo"
      },
      {
        "code": 0,
        "type": "City",
        "enNameLanguage": "A. Wong",
        "location": {
          "lat": -23.8790203,
          "lng": 35.4025048
        },
        "keyAccentLanguage": "a._wong"
      },
      {
        "code": 0,
        "type": "City",
        "enNameLanguage": "Alcino Macie",
        "location": {
          "lat": -23.8790203,
          "lng": 35.4025048
        },
        "keyAccentLanguage": "alcino_macie"
      },
      {
        "code": 0,
        "type": "City",
        "enNameLanguage": "Aldeia Camela",
        "location": {
          "lat": -23.8790203,
          "lng": 35.4025048
        },
        "keyAccentLanguage": "aldeia_camela"
      },
      {
        "code": 0,
        "type": "City",
        "enNameLanguage": "Abobelane",
        "location": {
          "lat": -23.8790203,
          "lng": 35.4025048
        },
        "keyAccentLanguage": "abobelane"
      },
      {
        "code": 0,
        "type": "City",
        "enNameLanguage": "Aldeia Bolande",
        "location": {
          "lat": -23.8790203,
          "lng": 35.4025048
        },
        "keyAccentLanguage": "aldeia_bolande"
      },
      {
        "code": 0,
        "type": "City",
        "enNameLanguage": "Albano",
        "location": {
          "lat": -23.8790203,
          "lng": 35.4025048
        },
        "keyAccentLanguage": "albano"
      },
      {
        "code": 0,
        "type": "City",
        "enNameLanguage": "Aldeia Cuambe",
        "location": {
          "lat": -23.8790203,
          "lng": 35.4025048
        },
        "keyAccentLanguage": "aldeia_cuambe"
      },
      {
        "code": 0,
        "type": "City",
        "enNameLanguage": "Majime",
        "location": {
          "lat": -23.8790203,
          "lng": 35.4025048
        },
        "keyAccentLanguage": "majime"
      },
      {
        "code": 0,
        "type": "City",
        "enNameLanguage": "Covane",
        "location": {
          "lat": -21.3630181,
          "lng": 33.9429458
        },
        "keyAccentLanguage": "covane"
      },
      {
        "code": 0,
        "type": "City",
        "enNameLanguage": "Aldeia Lipirize",
        "location": {
          "lat": -23.8790203,
          "lng": 35.4025048
        },
        "keyAccentLanguage": "aldeia_lipirize"
      },
      {
        "code": 0,
        "type": "City",
        "enNameLanguage": "Aldeia Novele",
        "location": {
          "lat": -23.8790203,
          "lng": 35.4025048
        },
        "keyAccentLanguage": "aldeia_novele"
      },
      {
        "code": 0,
        "type": "City",
        "enNameLanguage": "Chipobila",
        "location": {
          "lat": -21.53537,
          "lng": 33.289501
        },
        "keyAccentLanguage": "chipobila"
      },
      {
        "code": 0,
        "type": "City",
        "enNameLanguage": "Bartolomeu Dias",
        "location": {
          "lat": -23.8790203,
          "lng": 35.4025048
        },
        "keyAccentLanguage": "bartolomeu_dias"
      },
      {
        "code": 0,
        "type": "City",
        "enNameLanguage": "Agemeda",
        "location": {
          "lat": -23.8790203,
          "lng": 35.4025048
        },
        "keyAccentLanguage": "agemeda"
      },
      {
        "code": 0,
        "type": "City",
        "enNameLanguage": "Macassa",
        "location": {
          "lat": -21.1103414,
          "lng": 34.8076495
        },
        "keyAccentLanguage": "macassa"
      },
      {
        "code": 0,
        "type": "City",
        "enNameLanguage": "Aldeia Machava",
        "location": {
          "lat": -23.8790203,
          "lng": 35.4025048
        },
        "keyAccentLanguage": "aldeia_machava"
      },
      {
        "code": 0,
        "type": "City",
        "enNameLanguage": "Abel Maueua",
        "location": {
          "lat": -23.8790203,
          "lng": 35.4025048
        },
        "keyAccentLanguage": "abel_maueua"
      },
      {
        "code": 0,
        "type": "City",
        "enNameLanguage": "Inhambane",
        "location": {
          "lat": -23.8790203,
          "lng": 35.4025048
        },
        "keyAccentLanguage": "inhambane"
      },
      {
        "code": 0,
        "type": "City",
        "enNameLanguage": "Chichocane",
        "location": {
          "lat": -22.1703662,
          "lng": 35.3036798
        },
        "keyAccentLanguage": "chichocane"
      },
      {
        "code": 0,
        "type": "City",
        "enNameLanguage": "Ingleche",
        "location": {
          "lat": -22.2160047,
          "lng": 33.6698334
        },
        "keyAccentLanguage": "ingleche"
      },
      {
        "code": 0,
        "type": "City",
        "enNameLanguage": "Aldeia Macasse",
        "location": {
          "lat": -23.8790203,
          "lng": 35.4025048
        },
        "keyAccentLanguage": "aldeia_macasse"
      },
      {
        "code": 0,
        "type": "City",
        "enNameLanguage": "Madade",
        "location": {
          "lat": -21.9169384,
          "lng": 34.2602199
        },
        "keyAccentLanguage": "madade"
      },
      {
        "code": 0,
        "type": "City",
        "enNameLanguage": "Mexoteira",
        "location": {
          "lat": -23.8790203,
          "lng": 35.4025048
        },
        "keyAccentLanguage": "mexoteira"
      },
      {
        "code": 0,
        "type": "City",
        "enNameLanguage": "Funhalouro",
        "location": {
          "lat": -23.0791827,
          "lng": 34.3643423
        },
        "keyAccentLanguage": "funhalouro"
      },
      {
        "code": 0,
        "type": "City",
        "enNameLanguage": "Uoteche",
        "location": {
          "lat": -23.8790203,
          "lng": 35.4025048
        },
        "keyAccentLanguage": "uoteche"
      },
      {
        "code": 0,
        "type": "City",
        "enNameLanguage": "Aldeia Majongota",
        "location": {
          "lat": -23.8790203,
          "lng": 35.4025048
        },
        "keyAccentLanguage": "aldeia_majongota"
      },
      {
        "code": 0,
        "type": "City",
        "enNameLanguage": "Pomene",
        "location": {
          "lat": -23.8707181,
          "lng": 35.3836893
        },
        "keyAccentLanguage": "pomene"
      },
      {
        "code": 0,
        "type": "City",
        "enNameLanguage": "Aldeia Naedane",
        "location": {
          "lat": -23.8790203,
          "lng": 35.4025048
        },
        "keyAccentLanguage": "aldeia_naedane"
      },
      {
        "code": 0,
        "type": "City",
        "enNameLanguage": "Samuel",
        "location": {
          "lat": -23.8790203,
          "lng": 35.4025048
        },
        "keyAccentLanguage": "samuel"
      },
      {
        "code": 0,
        "type": "City",
        "enNameLanguage": "Fornos",
        "location": {
          "lat": -22.3916404,
          "lng": 34.833441
        },
        "keyAccentLanguage": "fornos"
      },
      {
        "code": 0,
        "type": "City",
        "enNameLanguage": "Massinga",
        "location": {
          "lat": -23.3288979,
          "lng": 35.374823
        },
        "keyAccentLanguage": "massinga"
      },
      {
        "code": 0,
        "type": "City",
        "enNameLanguage": "Afo",
        "location": {
          "lat": -22.4996226,
          "lng": 35.4448658
        },
        "keyAccentLanguage": "afo"
      },
      {
        "code": 0,
        "type": "City",
        "enNameLanguage": "Urrene",
        "location": {
          "lat": -23.9434383,
          "lng": 34.8720068
        },
        "keyAccentLanguage": "urrene"
      },
      {
        "code": 0,
        "type": "City",
        "enNameLanguage": "Machunguele",
        "location": {
          "lat": -22.758317,
          "lng": 35.2628754
        },
        "keyAccentLanguage": "machunguele"
      },
      {
        "code": 0,
        "type": "City",
        "enNameLanguage": "Maquecha",
        "location": {
          "lat": -21.5022059,
          "lng": 33.5241408
        },
        "keyAccentLanguage": "maquecha"
      },
      {
        "code": 0,
        "type": "City",
        "enNameLanguage": "Muabsa",
        "location": {
          "lat": -22.2250619,
          "lng": 34.7863957
        },
        "keyAccentLanguage": "muabsa"
      },
      {
        "code": 0,
        "type": "City",
        "enNameLanguage": "Mucumbi",
        "location": {
          "lat": -24.4488294,
          "lng": 34.785029
        },
        "keyAccentLanguage": "mucumbi"
      },
      {
        "code": 0,
        "type": "City",
        "enNameLanguage": "Praia de Zavora",
        "location": {
          "lat": -24.5180556,
          "lng": 35.2005556
        },
        "keyAccentLanguage": "praia_de_zavora"
      },
      {
        "code": 0,
        "type": "City",
        "enNameLanguage": "Jangamo",
        "location": {
          "lat": -24.1152811,
          "lng": 35.3123257
        },
        "keyAccentLanguage": "jangamo"
      },
      {
        "code": 0,
        "type": "City",
        "enNameLanguage": "Pangue",
        "location": {
          "lat": -21.9173468,
          "lng": 34.3685046
        },
        "keyAccentLanguage": "pangue"
      },
      {
        "code": 0,
        "type": "City",
        "enNameLanguage": "Malanguene",
        "location": {
          "lat": -21.3290459,
          "lng": 34.9181889
        },
        "keyAccentLanguage": "malanguene"
      },
      {
        "code": 0,
        "type": "City",
        "enNameLanguage": "Abedula",
        "location": {
          "lat": -24.2577201,
          "lng": 35.0718021
        },
        "keyAccentLanguage": "abedula"
      },
      {
        "code": 0,
        "type": "City",
        "enNameLanguage": "Mabote",
        "location": {
          "lat": -22.0502234,
          "lng": 34.1420679
        },
        "keyAccentLanguage": "mabote"
      },
      {
        "code": 0,
        "type": "City",
        "enNameLanguage": "Sitila",
        "location": {
          "lat": -23.1665219,
          "lng": 35.0567114
        },
        "keyAccentLanguage": "sitila"
      },
      {
        "code": 0,
        "type": "City",
        "enNameLanguage": "Tesenane",
        "location": {
          "lat": -22.8273074,
          "lng": 34.0307246
        },
        "keyAccentLanguage": "tesenane"
      },
      {
        "code": 0,
        "type": "City",
        "enNameLanguage": "Camo-Camo",
        "location": {
          "lat": -22.8281045,
          "lng": 34.464601
        },
        "keyAccentLanguage": "camo-camo"
      },
      {
        "code": 0,
        "type": "City",
        "enNameLanguage": "Jofane",
        "location": {
          "lat": -21.6708283,
          "lng": 35.0911142
        },
        "keyAccentLanguage": "jofane"
      },
      {
        "code": 0,
        "type": "City",
        "enNameLanguage": "Inhassoro",
        "location": {
          "lat": -21.5394174,
          "lng": 35.1872321
        },
        "keyAccentLanguage": "inhassoro"
      },
      {
        "code": 0,
        "type": "City",
        "enNameLanguage": "Nhachengue",
        "location": {
          "lat": -22.8450159,
          "lng": 35.178377
        },
        "keyAccentLanguage": "nhachengue"
      },
      {
        "code": 0,
        "type": "City",
        "enNameLanguage": "Coguno",
        "location": {
          "lat": -24.3893763,
          "lng": 34.5521465
        },
        "keyAccentLanguage": "coguno"
      },
      {
        "code": 0,
        "type": "City",
        "enNameLanguage": "Mabinze",
        "location": {
          "lat": -21.1842692,
          "lng": 34.6103213
        },
        "keyAccentLanguage": "mabinze"
      },
      {
        "code": 0,
        "type": "City",
        "enNameLanguage": "Cometela",
        "location": {
          "lat": -21.849492,
          "lng": 34.4794286
        },
        "keyAccentLanguage": "cometela"
      },
      {
        "code": 0,
        "type": "City",
        "enNameLanguage": "Cheline",
        "location": {
          "lat": -22.6297526,
          "lng": 35.1255028
        },
        "keyAccentLanguage": "cheline"
      },
      {
        "code": 0,
        "type": "City",
        "enNameLanguage": "Panda",
        "location": {
          "lat": -24.0631852,
          "lng": 34.72849480000001
        },
        "keyAccentLanguage": "panda"
      },
      {
        "code": 0,
        "type": "City",
        "enNameLanguage": "Rolane",
        "location": {
          "lat": -21.5019637,
          "lng": 34.4281436
        },
        "keyAccentLanguage": "rolane"
      },
      {
        "code": 0,
        "type": "City",
        "enNameLanguage": "Vilanculos",
        "location": {
          "lat": -21.9996225,
          "lng": 35.3186918
        },
        "keyAccentLanguage": "vilanculos"
      },
      {
        "code": 0,
        "type": "City",
        "enNameLanguage": "Praia do Tofo",
        "location": {
          "lat": -23.8568821,
          "lng": 35.5480014
        },
        "keyAccentLanguage": "praia_do_tofo"
      },
      {
        "code": 0,
        "type": "City",
        "enNameLanguage": "Componde",
        "location": {
          "lat": -22.5109822,
          "lng": 34.6317205
        },
        "keyAccentLanguage": "componde"
      },
      {
        "code": 0,
        "type": "City",
        "enNameLanguage": "Homoine",
        "location": {
          "lat": -23.882309,
          "lng": 35.1516287
        },
        "keyAccentLanguage": "homoine"
      },
      {
        "code": 0,
        "type": "City",
        "enNameLanguage": "Macovane",
        "location": {
          "lat": -21.5019418,
          "lng": 35.0415698
        },
        "keyAccentLanguage": "macovane"
      },
      {
        "code": 0,
        "type": "City",
        "enNameLanguage": "Luido",
        "location": {
          "lat": -21.5106687,
          "lng": 34.5846768
        },
        "keyAccentLanguage": "luido"
      },
      {
        "code": 0,
        "type": "City",
        "enNameLanguage": "Praia do Jangamo",
        "location": {
          "lat": -24.1152811,
          "lng": 35.3123257
        },
        "keyAccentLanguage": "praia_do_jangamo"
      },
      {
        "code": 0,
        "type": "City",
        "enNameLanguage": "Nova Mambone",
        "location": {
          "lat": -20.9884065,
          "lng": 35.0204985
        },
        "keyAccentLanguage": "nova_mambone"
      },
      {
        "code": 0,
        "type": "City",
        "enNameLanguage": "Pembe",
        "location": {
          "lat": -23.744741,
          "lng": 34.9795981
        },
        "keyAccentLanguage": "pembe"
      },
      {
        "code": 0,
        "type": "City",
        "enNameLanguage": "Punguene",
        "location": {
          "lat": -23.8479607,
          "lng": 34.8218205
        },
        "keyAccentLanguage": "punguene"
      },
      {
        "code": 0,
        "type": "City",
        "enNameLanguage": "Quissico",
        "location": {
          "lat": -24.7182494,
          "lng": 34.7436923
        },
        "keyAccentLanguage": "quissico"
      },
      {
        "code": 0,
        "type": "City",
        "enNameLanguage": "Umbane",
        "location": {
          "lat": -21.6648592,
          "lng": 34.03838380000001
        },
        "keyAccentLanguage": "umbane"
      },
      {
        "code": 0,
        "type": "City",
        "enNameLanguage": "Zimane",
        "location": {
          "lat": -23.8790203,
          "lng": 35.4025048
        },
        "keyAccentLanguage": "zimane"
      },
      {
        "code": 0,
        "type": "City",
        "enNameLanguage": "Chituta",
        "location": {
          "lat": -21.8922768,
          "lng": 33.478988
        },
        "keyAccentLanguage": "chituta"
      },
      {
        "code": 0,
        "type": "City",
        "enNameLanguage": "Talofo",
        "location": {
          "lat": -22.1057,
          "lng": 34.87151
        },
        "keyAccentLanguage": "talofo"
      },
      {
        "code": 0,
        "type": "City",
        "enNameLanguage": "Pambarra",
        "location": {
          "lat": -21.9965525,
          "lng": 35.1454417
        },
        "keyAccentLanguage": "pambarra"
      },
      {
        "code": 0,
        "type": "City",
        "enNameLanguage": "Zandamela",
        "location": {
          "lat": -24.790024,
          "lng": 34.315767
        },
        "keyAccentLanguage": "zandamela"
      },
      {
        "code": 0,
        "type": "City",
        "enNameLanguage": "Lindela",
        "location": {
          "lat": -24.0941025,
          "lng": 35.2738987
        },
        "keyAccentLanguage": "lindela"
      },
      {
        "code": 0,
        "type": "City",
        "enNameLanguage": "Mavanza",
        "location": {
          "lat": -22.7193108,
          "lng": 35.1392543
        },
        "keyAccentLanguage": "mavanza"
      },
      {
        "code": 0,
        "type": "City",
        "enNameLanguage": "Chicomo",
        "location": {
          "lat": -22.845053,
          "lng": 35.1784141
        },
        "keyAccentLanguage": "chicomo"
      },
      {
        "code": 0,
        "type": "City",
        "enNameLanguage": "Inharrime",
        "location": {
          "lat": -24.4733653,
          "lng": 35.0250484
        },
        "keyAccentLanguage": "inharrime"
      },
      {
        "code": 0,
        "type": "City",
        "enNameLanguage": "Unguana",
        "location": {
          "lat": -23.0618453,
          "lng": 35.2677208
        },
        "keyAccentLanguage": "unguana"
      },
      {
        "code": 0,
        "type": "City",
        "enNameLanguage": "Mocoduene",
        "location": {
          "lat": -23.6588164,
          "lng": 35.1571278
        },
        "keyAccentLanguage": "mocoduene"
      },
      {
        "code": 0,
        "type": "City",
        "enNameLanguage": "Mapinhane",
        "location": {
          "lat": -22.2576192,
          "lng": 35.1103736
        },
        "keyAccentLanguage": "mapinhane"
      },
      {
        "code": 0,
        "type": "City",
        "enNameLanguage": "Vila Franca do Save",
        "location": {
          "lat": -23.8790203,
          "lng": 35.4025048
        },
        "keyAccentLanguage": "vila_franca_do_save"
      },
      {
        "code": 0,
        "type": "City",
        "enNameLanguage": "Rio das Pedras",
        "location": {
          "lat": -23.194828,
          "lng": 35.3829645
        },
        "keyAccentLanguage": "rio_das_pedras"
      },
      {
        "code": 0,
        "type": "City",
        "enNameLanguage": "Rumbacaca",
        "location": {
          "lat": -21.8133588,
          "lng": 34.9044827
        },
        "keyAccentLanguage": "rumbacaca"
      },
      {
        "code": 0,
        "type": "City",
        "enNameLanguage": "Jofane",
        "location": {
          "lat": -21.6708283,
          "lng": 35.0911142
        },
        "keyAccentLanguage": "jofane"
      },
      {
        "code": 0,
        "type": "City",
        "enNameLanguage": "Macassa",
        "location": {
          "lat": -21.1103414,
          "lng": 34.8076495
        },
        "keyAccentLanguage": "macassa"
      }
    ],
    "enNameLanguage": "Inhambane",
    "keyAccentLanguage": "inhambane"
  },
  {
    "code": 0,
    "type": "State",
    "location": {
      "lat": 50.134664,
      "lng": -0.357056
    },
    "districtList": [
      {
        "code": 0,
        "type": "City",
        "enNameLanguage": "Bandula",
        "location": {
          "lat": -19.0294744,
          "lng": 33.1548332
        },
        "keyAccentLanguage": "bandula"
      },
      {
        "code": 0,
        "type": "City",
        "enNameLanguage": "Chimoio",
        "location": {
          "lat": -19.1054879,
          "lng": 33.4607744
        },
        "keyAccentLanguage": "chimoio"
      },
      {
        "code": 0,
        "type": "City",
        "enNameLanguage": "Macossa",
        "location": {
          "lat": -17.8991697,
          "lng": 33.9331874
        },
        "keyAccentLanguage": "macossa"
      },
      {
        "code": 0,
        "type": "City",
        "enNameLanguage": "Guro",
        "location": {
          "lat": -17.4192073,
          "lng": 33.3542258
        },
        "keyAccentLanguage": "guro"
      },
      {
        "code": 0,
        "type": "City",
        "enNameLanguage": "Manica",
        "location": {
          "lat": 49.114712,
          "lng": -1.3115949
        },
        "keyAccentLanguage": "manica"
      },
      {
        "code": 0,
        "type": "City",
        "enNameLanguage": "Gondola",
        "location": {
          "lat": -19.0832069,
          "lng": 33.6455502
        },
        "keyAccentLanguage": "gondola"
      },
      {
        "code": 0,
        "type": "City",
        "enNameLanguage": "Vanduzi",
        "location": {
          "lat": -18.94525,
          "lng": 33.26263
        },
        "keyAccentLanguage": "vanduzi"
      },
      {
        "code": 0,
        "type": "City",
        "enNameLanguage": "Mandie",
        "location": {
          "lat": -16.4586124,
          "lng": 33.5336078
        },
        "keyAccentLanguage": "mandie"
      },
      {
        "code": 0,
        "type": "City",
        "enNameLanguage": "Acampamento",
        "location": {
          "lat": -18.9438274,
          "lng": 32.8648538
        },
        "keyAccentLanguage": "acampamento"
      },
      {
        "code": 0,
        "type": "City",
        "enNameLanguage": "Aldeia Julius Nyerere",
        "location": {
          "lat": -18.9438274,
          "lng": 32.8648538
        },
        "keyAccentLanguage": "aldeia_julius_nyerere"
      },
      {
        "code": 0,
        "type": "City",
        "enNameLanguage": "Aldeia Devo",
        "location": {
          "lat": -18.9438274,
          "lng": 32.8648538
        },
        "keyAccentLanguage": "aldeia_devo"
      },
      {
        "code": 0,
        "type": "City",
        "enNameLanguage": "Aldeia Nhamatema",
        "location": {
          "lat": -18.9438274,
          "lng": 32.8648538
        },
        "keyAccentLanguage": "aldeia_nhamatema"
      },
      {
        "code": 0,
        "type": "City",
        "enNameLanguage": "Baracussecua",
        "location": {
          "lat": -19.333173,
          "lng": 33.4987436
        },
        "keyAccentLanguage": "baracussecua"
      },
      {
        "code": 0,
        "type": "City",
        "enNameLanguage": "Aldeia Revue",
        "location": {
          "lat": -18.9438274,
          "lng": 32.8648538
        },
        "keyAccentLanguage": "aldeia_revue"
      },
      {
        "code": 0,
        "type": "City",
        "enNameLanguage": "Assicante",
        "location": {
          "lat": -19.7860868,
          "lng": 33.3536516
        },
        "keyAccentLanguage": "assicante"
      },
      {
        "code": 0,
        "type": "City",
        "enNameLanguage": "Beira",
        "location": {
          "lat": -18.9438274,
          "lng": 32.8648538
        },
        "keyAccentLanguage": "beira"
      },
      {
        "code": 0,
        "type": "City",
        "enNameLanguage": "Barragem",
        "location": {
          "lat": -18.9438274,
          "lng": 32.8648538
        },
        "keyAccentLanguage": "barragem"
      },
      {
        "code": 0,
        "type": "City",
        "enNameLanguage": "Batia",
        "location": {
          "lat": -20.849614,
          "lng": 33.2905758
        },
        "keyAccentLanguage": "batia"
      },
      {
        "code": 0,
        "type": "City",
        "enNameLanguage": "Ambassa",
        "location": {
          "lat": -21.1663042,
          "lng": 33.8414118
        },
        "keyAccentLanguage": "ambassa"
      },
      {
        "code": 0,
        "type": "City",
        "enNameLanguage": "Aldeia Mussengere",
        "location": {
          "lat": -18.9438274,
          "lng": 32.8648538
        },
        "keyAccentLanguage": "aldeia_mussengere"
      },
      {
        "code": 0,
        "type": "City",
        "enNameLanguage": "Andrada",
        "location": {
          "lat": -18.8978788,
          "lng": 32.8582763
        },
        "keyAccentLanguage": "andrada"
      },
      {
        "code": 0,
        "type": "City",
        "enNameLanguage": "Aldeia Moronde",
        "location": {
          "lat": -18.9438274,
          "lng": 32.8648538
        },
        "keyAccentLanguage": "aldeia_moronde"
      },
      {
        "code": 0,
        "type": "City",
        "enNameLanguage": "Alberto",
        "location": {
          "lat": -28.6261873,
          "lng": -52.8578478
        },
        "keyAccentLanguage": "alberto"
      },
      {
        "code": 0,
        "type": "City",
        "enNameLanguage": "Aldeia Panze",
        "location": {
          "lat": -18.9438274,
          "lng": 32.8648538
        },
        "keyAccentLanguage": "aldeia_panze"
      },
      {
        "code": 0,
        "type": "City",
        "enNameLanguage": "Belas",
        "location": {
          "lat": -18.9438274,
          "lng": 32.8648538
        },
        "keyAccentLanguage": "belas"
      },
      {
        "code": 0,
        "type": "City",
        "enNameLanguage": "Alfandega",
        "location": {
          "lat": -17.1460068,
          "lng": 34.1837864
        },
        "keyAccentLanguage": "alfandega"
      },
      {
        "code": 0,
        "type": "City",
        "enNameLanguage": "Alfaiate",
        "location": {
          "lat": -16.6750693,
          "lng": 34.1588879
        },
        "keyAccentLanguage": "alfaiate"
      },
      {
        "code": 0,
        "type": "City",
        "enNameLanguage": "Azevedo",
        "location": {
          "lat": -18.9438274,
          "lng": 32.8648538
        },
        "keyAccentLanguage": "azevedo"
      },
      {
        "code": 0,
        "type": "City",
        "enNameLanguage": "Bandule",
        "location": {
          "lat": -18,
          "lng": 33.616667
        },
        "keyAccentLanguage": "bandule"
      },
      {
        "code": 0,
        "type": "City",
        "enNameLanguage": "Aldeia Chuala",
        "location": {
          "lat": -18.9438274,
          "lng": 32.8648538
        },
        "keyAccentLanguage": "aldeia_chuala"
      },
      {
        "code": 0,
        "type": "City",
        "enNameLanguage": "Antonio",
        "location": {
          "lat": 39.08403,
          "lng": 17.1218146
        },
        "keyAccentLanguage": "antonio"
      },
      {
        "code": 0,
        "type": "City",
        "enNameLanguage": "Aldeia Honde",
        "location": {
          "lat": -18.3256944,
          "lng": 33.2040171
        },
        "keyAccentLanguage": "aldeia_honde"
      },
      {
        "code": 0,
        "type": "City",
        "enNameLanguage": "Aldeia Fombe",
        "location": {
          "lat": -18.054867,
          "lng": 33.51844820000001
        },
        "keyAccentLanguage": "aldeia_fombe"
      },
      {
        "code": 0,
        "type": "City",
        "enNameLanguage": "Baulane",
        "location": {
          "lat": -24.7691434,
          "lng": 34.5494643
        },
        "keyAccentLanguage": "baulane"
      },
      {
        "code": 0,
        "type": "City",
        "enNameLanguage": "Andissene",
        "location": {
          "lat": -16.7118035,
          "lng": 33.3428685
        },
        "keyAccentLanguage": "andissene"
      },
      {
        "code": 0,
        "type": "City",
        "enNameLanguage": "Amparira",
        "location": {
          "lat": -19.5926631,
          "lng": 33.5912888
        },
        "keyAccentLanguage": "amparira"
      },
      {
        "code": 0,
        "type": "City",
        "enNameLanguage": "Beque",
        "location": {
          "lat": -18.9438274,
          "lng": 32.8648538
        },
        "keyAccentLanguage": "beque"
      },
      {
        "code": 0,
        "type": "City",
        "enNameLanguage": "Birana",
        "location": {
          "lat": -21.0043133,
          "lng": 33.5878504
        },
        "keyAccentLanguage": "birana"
      },
      {
        "code": 0,
        "type": "City",
        "enNameLanguage": "Banguira",
        "location": {
          "lat": -19.635916,
          "lng": 33.149397
        },
        "keyAccentLanguage": "banguira"
      },
      {
        "code": 0,
        "type": "City",
        "enNameLanguage": "Quedas",
        "location": {
          "lat": -18.9438274,
          "lng": 32.8648538
        },
        "keyAccentLanguage": "quedas"
      },
      {
        "code": 0,
        "type": "City",
        "enNameLanguage": "Anjugane",
        "location": {
          "lat": -19.6748916,
          "lng": 33.73613479999999
        },
        "keyAccentLanguage": "anjugane"
      },
      {
        "code": 0,
        "type": "City",
        "enNameLanguage": "Arucato",
        "location": {
          "lat": -20.6934012,
          "lng": 33.4654373
        },
        "keyAccentLanguage": "arucato"
      },
      {
        "code": 0,
        "type": "City",
        "enNameLanguage": "Inchope",
        "location": {
          "lat": -19.209867,
          "lng": 33.9359756
        },
        "keyAccentLanguage": "inchope"
      },
      {
        "code": 0,
        "type": "City",
        "enNameLanguage": "Aldeia Nhocassaro",
        "location": {
          "lat": -18.3790544,
          "lng": 33.6990836
        },
        "keyAccentLanguage": "aldeia_nhocassaro"
      },
      {
        "code": 0,
        "type": "City",
        "enNameLanguage": "Bandacamua",
        "location": {
          "lat": -19.1732512,
          "lng": 33.1436503
        },
        "keyAccentLanguage": "bandacamua"
      },
      {
        "code": 0,
        "type": "City",
        "enNameLanguage": "Amatongas",
        "location": {
          "lat": -19.1819714,
          "lng": 33.76884150000001
        },
        "keyAccentLanguage": "amatongas"
      },
      {
        "code": 0,
        "type": "City",
        "enNameLanguage": "Dombe",
        "location": {
          "lat": -19.974932,
          "lng": 33.3977007
        },
        "keyAccentLanguage": "dombe"
      },
      {
        "code": 0,
        "type": "City",
        "enNameLanguage": "Chirape",
        "location": {
          "lat": -21.3108083,
          "lng": 33.5614664
        },
        "keyAccentLanguage": "chirape"
      },
      {
        "code": 0,
        "type": "City",
        "enNameLanguage": "Candeado",
        "location": {
          "lat": -19.315846,
          "lng": 32.9799994
        },
        "keyAccentLanguage": "candeado"
      },
      {
        "code": 0,
        "type": "City",
        "enNameLanguage": "Bandeira",
        "location": {
          "lat": -17.2445381,
          "lng": 33.8533352
        },
        "keyAccentLanguage": "bandeira"
      },
      {
        "code": 0,
        "type": "City",
        "enNameLanguage": "Espungabera",
        "location": {
          "lat": -20.4550329,
          "lng": 32.7802357
        },
        "keyAccentLanguage": "espungabera"
      },
      {
        "code": 0,
        "type": "City",
        "enNameLanguage": "Chicamba",
        "location": {
          "lat": -19.1119444,
          "lng": 33.09
        },
        "keyAccentLanguage": "chicamba"
      },
      {
        "code": 0,
        "type": "City",
        "enNameLanguage": "Bacequote",
        "location": {
          "lat": -21.3680481,
          "lng": 33.1865964
        },
        "keyAccentLanguage": "bacequote"
      },
      {
        "code": 0,
        "type": "City",
        "enNameLanguage": "Batine",
        "location": {
          "lat": -21.3734393,
          "lng": 33.6332422
        },
        "keyAccentLanguage": "batine"
      },
      {
        "code": 0,
        "type": "City",
        "enNameLanguage": "Madzuire",
        "location": {
          "lat": -17.2455244,
          "lng": 34.1796154
        },
        "keyAccentLanguage": "madzuire"
      },
      {
        "code": 0,
        "type": "City",
        "enNameLanguage": "Alfinete",
        "location": {
          "lat": -19.6918068,
          "lng": 33.3777723
        },
        "keyAccentLanguage": "alfinete"
      },
      {
        "code": 0,
        "type": "City",
        "enNameLanguage": "Catandica",
        "location": {
          "lat": -18.0650446,
          "lng": 33.1745097
        },
        "keyAccentLanguage": "catandica"
      },
      {
        "code": 0,
        "type": "City",
        "enNameLanguage": "Bavamana",
        "location": {
          "lat": -20.1694448,
          "lng": 33.1731264
        },
        "keyAccentLanguage": "bavamana"
      },
      {
        "code": 0,
        "type": "City",
        "enNameLanguage": "Canhange",
        "location": {
          "lat": -16.8636158,
          "lng": 33.6878556
        },
        "keyAccentLanguage": "canhange"
      },
      {
        "code": 0,
        "type": "City",
        "enNameLanguage": "Bacequete",
        "location": {
          "lat": -20.3,
          "lng": 33.016667
        },
        "keyAccentLanguage": "bacequete"
      },
      {
        "code": 0,
        "type": "City",
        "enNameLanguage": "Bengura",
        "location": {
          "lat": -18.1407322,
          "lng": 33.0739504
        },
        "keyAccentLanguage": "bengura"
      },
      {
        "code": 0,
        "type": "City",
        "enNameLanguage": "Tambara",
        "location": {
          "lat": -16.9816165,
          "lng": 34.0641419
        },
        "keyAccentLanguage": "tambara"
      },
      {
        "code": 0,
        "type": "City",
        "enNameLanguage": "Lundo",
        "location": {
          "lat": -16.8795441,
          "lng": 34.0822378
        },
        "keyAccentLanguage": "lundo"
      },
      {
        "code": 0,
        "type": "City",
        "enNameLanguage": "Batani",
        "location": {
          "lat": -20.421802,
          "lng": 32.8943589
        },
        "keyAccentLanguage": "batani"
      },
      {
        "code": 0,
        "type": "City",
        "enNameLanguage": "Mutanda",
        "location": {
          "lat": -21.0265269,
          "lng": 33.5321034
        },
        "keyAccentLanguage": "mutanda"
      },
      {
        "code": 0,
        "type": "City",
        "enNameLanguage": "Zembe",
        "location": {
          "lat": -19.2711803,
          "lng": 33.3479133
        },
        "keyAccentLanguage": "zembe"
      },
      {
        "code": 0,
        "type": "City",
        "enNameLanguage": "Mavonde",
        "location": {
          "lat": -18.5406179,
          "lng": 33.0346492
        },
        "keyAccentLanguage": "mavonde"
      },
      {
        "code": 0,
        "type": "City",
        "enNameLanguage": "Mavita",
        "location": {
          "lat": -19.5203146,
          "lng": 33.1513191
        },
        "keyAccentLanguage": "mavita"
      },
      {
        "code": 0,
        "type": "City",
        "enNameLanguage": "Areeinar",
        "location": {
          "lat": -17.9598527,
          "lng": 34.2362546
        },
        "keyAccentLanguage": "areeinar"
      },
      {
        "code": 0,
        "type": "City",
        "enNameLanguage": "Xecuecuete",
        "location": {
          "lat": -20.6794191,
          "lng": 32.5313354
        },
        "keyAccentLanguage": "xecuecuete"
      },
      {
        "code": 0,
        "type": "City",
        "enNameLanguage": "Bobo",
        "location": {
          "lat": -18.9438274,
          "lng": 32.8648538
        },
        "keyAccentLanguage": "bobo"
      },
      {
        "code": 0,
        "type": "City",
        "enNameLanguage": "Chitobe",
        "location": {
          "lat": -20.8036298,
          "lng": 33.39069
        },
        "keyAccentLanguage": "chitobe"
      },
      {
        "code": 0,
        "type": "City",
        "enNameLanguage": "Sambanhe",
        "location": {
          "lat": -19.9311693,
          "lng": 33.536408
        },
        "keyAccentLanguage": "sambanhe"
      },
      {
        "code": 0,
        "type": "City",
        "enNameLanguage": "Bepete",
        "location": {
          "lat": -19.9663648,
          "lng": 33.218424
        },
        "keyAccentLanguage": "bepete"
      },
      {
        "code": 0,
        "type": "City",
        "enNameLanguage": "Mungari",
        "location": {
          "lat": -17.1676224,
          "lng": 33.5532073
        },
        "keyAccentLanguage": "mungari"
      },
      {
        "code": 0,
        "type": "City",
        "enNameLanguage": "Zubo",
        "location": {
          "lat": -21.0868826,
          "lng": 33.152983
        },
        "keyAccentLanguage": "zubo"
      },
      {
        "code": 0,
        "type": "City",
        "enNameLanguage": "Rotanda",
        "location": {
          "lat": -19.5362806,
          "lng": 32.9169996
        },
        "keyAccentLanguage": "rotanda"
      },
      {
        "code": 0,
        "type": "City",
        "enNameLanguage": "Belo",
        "location": {
          "lat": -16.6260536,
          "lng": 33.9516935
        },
        "keyAccentLanguage": "belo"
      },
      {
        "code": 0,
        "type": "City",
        "enNameLanguage": "Vila Nova de Vidigueira",
        "location": {
          "lat": -18.9438274,
          "lng": 32.8648538
        },
        "keyAccentLanguage": "vila_nova_de_vidigueira"
      },
      {
        "code": 0,
        "type": "City",
        "enNameLanguage": "Beanhi",
        "location": {
          "lat": -19.185,
          "lng": 33.041
        },
        "keyAccentLanguage": "beanhi"
      },
      {
        "code": 0,
        "type": "City",
        "enNameLanguage": "Biquisa",
        "location": {
          "lat": -20.217,
          "lng": 33.095
        },
        "keyAccentLanguage": "biquisa"
      },
      {
        "code": 0,
        "type": "City",
        "enNameLanguage": "Macobere",
        "location": {
          "lat": -21.227,
          "lng": 32.796
        },
        "keyAccentLanguage": "macobere"
      },
      {
        "code": 0,
        "type": "City",
        "enNameLanguage": "Alize",
        "location": {
          "lat": -16.553,
          "lng": 33.902
        },
        "keyAccentLanguage": "alize"
      },
      {
        "code": 0,
        "type": "City",
        "enNameLanguage": "Jete",
        "location": {
          "lat": -18.238,
          "lng": 33.473
        },
        "keyAccentLanguage": "jete"
      },
      {
        "code": 0,
        "type": "City",
        "enNameLanguage": "Bessuca",
        "location": {
          "lat": -20.894,
          "lng": 33.528
        },
        "keyAccentLanguage": "bessuca"
      },
      {
        "code": 0,
        "type": "City",
        "enNameLanguage": "Aspense",
        "location": {
          "lat": -19.699,
          "lng": 33.797
        },
        "keyAccentLanguage": "aspense"
      },
      {
        "code": 0,
        "type": "City",
        "enNameLanguage": "Andrec",
        "location": {
          "lat": -19.053,
          "lng": 33.116
        },
        "keyAccentLanguage": "andrec"
      },
      {
        "code": 0,
        "type": "City",
        "enNameLanguage": "Bastera",
        "location": {
          "lat": -18.927,
          "lng": 33.212
        },
        "keyAccentLanguage": "bastera"
      },
      {
        "code": 0,
        "type": "City",
        "enNameLanguage": "Besserro",
        "location": {
          "lat": -17.108,
          "lng": 33.661
        },
        "keyAccentLanguage": "besserro"
      },
      {
        "code": 0,
        "type": "City",
        "enNameLanguage": "Gogoi",
        "location": {
          "lat": -20.265,
          "lng": 33.097
        },
        "keyAccentLanguage": "gogoi"
      },
      {
        "code": 0,
        "type": "City",
        "enNameLanguage": "Hacufera",
        "location": {
          "lat": -20.698,
          "lng": 32.799
        },
        "keyAccentLanguage": "hacufera"
      },
      {
        "code": 0,
        "type": "City",
        "enNameLanguage": "Augusto",
        "location": {
          "lat": -20.943,
          "lng": 33.352
        },
        "keyAccentLanguage": "augusto"
      },
      {
        "code": 0,
        "type": "City",
        "enNameLanguage": "Arume",
        "location": {
          "lat": -21.241,
          "lng": 32.792
        },
        "keyAccentLanguage": "arume"
      },
      {
        "code": 0,
        "type": "City",
        "enNameLanguage": "Assane",
        "location": {
          "lat": -21.081,
          "lng": 33.032
        },
        "keyAccentLanguage": "assane"
      },
      {
        "code": 0,
        "type": "City",
        "enNameLanguage": "Babe",
        "location": {
          "lat": -18.88,
          "lng": 33.255
        },
        "keyAccentLanguage": "babe"
      },
      {
        "code": 0,
        "type": "City",
        "enNameLanguage": "Bernardino",
        "location": {
          "lat": -18.774,
          "lng": 33.366
        },
        "keyAccentLanguage": "bernardino"
      },
      {
        "code": 0,
        "type": "City",
        "enNameLanguage": "Tsetsserra",
        "location": {
          "lat": -19.359,
          "lng": 32.782
        },
        "keyAccentLanguage": "tsetsserra"
      },
      {
        "code": 0,
        "type": "City",
        "enNameLanguage": "Assiengana",
        "location": {
          "lat": -19.849,
          "lng": 33.309
        },
        "keyAccentLanguage": "assiengana"
      },
      {
        "code": 0,
        "type": "City",
        "enNameLanguage": "Arucato",
        "location": {
          "lat": -20.6934012,
          "lng": 33.4654373
        },
        "keyAccentLanguage": "arucato"
      },
      {
        "code": 0,
        "type": "City",
        "enNameLanguage": "Bengura",
        "location": {
          "lat": -18.1407322,
          "lng": 33.0739504
        },
        "keyAccentLanguage": "bengura"
      }
    ],
    "enNameLanguage": "Manica",
    "keyAccentLanguage": "manica"
  },
  {
    "code": 0,
    "type": "State",
    "location": {
      "lat": -25.891968,
      "lng": 32.6051351
    },
    "districtList": [
      {
        "code": 0,
        "type": "City",
        "enNameLanguage": "Namaacha",
        "location": {
          "lat": -25.9870887,
          "lng": 32.0326019
        },
        "keyAccentLanguage": "namaacha"
      },
      {
        "code": 0,
        "type": "City",
        "enNameLanguage": "Marracuene",
        "location": {
          "lat": -25.9469524,
          "lng": 32.5701741
        },
        "keyAccentLanguage": "marracuene"
      },
      {
        "code": 0,
        "type": "City",
        "enNameLanguage": "Matola",
        "location": {
          "lat": -25.9239093,
          "lng": 32.465802
        },
        "keyAccentLanguage": "matola"
      },
      {
        "code": 0,
        "type": "City",
        "enNameLanguage": "Machangulo",
        "location": {
          "lat": -25.969248,
          "lng": 32.5731746
        },
        "keyAccentLanguage": "machangulo"
      },
      {
        "code": 0,
        "type": "City",
        "enNameLanguage": "Matola",
        "location": {
          "lat": -25.9239093,
          "lng": 32.465802
        },
        "keyAccentLanguage": "matola"
      },
      {
        "code": 0,
        "type": "City",
        "enNameLanguage": "Porto Henrique",
        "location": {
          "lat": -25.969248,
          "lng": 32.5731746
        },
        "keyAccentLanguage": "porto_henrique"
      },
      {
        "code": 0,
        "type": "City",
        "enNameLanguage": "Magude",
        "location": {
          "lat": -25.0109742,
          "lng": 32.6390489
        },
        "keyAccentLanguage": "magude"
      },
      {
        "code": 0,
        "type": "City",
        "enNameLanguage": "Beluluane",
        "location": {
          "lat": -25.969248,
          "lng": 32.5731746
        },
        "keyAccentLanguage": "beluluane"
      },
      {
        "code": 0,
        "type": "City",
        "enNameLanguage": "Palmeira",
        "location": {
          "lat": -25.263763,
          "lng": 32.8704925
        },
        "keyAccentLanguage": "palmeira"
      },
      {
        "code": 0,
        "type": "City",
        "enNameLanguage": "Agostinho",
        "location": {
          "lat": -25.9636227,
          "lng": 32.5837115
        },
        "keyAccentLanguage": "agostinho"
      },
      {
        "code": 0,
        "type": "City",
        "enNameLanguage": "Albine",
        "location": {
          "lat": -26.1741888,
          "lng": 32.582565
        },
        "keyAccentLanguage": "albine"
      },
      {
        "code": 0,
        "type": "City",
        "enNameLanguage": "Acana",
        "location": {
          "lat": -24.7854808,
          "lng": 32.47245270000001
        },
        "keyAccentLanguage": "acana"
      },
      {
        "code": 0,
        "type": "City",
        "enNameLanguage": "Aiai",
        "location": {
          "lat": -26.2295444,
          "lng": 32.8839306
        },
        "keyAccentLanguage": "aiai"
      },
      {
        "code": 0,
        "type": "City",
        "enNameLanguage": "Machava",
        "location": {
          "lat": -25.9114653,
          "lng": 32.4911132
        },
        "keyAccentLanguage": "machava"
      },
      {
        "code": 0,
        "type": "City",
        "enNameLanguage": "Babala",
        "location": {
          "lat": -25.449975,
          "lng": 32.5748891
        },
        "keyAccentLanguage": "babala"
      },
      {
        "code": 0,
        "type": "City",
        "enNameLanguage": "Alfredo",
        "location": {
          "lat": -25.969248,
          "lng": 32.5731746
        },
        "keyAccentLanguage": "alfredo"
      },
      {
        "code": 0,
        "type": "City",
        "enNameLanguage": "Banhine",
        "location": {
          "lat": -25.969248,
          "lng": 32.5731746
        },
        "keyAccentLanguage": "banhine"
      },
      {
        "code": 0,
        "type": "City",
        "enNameLanguage": "Alvor",
        "location": {
          "lat": -25.969248,
          "lng": 32.5731746
        },
        "keyAccentLanguage": "alvor"
      },
      {
        "code": 0,
        "type": "City",
        "enNameLanguage": "Amosse",
        "location": {
          "lat": -25.969248,
          "lng": 32.5731746
        },
        "keyAccentLanguage": "amosse"
      },
      {
        "code": 0,
        "type": "City",
        "enNameLanguage": "B. Cumbula",
        "location": {
          "lat": -25.969248,
          "lng": 32.5731746
        },
        "keyAccentLanguage": "b._cumbula"
      },
      {
        "code": 0,
        "type": "City",
        "enNameLanguage": "Andre",
        "location": {
          "lat": -25.969248,
          "lng": 32.5731746
        },
        "keyAccentLanguage": "andre"
      },
      {
        "code": 0,
        "type": "City",
        "enNameLanguage": "Augusto Mota",
        "location": {
          "lat": -25.969248,
          "lng": 32.5731746
        },
        "keyAccentLanguage": "augusto_mota"
      },
      {
        "code": 0,
        "type": "City",
        "enNameLanguage": "B. Popular",
        "location": {
          "lat": -25.969248,
          "lng": 32.5731746
        },
        "keyAccentLanguage": "b._popular"
      },
      {
        "code": 0,
        "type": "City",
        "enNameLanguage": "Bazar",
        "location": {
          "lat": -25.969248,
          "lng": 32.5731746
        },
        "keyAccentLanguage": "bazar"
      },
      {
        "code": 0,
        "type": "City",
        "enNameLanguage": "Aldeia Silva",
        "location": {
          "lat": -25.969248,
          "lng": 32.5731746
        },
        "keyAccentLanguage": "aldeia_silva"
      },
      {
        "code": 0,
        "type": "City",
        "enNameLanguage": "Aldeia A. Viana",
        "location": {
          "lat": -25.9699062,
          "lng": 32.5789932
        },
        "keyAccentLanguage": "aldeia_a._viana"
      },
      {
        "code": 0,
        "type": "City",
        "enNameLanguage": "Aldeia Verde",
        "location": {
          "lat": -25.969248,
          "lng": 32.5731746
        },
        "keyAccentLanguage": "aldeia_verde"
      },
      {
        "code": 0,
        "type": "City",
        "enNameLanguage": "Alfredo Uassunhane",
        "location": {
          "lat": -25.969248,
          "lng": 32.5731746
        },
        "keyAccentLanguage": "alfredo_uassunhane"
      },
      {
        "code": 0,
        "type": "City",
        "enNameLanguage": "Bambate",
        "location": {
          "lat": -25.969248,
          "lng": 32.5731746
        },
        "keyAccentLanguage": "bambate"
      },
      {
        "code": 0,
        "type": "City",
        "enNameLanguage": "Aldeia Comunais Chacana",
        "location": {
          "lat": -25.969248,
          "lng": 32.5731746
        },