[
  {
    "code": 0,
    "type": "State",
    "location": {
      "lat": 38.8994855,
      "lng": -94.69813579999999
    },
    "districtList": [
      {
        "code": 0,
        "type": "City",
        "enNameLanguage": "Two Boats Village",
        "location": {
          "lat": -7.988,
          "lng": -14.366
        },
        "keyAccentLanguage": "two_boats_village"
      },
      {
        "code": 0,
        "type": "City",
        "enNameLanguage": "Georgetown",
        "location": {
          "lat": -7.93,
          "lng": -14.413
        },
        "keyAccentLanguage": "georgetown"
      },
      {
        "code": 0,
        "type": "City",
        "enNameLanguage": "Thornton",
        "location": {
          "lat": -7.933,
          "lng": -14.417
        },
        "keyAccentLanguage": "thornton"
      }
    ],
    "enNameLanguage": "Ascension",
    "keyAccentLanguage": "ascension"
  },
  {
    "code": 0,
    "type": "State",
    "location": {
      "lat": -15.9650104,
      "lng": -5.7089241
    },
    "districtList": [
      {
        "code": 0,
        "type": "City",
        "enNameLanguage": "New Ground",
        "location": {
          "lat": -15.933,
          "lng": -5.733
        },
        "keyAccentLanguage": "new_ground"
      },
      {
        "code": 0,
        "type": "City",
        "enNameLanguage": "Hutts Gate",
        "location": {
          "lat": -15.967,
          "lng": -5.7
        },
        "keyAccentLanguage": "hutts_gate"
      },
      {
        "code": 0,
        "type": "City",
        "enNameLanguage": "Jamestown",
        "location": {
          "lat": -15.936,
          "lng": -5.719
        },
        "keyAccentLanguage": "jamestown"
      },
      {
        "code": 0,
        "type": "City",
        "enNameLanguage": "Taglate",
        "location": {
          "lat": -15.967,
          "lng": -5.683
        },
        "keyAccentLanguage": "taglate"
      },
      {
        "code": 0,
        "type": "City",
        "enNameLanguage": "Longwood",
        "location": {
          "lat": -15.95,
          "lng": -5.687
        },
        "keyAccentLanguage": "longwood"
      },
      {
        "code": 0,
        "type": "City",
        "enNameLanguage": "Half Tree Hollow",
        "location": {
          "lat": -15.933,
          "lng": -5.717
        },
        "keyAccentLanguage": "half_tree_hollow"
      },
      {
        "code": 0,
        "type": "City",
        "enNameLanguage": "Wild Cattle Pound",
        "location": {
          "lat": -16.983,
          "lng": -5.767
        },
        "keyAccentLanguage": "wild_cattle_pound"
      },
      {
        "code": 0,
        "type": "City",
        "enNameLanguage": "Levelwood",
        "location": {
          "lat": -15.972,
          "lng": -5.682
        },
        "keyAccentLanguage": "levelwood"
      },
      {
        "code": 0,
        "type": "City",
        "enNameLanguage": "Deadwood",
        "location": {
          "lat": -15.936,
          "lng": -5.687
        },
        "keyAccentLanguage": "deadwood"
      }
    ],
    "enNameLanguage": "Saint Helena",
    "keyAccentLanguage": "saint_helena"
  },
  {
    "code": 0,
    "type": "State",
    "location": {
      "lat": 0,
      "lng": 0
    },
    "districtList": [
      {
        "code": 0,
        "type": "City",
        "enNameLanguage": "Edinburgh",
        "location": {
          "lat": -37.05,
          "lng": -12.3
        },
        "keyAccentLanguage": "edinburgh"
      },
      {
        "code": 0,
        "type": "City",
        "enNameLanguage": "Edinburgh of the Seven Seas",
        "location": {
          "lat": -37.066,
          "lng": -12.312
        },
        "keyAccentLanguage": "edinburgh_of_the_seven_seas"
      }
    ],
    "enNameLanguage": "Tristan da Cuna",
    "keyAccentLanguage": "tristan_da_cuna"
  }
]