[
  {
    "code": 0,
    "type": "State",
    "location": {
      "lat": 4.6144063,
      "lng": 31.2626366
    },
    "districtList": [
      {
        "code": 0,
        "type": "City",
        "enNameLanguage": "Bokko",
        "location": {
          "lat": 4.6144063,
          "lng": 31.2626366
        },
        "keyAccentLanguage": "bokko"
      },
      {
        "code": 0,
        "type": "City",
        "enNameLanguage": "Bongo",
        "location": {
          "lat": 4.6144063,
          "lng": 31.2626366
        },
        "keyAccentLanguage": "bongo"
      },
      {
        "code": 0,
        "type": "City",
        "enNameLanguage": "Amujupi",
        "location": {
          "lat": 4.6144063,
          "lng": 31.2626366
        },
        "keyAccentLanguage": "amujupi"
      },
      {
        "code": 0,
        "type": "City",
        "enNameLanguage": "Badai",
        "location": {
          "lat": 5.723889,
          "lng": 31.42833299999999
        },
        "keyAccentLanguage": "badai"
      },
      {
        "code": 0,
        "type": "City",
        "enNameLanguage": "Bundagora",
        "location": {
          "lat": 4.6144063,
          "lng": 31.2626366
        },
        "keyAccentLanguage": "bundagora"
      },
      {
        "code": 0,
        "type": "City",
        "enNameLanguage": "Baringa",
        "location": {
          "lat": 5.653333,
          "lng": 31.473333
        },
        "keyAccentLanguage": "baringa"
      },
      {
        "code": 0,
        "type": "City",
        "enNameLanguage": "Buko",
        "location": {
          "lat": 5.175682999999999,
          "lng": 31.264059
        },
        "keyAccentLanguage": "buko"
      },
      {
        "code": 0,
        "type": "City",
        "enNameLanguage": "Araka",
        "location": {
          "lat": 4.2698159,
          "lng": 30.31974
        },
        "keyAccentLanguage": "araka"
      },
      {
        "code": 0,
        "type": "City",
        "enNameLanguage": "Baka",
        "location": {
          "lat": 4.6144063,
          "lng": 31.2626366
        },
        "keyAccentLanguage": "baka"
      },
      {
        "code": 0,
        "type": "City",
        "enNameLanguage": "Dikala",
        "location": {
          "lat": 4.6144063,
          "lng": 31.2626366
        },
        "keyAccentLanguage": "dikala"
      },
      {
        "code": 0,
        "type": "City",
        "enNameLanguage": "Delili",
        "location": {
          "lat": 4.6144063,
          "lng": 31.2626366
        },
        "keyAccentLanguage": "delili"
      },
      {
        "code": 0,
        "type": "City",
        "enNameLanguage": "Barida",
        "location": {
          "lat": 4.6144063,
          "lng": 31.2626366
        },
        "keyAccentLanguage": "barida"
      },
      {
        "code": 0,
        "type": "City",
        "enNameLanguage": "Baronga",
        "location": {
          "lat": 5.739444,
          "lng": 31.0975
        },
        "keyAccentLanguage": "baronga"
      },
      {
        "code": 0,
        "type": "City",
        "enNameLanguage": "Fagar",
        "location": {
          "lat": 4.219628999999999,
          "lng": 31.62221
        },
        "keyAccentLanguage": "fagar"
      },
      {
        "code": 0,
        "type": "City",
        "enNameLanguage": "Arbam",
        "location": {
          "lat": 4.433333,
          "lng": 30.46666699999999
        },
        "keyAccentLanguage": "arbam"
      },
      {
        "code": 0,
        "type": "City",
        "enNameLanguage": "Fafara",
        "location": {
          "lat": 4.6144063,
          "lng": 31.2626366
        },
        "keyAccentLanguage": "fafara"
      },
      {
        "code": 0,
        "type": "City",
        "enNameLanguage": "Baden",
        "location": {
          "lat": 4.5072219,
          "lng": 31.688611
        },
        "keyAccentLanguage": "baden"
      },
      {
        "code": 0,
        "type": "City",
        "enNameLanguage": "Bakhit",
        "location": {
          "lat": 4.516667,
          "lng": 30.066667
        },
        "keyAccentLanguage": "bakhit"
      },
      {
        "code": 0,
        "type": "City",
        "enNameLanguage": "Dimo",
        "location": {
          "lat": 3.933333,
          "lng": 30.383333
        },
        "keyAccentLanguage": "dimo"
      },
      {
        "code": 0,
        "type": "City",
        "enNameLanguage": "Bariang",
        "location": {
          "lat": 4.833333,
          "lng": 30.966667
        },
        "keyAccentLanguage": "bariang"
      },
      {
        "code": 0,
        "type": "City",
        "enNameLanguage": "Bareia",
        "location": {
          "lat": 4.021389,
          "lng": 30.97416699999999
        },
        "keyAccentLanguage": "bareia"
      },
      {
        "code": 0,
        "type": "City",
        "enNameLanguage": "Baro",
        "location": {
          "lat": 5.760922,
          "lng": 31.700776
        },
        "keyAccentLanguage": "baro"
      },
      {
        "code": 0,
        "type": "City",
        "enNameLanguage": "Boara",
        "location": {
          "lat": 4.6144063,
          "lng": 31.2626366
        },
        "keyAccentLanguage": "boara"
      },
      {
        "code": 0,
        "type": "City",
        "enNameLanguage": "Gabur",
        "location": {
          "lat": 4.6144063,
          "lng": 31.2626366
        },
        "keyAccentLanguage": "gabur"
      },
      {
        "code": 0,
        "type": "City",
        "enNameLanguage": "Dukunya",
        "location": {
          "lat": 4.6144063,
          "lng": 31.2626366
        },
        "keyAccentLanguage": "dukunya"
      },
      {
        "code": 0,
        "type": "City",
        "enNameLanguage": "Borobat",
        "location": {
          "lat": 4.6144063,
          "lng": 31.2626366
        },
        "keyAccentLanguage": "borobat"
      },
      {
        "code": 0,
        "type": "City",
        "enNameLanguage": "Chamba",
        "location": {
          "lat": 4.816667,
          "lng": 31.366667
        },
        "keyAccentLanguage": "chamba"
      },
      {
        "code": 0,
        "type": "City",
        "enNameLanguage": "Arado",
        "location": {
          "lat": 4.033333,
          "lng": 31.516667
        },
        "keyAccentLanguage": "arado"
      },
      {
        "code": 0,
        "type": "City",
        "enNameLanguage": "Garmabe",
        "location": {
          "lat": 4.616667,
          "lng": 29.983333
        },
        "keyAccentLanguage": "garmabe"
      },
      {
        "code": 0,
        "type": "City",
        "enNameLanguage": "Gober",
        "location": {
          "lat": 4.6144063,
          "lng": 31.2626366
        },
        "keyAccentLanguage": "gober"
      },
      {
        "code": 0,
        "type": "City",
        "enNameLanguage": "Ageng",
        "location": {
          "lat": 6.033333000000001,
          "lng": 30.316667
        },
        "keyAccentLanguage": "ageng"
      },
      {
        "code": 0,
        "type": "City",
        "enNameLanguage": "Gordo",
        "location": {
          "lat": 4.6144063,
          "lng": 31.2626366
        },
        "keyAccentLanguage": "gordo"
      },
      {
        "code": 0,
        "type": "City",
        "enNameLanguage": "Elimiri",
        "location": {
          "lat": 4.216667000000001,
          "lng": 30.016667
        },
        "keyAccentLanguage": "elimiri"
      },
      {
        "code": 0,
        "type": "City",
        "enNameLanguage": "Gule",
        "location": {
          "lat": 4.6144063,
          "lng": 31.2626366
        },
        "keyAccentLanguage": "gule"
      },
      {
        "code": 0,
        "type": "City",
        "enNameLanguage": "Gimoru",
        "location": {
          "lat": 4.6144063,
          "lng": 31.2626366
        },
        "keyAccentLanguage": "gimoru"
      },
      {
        "code": 0,
        "type": "City",
        "enNameLanguage": "Borah",
        "location": {
          "lat": 5.55,
          "lng": 31.45
        },
        "keyAccentLanguage": "borah"
      },
      {
        "code": 0,
        "type": "City",
        "enNameLanguage": "Buri",
        "location": {
          "lat": 3.783332999999999,
          "lng": 31.5
        },
        "keyAccentLanguage": "buri"
      },
      {
        "code": 0,
        "type": "City",
        "enNameLanguage": "Goronya",
        "location": {
          "lat": 4.6144063,
          "lng": 31.2626366
        },
        "keyAccentLanguage": "goronya"
      },
      {
        "code": 0,
        "type": "City",
        "enNameLanguage": "Atiit",
        "location": {
          "lat": 6.163357,
          "lng": 30.59411
        },
        "keyAccentLanguage": "atiit"
      },
      {
        "code": 0,
        "type": "City",
        "enNameLanguage": "Akojan",
        "location": {
          "lat": 6.1,
          "lng": 30.716667
        },
        "keyAccentLanguage": "akojan"
      },
      {
        "code": 0,
        "type": "City",
        "enNameLanguage": "Buring",
        "location": {
          "lat": 4.6144063,
          "lng": 31.2626366
        },
        "keyAccentLanguage": "buring"
      },
      {
        "code": 0,
        "type": "City",
        "enNameLanguage": "Biyara",
        "location": {
          "lat": 5.338889000000001,
          "lng": 31.710278
        },
        "keyAccentLanguage": "biyara"
      },
      {
        "code": 0,
        "type": "City",
        "enNameLanguage": "Duro",
        "location": {
          "lat": 4.429996,
          "lng": 31.60617999999999
        },
        "keyAccentLanguage": "duro"
      },
      {
        "code": 0,
        "type": "City",
        "enNameLanguage": "Baranga",
        "location": {
          "lat": 4.188889,
          "lng": 30.571389
        },
        "keyAccentLanguage": "baranga"
      },
      {
        "code": 0,
        "type": "City",
        "enNameLanguage": "Gumba",
        "location": {
          "lat": 4.853856599999999,
          "lng": 31.58252539999999
        },
        "keyAccentLanguage": "gumba"
      },
      {
        "code": 0,
        "type": "City",
        "enNameLanguage": "Gutetian",
        "location": {
          "lat": 4.6144063,
          "lng": 31.2626366
        },
        "keyAccentLanguage": "gutetian"
      },
      {
        "code": 0,
        "type": "City",
        "enNameLanguage": "Tali Post",
        "location": {
          "lat": 4.6144063,
          "lng": 31.2626366
        },
        "keyAccentLanguage": "tali_post"
      },
      {
        "code": 0,
        "type": "City",
        "enNameLanguage": "Bora",
        "location": {
          "lat": 5.55,
          "lng": 31.45
        },
        "keyAccentLanguage": "bora"
      },
      {
        "code": 0,
        "type": "City",
        "enNameLanguage": "Gumu",
        "location": {
          "lat": 4.415389,
          "lng": 30.1017
        },
        "keyAccentLanguage": "gumu"
      },
      {
        "code": 0,
        "type": "City",
        "enNameLanguage": "Gulumbi",
        "location": {
          "lat": 3.6924974,
          "lng": 30.7915878
        },
        "keyAccentLanguage": "gulumbi"
      },
      {
        "code": 0,
        "type": "City",
        "enNameLanguage": "Baloke",
        "location": {
          "lat": 4.6144063,
          "lng": 31.2626366
        },
        "keyAccentLanguage": "baloke"
      },
      {
        "code": 0,
        "type": "City",
        "enNameLanguage": "Gillut",
        "location": {
          "lat": 5.808056,
          "lng": 31.216667
        },
        "keyAccentLanguage": "gillut"
      },
      {
        "code": 0,
        "type": "City",
        "enNameLanguage": "Juba",
        "location": {
          "lat": 4.853856599999999,
          "lng": 31.58252539999999
        },
        "keyAccentLanguage": "juba"
      },
      {
        "code": 0,
        "type": "City",
        "enNameLanguage": "Gerrim",
        "location": {
          "lat": 4.55,
          "lng": 30.533333
        },
        "keyAccentLanguage": "gerrim"
      },
      {
        "code": 0,
        "type": "City",
        "enNameLanguage": "Gabir",
        "location": {
          "lat": 5.399999999999999,
          "lng": 31.25
        },
        "keyAccentLanguage": "gabir"
      },
      {
        "code": 0,
        "type": "City",
        "enNameLanguage": "Aloto",
        "location": {
          "lat": 4.6144063,
          "lng": 31.2626366
        },
        "keyAccentLanguage": "aloto"
      },
      {
        "code": 0,
        "type": "City",
        "enNameLanguage": "Chaka",
        "location": {
          "lat": 4.816667,
          "lng": 31.23333299999999
        },
        "keyAccentLanguage": "chaka"
      },
      {
        "code": 0,
        "type": "City",
        "enNameLanguage": "Jummayzah",
        "location": {
          "lat": 4.6144063,
          "lng": 31.2626366
        },
        "keyAccentLanguage": "jummayzah"
      },
      {
        "code": 0,
        "type": "City",
        "enNameLanguage": "Gurri",
        "location": {
          "lat": 3.883889,
          "lng": 30.946944
        },
        "keyAccentLanguage": "gurri"
      },
      {
        "code": 0,
        "type": "City",
        "enNameLanguage": "Mongalla",
        "location": {
          "lat": 5.1800179,
          "lng": 31.767985
        },
        "keyAccentLanguage": "mongalla"
      },
      {
        "code": 0,
        "type": "City",
        "enNameLanguage": "Bale",
        "location": {
          "lat": 4.646667,
          "lng": 31.397778
        },
        "keyAccentLanguage": "bale"
      },
      {
        "code": 0,
        "type": "City",
        "enNameLanguage": "Buka",
        "location": {
          "lat": 4.6144063,
          "lng": 31.2626366
        },
        "keyAccentLanguage": "buka"
      },
      {
        "code": 0,
        "type": "City",
        "enNameLanguage": "Yei",
        "location": {
          "lat": 4.095271299999999,
          "lng": 30.6775054
        },
        "keyAccentLanguage": "yei"
      },
      {
        "code": 0,
        "type": "City",
        "enNameLanguage": "Bura",
        "location": {
          "lat": 5.6875,
          "lng": 30.936111
        },
        "keyAccentLanguage": "bura"
      },
      {
        "code": 0,
        "type": "City",
        "enNameLanguage": "Attigu",
        "location": {
          "lat": 4.066667,
          "lng": 31.766667
        },
        "keyAccentLanguage": "attigu"
      },
      {
        "code": 0,
        "type": "City",
        "enNameLanguage": "Bojo-ajut",
        "location": {
          "lat": 5.694653,
          "lng": 31.793249
        },
        "keyAccentLanguage": "bojo-ajut"
      },
      {
        "code": 0,
        "type": "City",
        "enNameLanguage": "Roue",
        "location": {
          "lat": 4.301937,
          "lng": 30.431339
        },
        "keyAccentLanguage": "roue"
      },
      {
        "code": 0,
        "type": "City",
        "enNameLanguage": "Gore",
        "location": {
          "lat": 4.6144063,
          "lng": 31.2626366
        },
        "keyAccentLanguage": "gore"
      },
      {
        "code": 0,
        "type": "City",
        "enNameLanguage": "Gobur",
        "location": {
          "lat": 4.348218999999999,
          "lng": 31.069771
        },
        "keyAccentLanguage": "gobur"
      },
      {
        "code": 0,
        "type": "City",
        "enNameLanguage": "Bologna",
        "location": {
          "lat": 5.602778,
          "lng": 31.456667
        },
        "keyAccentLanguage": "bologna"
      },
      {
        "code": 0,
        "type": "City",
        "enNameLanguage": "Ganzi",
        "location": {
          "lat": 4.486299,
          "lng": 31.23675
        },
        "keyAccentLanguage": "ganzi"
      },
      {
        "code": 0,
        "type": "City",
        "enNameLanguage": "Gori",
        "location": {
          "lat": 4.966667,
          "lng": 31.866667
        },
        "keyAccentLanguage": "gori"
      },
      {
        "code": 0,
        "type": "City",
        "enNameLanguage": "Mendopolo",
        "location": {
          "lat": 4.6144063,
          "lng": 31.2626366
        },
        "keyAccentLanguage": "mendopolo"
      },
      {
        "code": 0,
        "type": "City",
        "enNameLanguage": "Fadl al Mawla",
        "location": {
          "lat": 4.566667,
          "lng": 30.4
        },
        "keyAccentLanguage": "fadl_al_mawla"
      },
      {
        "code": 0,
        "type": "City",
        "enNameLanguage": "Gaderu",
        "location": {
          "lat": 3.953232,
          "lng": 31.50893
        },
        "keyAccentLanguage": "gaderu"
      },
      {
        "code": 0,
        "type": "City",
        "enNameLanguage": "Golo",
        "location": {
          "lat": 5.491667,
          "lng": 31.556944
        },
        "keyAccentLanguage": "golo"
      },
      {
        "code": 0,
        "type": "City",
        "enNameLanguage": "Gado",
        "location": {
          "lat": 4.133332999999999,
          "lng": 30.366667
        },
        "keyAccentLanguage": "gado"
      },
      {
        "code": 0,
        "type": "City",
        "enNameLanguage": "Terakeka",
        "location": {
          "lat": 4.6144063,
          "lng": 31.2626366
        },
        "keyAccentLanguage": "terakeka"
      },
      {
        "code": 0,
        "type": "City",
        "enNameLanguage": "Ngangala",
        "location": {
          "lat": 4.7046773,
          "lng": 31.9217108
        },
        "keyAccentLanguage": "ngangala"
      },
      {
        "code": 0,
        "type": "City",
        "enNameLanguage": "Girim",
        "location": {
          "lat": 4.210278,
          "lng": 31.056111
        },
        "keyAccentLanguage": "girim"
      },
      {
        "code": 0,
        "type": "City",
        "enNameLanguage": "Bogora",
        "location": {
          "lat": 24.8525537,
          "lng": 89.3730275
        },
        "keyAccentLanguage": "bogora"
      },
      {
        "code": 0,
        "type": "City",
        "enNameLanguage": "Mogiri",
        "location": {
          "lat": 4.846687,
          "lng": 31.852221
        },
        "keyAccentLanguage": "mogiri"
      },
      {
        "code": 0,
        "type": "City",
        "enNameLanguage": "Edemo",
        "location": {
          "lat": 4.468611,
          "lng": 31.924722
        },
        "keyAccentLanguage": "edemo"
      },
      {
        "code": 0,
        "type": "City",
        "enNameLanguage": "Lalyo",
        "location": {
          "lat": 4.2647305,
          "lng": 31.0532541
        },
        "keyAccentLanguage": "lalyo"
      },
      {
        "code": 0,
        "type": "City",
        "enNameLanguage": "Gigging",
        "location": {
          "lat": 5.701111,
          "lng": 31.712222
        },
        "keyAccentLanguage": "gigging"
      },
      {
        "code": 0,
        "type": "City",
        "enNameLanguage": "Borgan",
        "location": {
          "lat": 5.522222,
          "lng": 31.325833
        },
        "keyAccentLanguage": "borgan"
      },
      {
        "code": 0,
        "type": "City",
        "enNameLanguage": "Bunduqiyah",
        "location": {
          "lat": 5.125551,
          "lng": 30.919029
        },
        "keyAccentLanguage": "bunduqiyah"
      },
      {
        "code": 0,
        "type": "City",
        "enNameLanguage": "Gondokoro",
        "location": {
          "lat": 4.899999999999999,
          "lng": 31.666667
        },
        "keyAccentLanguage": "gondokoro"
      },
      {
        "code": 0,
        "type": "City",
        "enNameLanguage": "Buron",
        "location": {
          "lat": 5.920555999999999,
          "lng": 30.582222
        },
        "keyAccentLanguage": "buron"
      },
      {
        "code": 0,
        "type": "City",
        "enNameLanguage": "Tindalo",
        "location": {
          "lat": 5.652673,
          "lng": 31.05127
        },
        "keyAccentLanguage": "tindalo"
      },
      {
        "code": 0,
        "type": "City",
        "enNameLanguage": "Rajjaf",
        "location": {
          "lat": 4.6144063,
          "lng": 31.2626366
        },
        "keyAccentLanguage": "rajjaf"
      },
      {
        "code": 0,
        "type": "City",
        "enNameLanguage": "Marata",
        "location": {
          "lat": 4.684839,
          "lng": 30.540541
        },
        "keyAccentLanguage": "marata"
      },
      {
        "code": 0,
        "type": "City",
        "enNameLanguage": "Tombe",
        "location": {
          "lat": 5.8203923,
          "lng": 31.6682347
        },
        "keyAccentLanguage": "tombe"
      },
      {
        "code": 0,
        "type": "City",
        "enNameLanguage": "Kajo Kaji",
        "location": {
          "lat": 3.8550654,
          "lng": 31.65682899999999
        },
        "keyAccentLanguage": "kajo_kaji"
      },
      {
        "code": 0,
        "type": "City",
        "enNameLanguage": "Rokon",
        "location": {
          "lat": 5.1321751,
          "lng": 30.9417394
        },
        "keyAccentLanguage": "rokon"
      },
      {
        "code": 0,
        "type": "City",
        "enNameLanguage": "Enduru",
        "location": {
          "lat": 4.237222,
          "lng": 30.766111
        },
        "keyAccentLanguage": "enduru"
      },
      {
        "code": 0,
        "type": "City",
        "enNameLanguage": "Goja",
        "location": {
          "lat": 3.861944,
          "lng": 30.601944
        },
        "keyAccentLanguage": "goja"
      },
      {
        "code": 0,
        "type": "City",
        "enNameLanguage": "Jalang",
        "location": {
          "lat": 5.049297999999999,
          "lng": 31.64282
        },
        "keyAccentLanguage": "jalang"
      },
      {
        "code": 0,
        "type": "City",
        "enNameLanguage": "Gboerr",
        "location": {
          "lat": 5.760555999999999,
          "lng": 31.5675
        },
        "keyAccentLanguage": "gboerr"
      },
      {
        "code": 0,
        "type": "City",
        "enNameLanguage": "Beyli",
        "location": {
          "lat": 4.599722,
          "lng": 31.559722
        },
        "keyAccentLanguage": "beyli"
      }
    ],
    "enNameLanguage": "Central Equatoria",
    "keyAccentLanguage": "central_equatoria"
  },
  {
    "code": 0,
    "type": "State",
    "location": {
      "lat": 5.0692995,
      "lng": 33.438353
    },
    "districtList": [
      {
        "code": 0,
        "type": "City",
        "enNameLanguage": "Ambaio",
        "location": {
          "lat": 3.883332999999999,
          "lng": 32.016667
        },
        "keyAccentLanguage": "ambaio"
      },
      {
        "code": 0,
        "type": "City",
        "enNameLanguage": "Balala",
        "location": {
          "lat": 5.0692995,
          "lng": 33.438353
        },
        "keyAccentLanguage": "balala"
      },
      {
        "code": 0,
        "type": "City",
        "enNameLanguage": "Buru",
        "location": {
          "lat": 5.0692995,
          "lng": 33.438353
        },
        "keyAccentLanguage": "buru"
      },
      {
        "code": 0,
        "type": "City",
        "enNameLanguage": "Bolo",
        "location": {
          "lat": 5.0692995,
          "lng": 33.438353
        },
        "keyAccentLanguage": "bolo"
      },
      {
        "code": 0,
        "type": "City",
        "enNameLanguage": "Akoro",
        "location": {
          "lat": 5.0692995,
          "lng": 33.438353
        },
        "keyAccentLanguage": "akoro"
      },
      {
        "code": 0,
        "type": "City",
        "enNameLanguage": "Aribo",
        "location": {
          "lat": 5.0692995,
          "lng": 33.438353
        },
        "keyAccentLanguage": "aribo"
      },
      {
        "code": 0,
        "type": "City",
        "enNameLanguage": "Fundiker",
        "location": {
          "lat": 5.0692995,
          "lng": 33.438353
        },
        "keyAccentLanguage": "fundiker"
      },
      {
        "code": 0,
        "type": "City",
        "enNameLanguage": "Burawa",
        "location": {
          "lat": 5.0692995,
          "lng": 33.438353
        },
        "keyAccentLanguage": "burawa"
      },
      {
        "code": 0,
        "type": "City",
        "enNameLanguage": "Iloli",
        "location": {
          "lat": 5.0692995,
          "lng": 33.438353
        },
        "keyAccentLanguage": "iloli"
      },
      {
        "code": 0,
        "type": "City",
        "enNameLanguage": "Fakala",
        "location": {
          "lat": 5.0692995,
          "lng": 33.438353
        },
        "keyAccentLanguage": "fakala"
      },
      {
        "code": 0,
        "type": "City",
        "enNameLanguage": "Gelle",
        "location": {
          "lat": 5.0692995,
          "lng": 33.438353
        },
        "keyAccentLanguage": "gelle"
      },
      {
        "code": 0,
        "type": "City",
        "enNameLanguage": "Dumak",
        "location": {
          "lat": 5.0692995,
          "lng": 33.438353
        },
        "keyAccentLanguage": "dumak"
      },
      {
        "code": 0,
        "type": "City",
        "enNameLanguage": "Adimakuj",
        "location": {
          "lat": 5.0692995,
          "lng": 33.438353
        },
        "keyAccentLanguage": "adimakuj"
      },
      {
        "code": 0,
        "type": "City",
        "enNameLanguage": "Agoro",
        "location": {
          "lat": 4.14,
          "lng": 32.2299999
        },
        "keyAccentLanguage": "agoro"
      },
      {
        "code": 0,
        "type": "City",
        "enNameLanguage": "Apalla",
        "location": {
          "lat": 3.683333,
          "lng": 31.966667
        },
        "keyAccentLanguage": "apalla"
      },
      {
        "code": 0,
        "type": "City",
        "enNameLanguage": "Chukudum",
        "location": {
          "lat": 4.2345345,
          "lng": 33.4980766
        },
        "keyAccentLanguage": "chukudum"
      },
      {
        "code": 0,
        "type": "City",
        "enNameLanguage": "Dorik",
        "location": {
          "lat": 5.0692995,
          "lng": 33.438353
        },
        "keyAccentLanguage": "dorik"
      },
      {
        "code": 0,
        "type": "City",
        "enNameLanguage": "Garingoru",
        "location": {
          "lat": 5.0692995,
          "lng": 33.438353
        },
        "keyAccentLanguage": "garingoru"
      },
      {
        "code": 0,
        "type": "City",
        "enNameLanguage": "Bari",
        "location": {
          "lat": 4.567778,
          "lng": 32.462778
        },
        "keyAccentLanguage": "bari"
      },
      {
        "code": 0,
        "type": "City",
        "enNameLanguage": "Gesiga",
        "location": {
          "lat": 5.0692995,
          "lng": 33.438353
        },
        "keyAccentLanguage": "gesiga"
      },
      {
        "code": 0,
        "type": "City",
        "enNameLanguage": "Chokagiling",
        "location": {
          "lat": 5.216667,
          "lng": 33.716667
        },
        "keyAccentLanguage": "chokagiling"
      },
      {
        "code": 0,
        "type": "City",
        "enNameLanguage": "Angi",
        "location": {
          "lat": 3.75,
          "lng": 31.933333
        },
        "keyAccentLanguage": "angi"
      },
      {
        "code": 0,
        "type": "City",
        "enNameLanguage": "Farajok",
        "location": {
          "lat": 5.0692995,
          "lng": 33.438353
        },
        "keyAccentLanguage": "farajok"
      },
      {
        "code": 0,
        "type": "City",
        "enNameLanguage": "Idong",
        "location": {
          "lat": 5.0692995,
          "lng": 33.438353
        },
        "keyAccentLanguage": "idong"
      },
      {
        "code": 0,
        "type": "City",
        "enNameLanguage": "Digidok",
        "location": {
          "lat": 5.0692995,
          "lng": 33.438353
        },
        "keyAccentLanguage": "digidok"
      },
      {
        "code": 0,
        "type": "City",
        "enNameLanguage": "Irenge",
        "location": {
          "lat": 5.0692995,
          "lng": 33.438353
        },
        "keyAccentLanguage": "irenge"
      },
      {
        "code": 0,
        "type": "City",
        "enNameLanguage": "Dilen",
        "location": {
          "lat": 4.449444,
          "lng": 32.448889
        },
        "keyAccentLanguage": "dilen"
      },
      {
        "code": 0,
        "type": "City",
        "enNameLanguage": "Iluko",
        "location": {
          "lat": 3.866666999999999,
          "lng": 33.5
        },
        "keyAccentLanguage": "iluko"
      },
      {
        "code": 0,
        "type": "City",
        "enNameLanguage": "Charet",
        "location": {
          "lat": 4.28,
          "lng": 33.68
        },
        "keyAccentLanguage": "charet"
      },
      {
        "code": 0,
        "type": "City",
        "enNameLanguage": "Ghabah",
        "location": {
          "lat": 5.0692995,
          "lng": 33.438353
        },
        "keyAccentLanguage": "ghabah"
      },
      {
        "code": 0,
        "type": "City",
        "enNameLanguage": "Betiguli",
        "location": {
          "lat": 5.0692995,
          "lng": 33.438353
        },
        "keyAccentLanguage": "betiguli"
      },
      {
        "code": 0,
        "type": "City",
        "enNameLanguage": "Imela",
        "location": {
          "lat": 4.184167,
          "lng": 32.69
        },
        "keyAccentLanguage": "imela"
      },
      {
        "code": 0,
        "type": "City",
        "enNameLanguage": "Gilo",
        "location": {
          "lat": 4.0463954,
          "lng": 32.8340146
        },
        "keyAccentLanguage": "gilo"
      },
      {
        "code": 0,
        "type": "City",
        "enNameLanguage": "Ayum",
        "location": {
          "lat": 4.0325,
          "lng": 32.1302779
        },
        "keyAccentLanguage": "ayum"
      },
      {
        "code": 0,
        "type": "City",
        "enNameLanguage": "Chief-Lotiang",
        "location": {
          "lat": 4.901111,
          "lng": 33.716667
        },
        "keyAccentLanguage": "chief-lotiang"
      },
      {
        "code": 0,
        "type": "City",
        "enNameLanguage": "Arungateli",
        "location": {
          "lat": 4.610556,
          "lng": 33.226944
        },
        "keyAccentLanguage": "arungateli"
      },
      {
        "code": 0,
        "type": "City",
        "enNameLanguage": "Chalamni",
        "location": {
          "lat": 4.491944,
          "lng": 32.915278
        },
        "keyAccentLanguage": "chalamni"
      },
      {
        "code": 0,
        "type": "City",
        "enNameLanguage": "Chief-Longidio",
        "location": {
          "lat": 5.0692995,
          "lng": 33.438353
        },
        "keyAccentLanguage": "chief-longidio"
      },
      {
        "code": 0,
        "type": "City",
        "enNameLanguage": "Ibalani",
        "location": {
          "lat": 5.0692995,
          "lng": 33.438353
        },
        "keyAccentLanguage": "ibalani"
      },
      {
        "code": 0,
        "type": "City",
        "enNameLanguage": "Gunyuro",
        "location": {
          "lat": 4.325278,
          "lng": 32.414167
        },
        "keyAccentLanguage": "gunyuro"
      },
      {
        "code": 0,
        "type": "City",
        "enNameLanguage": "Gajawuru",
        "location": {
          "lat": 5.0692995,
          "lng": 33.438353
        },
        "keyAccentLanguage": "gajawuru"
      },
      {
        "code": 0,
        "type": "City",
        "enNameLanguage": "Isuluk",
        "location": {
          "lat": 4.1791667,
          "lng": 33.0633333
        },
        "keyAccentLanguage": "isuluk"
      },
      {
        "code": 0,
        "type": "City",
        "enNameLanguage": "Ibegilik",
        "location": {
          "lat": 4.198888999999999,
          "lng": 33.038333
        },
        "keyAccentLanguage": "ibegilik"
      },
      {
        "code": 0,
        "type": "City",
        "enNameLanguage": "Kakelay",
        "location": {
          "lat": 5.0692995,
          "lng": 33.438353
        },
        "keyAccentLanguage": "kakelay"
      },
      {
        "code": 0,
        "type": "City",
        "enNameLanguage": "Kokwo",
        "location": {
          "lat": 5.0692995,
          "lng": 33.438353
        },
        "keyAccentLanguage": "kokwo"
      },
      {
        "code": 0,
        "type": "City",
        "enNameLanguage": "Ikoto",
        "location": {
          "lat": 5.0692995,
          "lng": 33.438353
        },
        "keyAccentLanguage": "ikoto"
      },
      {
        "code": 0,
        "type": "City",
        "enNameLanguage": "Ikulis",
        "location": {
          "lat": 4.368889,
          "lng": 32.8825
        },
        "keyAccentLanguage": "ikulis"
      },
      {
        "code": 0,
        "type": "City",
        "enNameLanguage": "Liwan",
        "location": {
          "lat": 5.0692995,
          "lng": 33.438353
        },
        "keyAccentLanguage": "liwan"
      },
      {
        "code": 0,
        "type": "City",
        "enNameLanguage": "Amiling",
        "location": {
          "lat": 4.194167,
          "lng": 32.3558329
        },
        "keyAccentLanguage": "amiling"
      },
      {
        "code": 0,
        "type": "City",
        "enNameLanguage": "Goya",
        "location": {
          "lat": 5.0692995,
          "lng": 33.438353
        },
        "keyAccentLanguage": "goya"
      },
      {
        "code": 0,
        "type": "City",
        "enNameLanguage": "Alego",
        "location": {
          "lat": 4.433889,
          "lng": 32.159722
        },
        "keyAccentLanguage": "alego"
      },
      {
        "code": 0,
        "type": "City",
        "enNameLanguage": "Nagichot",
        "location": {
          "lat": 5.0692995,
          "lng": 33.438353
        },
        "keyAccentLanguage": "nagichot"
      },
      {
        "code": 0,
        "type": "City",
        "enNameLanguage": "Lafon",
        "location": {
          "lat": 5.043647,
          "lng": 32.4562
        },
        "keyAccentLanguage": "lafon"
      },
      {
        "code": 0,
        "type": "City",
        "enNameLanguage": "Hoyuni",
        "location": {
          "lat": 4.0961109,
          "lng": 32.775556
        },
        "keyAccentLanguage": "hoyuni"
      },
      {
        "code": 0,
        "type": "City",
        "enNameLanguage": "Furuta",
        "location": {
          "lat": 3.983333,
          "lng": 33.2
        },
        "keyAccentLanguage": "furuta"
      },
      {
        "code": 0,
        "type": "City",
        "enNameLanguage": "Itigin",
        "location": {
          "lat": 5.0692995,
          "lng": 33.438353
        },
        "keyAccentLanguage": "itigin"
      },
      {
        "code": 0,
        "type": "City",
        "enNameLanguage": "Ibunyak",
        "location": {
          "lat": 5.0692995,
          "lng": 33.438353
        },
        "keyAccentLanguage": "ibunyak"
      },
      {
        "code": 0,
        "type": "City",
        "enNameLanguage": "Iwowa",
        "location": {
          "lat": 5.0692995,
          "lng": 33.438353
        },
        "keyAccentLanguage": "iwowa"
      },
      {
        "code": 0,
        "type": "City",
        "enNameLanguage": "Iyiri",
        "location": {
          "lat": 5.0692995,
          "lng": 33.438353
        },
        "keyAccentLanguage": "iyiri"
      },
      {
        "code": 0,
        "type": "City",
        "enNameLanguage": "Fadieri",
        "location": {
          "lat": 3.983333,
          "lng": 32.05
        },
        "keyAccentLanguage": "fadieri"
      },
      {
        "code": 0,
        "type": "City",
        "enNameLanguage": "Aiyerri",
        "location": {
          "lat": 4.041944,
          "lng": 32.431667
        },
        "keyAccentLanguage": "aiyerri"
      },
      {
        "code": 0,
        "type": "City",
        "enNameLanguage": "Nangolet",
        "location": {
          "lat": 5.0692995,
          "lng": 33.438353
        },
        "keyAccentLanguage": "nangolet"
      },
      {
        "code": 0,
        "type": "City",
        "enNameLanguage": "Melia",
        "location": {
          "lat": 4.091069,
          "lng": 33.0826909
        },
        "keyAccentLanguage": "melia"
      },
      {
        "code": 0,
        "type": "City",
        "enNameLanguage": "Nagpotpot",
        "location": {
          "lat": 5.0692995,
          "lng": 33.438353
        },
        "keyAccentLanguage": "nagpotpot"
      },
      {
        "code": 0,
        "type": "City",
        "enNameLanguage": "Idali",
        "location": {
          "lat": 4.716667,
          "lng": 32.7
        },
        "keyAccentLanguage": "idali"
      },
      {
        "code": 0,
        "type": "City",
        "enNameLanguage": "Ichena",
        "location": {
          "lat": 4.261944,
          "lng": 33.071111
        },
        "keyAccentLanguage": "ichena"
      },
      {
        "code": 0,
        "type": "City",
        "enNameLanguage": "Imadala",
        "location": {
          "lat": 5.0692995,
          "lng": 33.438353
        },
        "keyAccentLanguage": "imadala"
      },
      {
        "code": 0,
        "type": "City",
        "enNameLanguage": "Itibol",
        "location": {
          "lat": 4.0252778,
          "lng": 32.8858333
        },
        "keyAccentLanguage": "itibol"
      },
      {
        "code": 0,
        "type": "City",
        "enNameLanguage": "Kibish",
        "location": {
          "lat": 5.0917737,
          "lng": 35.3905046
        },
        "keyAccentLanguage": "kibish"
      },
      {
        "code": 0,
        "type": "City",
        "enNameLanguage": "Kaforere",
        "location": {
          "lat": 4.44,
          "lng": 32.81
        },
        "keyAccentLanguage": "kaforere"
      },
      {
        "code": 0,
        "type": "City",
        "enNameLanguage": "Lolimi",
        "location": {
          "lat": 4.591232,
          "lng": 33.983978
        },
        "keyAccentLanguage": "lolimi"
      },
      {
        "code": 0,
        "type": "City",
        "enNameLanguage": "Kalopedet",
        "location": {
          "lat": 5.300000000000001,
          "lng": 33.4
        },
        "keyAccentLanguage": "kalopedet"
      },
      {
        "code": 0,
        "type": "City",
        "enNameLanguage": "Gweri",
        "location": {
          "lat": 5.0692995,
          "lng": 33.438353
        },
        "keyAccentLanguage": "gweri"
      },
      {
        "code": 0,
        "type": "City",
        "enNameLanguage": "Ituko",
        "location": {
          "lat": 5.0692995,
          "lng": 33.438353
        },
        "keyAccentLanguage": "ituko"
      },
      {
        "code": 0,
        "type": "City",
        "enNameLanguage": "Iwochi",
        "location": {
          "lat": 5.0692995,
          "lng": 33.438353
        },
        "keyAccentLanguage": "iwochi"
      },
      {
        "code": 0,
        "type": "City",
        "enNameLanguage": "Karakamuge",
        "location": {
          "lat": 5.204483,
          "lng": 33.5202219
        },
        "keyAccentLanguage": "karakamuge"
      },
      {
        "code": 0,
        "type": "City",
        "enNameLanguage": "Torit",
        "location": {
          "lat": 4.4102396,
          "lng": 32.5740376
        },
        "keyAccentLanguage": "torit"
      },
      {
        "code": 0,
        "type": "City",
        "enNameLanguage": "Loming",
        "location": {
          "lat": 4.333839999999999,
          "lng": 33.684349
        },
        "keyAccentLanguage": "loming"
      },
      {
        "code": 0,
        "type": "City",
        "enNameLanguage": "Nater",
        "location": {
          "lat": 4.731944,
          "lng": 33.617778
        },
        "keyAccentLanguage": "nater"
      },
      {
        "code": 0,
        "type": "City",
        "enNameLanguage": "Ingelire",
        "location": {
          "lat": 5.0692995,
          "lng": 33.438353
        },
        "keyAccentLanguage": "ingelire"
      },
      {
        "code": 0,
        "type": "City",
        "enNameLanguage": "Kaliaputh",
        "location": {
          "lat": 5.2,
          "lng": 33.766667
        },
        "keyAccentLanguage": "kaliaputh"
      },
      {
        "code": 0,
        "type": "City",
        "enNameLanguage": "Gongming",
        "location": {
          "lat": 4.1028399,
          "lng": 33.239422
        },
        "keyAccentLanguage": "gongming"
      },
      {
        "code": 0,
        "type": "City",
        "enNameLanguage": "Logirim",
        "location": {
          "lat": 4.7227562,
          "lng": 33.2445402
        },
        "keyAccentLanguage": "logirim"
      },
      {
        "code": 0,
        "type": "City",
        "enNameLanguage": "Nyapongeth",
        "location": {
          "lat": 5.131234,
          "lng": 33.749889
        },
        "keyAccentLanguage": "nyapongeth"
      },
      {
        "code": 0,
        "type": "City",
        "enNameLanguage": "Nimule",
        "location": {
          "lat": 3.5915846,
          "lng": 32.0638586
        },
        "keyAccentLanguage": "nimule"
      },
      {
        "code": 0,
        "type": "City",
        "enNameLanguage": "Karimoja",
        "location": {
          "lat": 2.8308738,
          "lng": 34.1531947
        },
        "keyAccentLanguage": "karimoja"
      },
      {
        "code": 0,
        "type": "City",
        "enNameLanguage": "Karena",
        "location": {
          "lat": 4.1908329,
          "lng": 33.67833299999999
        },
        "keyAccentLanguage": "karena"
      },
      {
        "code": 0,
        "type": "City",
        "enNameLanguage": "Loronyo",
        "location": {
          "lat": 4.649999999999999,
          "lng": 32.633333
        },
        "keyAccentLanguage": "loronyo"
      },
      {
        "code": 0,
        "type": "City",
        "enNameLanguage": "Itigip",
        "location": {
          "lat": 4.300555999999999,
          "lng": 33.49
        },
        "keyAccentLanguage": "itigip"
      },
      {
        "code": 0,
        "type": "City",
        "enNameLanguage": "Issore",
        "location": {
          "lat": 3.901221,
          "lng": 32.78677
        },
        "keyAccentLanguage": "issore"
      },
      {
        "code": 0,
        "type": "City",
        "enNameLanguage": "Kangibun",
        "location": {
          "lat": 5.35,
          "lng": 33.366667
        },
        "keyAccentLanguage": "kangibun"
      },
      {
        "code": 0,
        "type": "City",
        "enNameLanguage": "Iboni",
        "location": {
          "lat": 4.666666999999999,
          "lng": 32.783333
        },
        "keyAccentLanguage": "iboni"
      },
      {
        "code": 0,
        "type": "City",
        "enNameLanguage": "Ikatik",
        "location": {
          "lat": 4.038333,
          "lng": 33.21305600000001
        },
        "keyAccentLanguage": "ikatik"
      },
      {
        "code": 0,
        "type": "City",
        "enNameLanguage": "Kapoeta",
        "location": {
          "lat": 5.1574333,
          "lng": 34.3310364
        },
        "keyAccentLanguage": "kapoeta"
      },
      {
        "code": 0,
        "type": "City",
        "enNameLanguage": "Longairo",
        "location": {
          "lat": 4.510619,
          "lng": 32.28582
        },
        "keyAccentLanguage": "longairo"
      },
      {
        "code": 0,
        "type": "City",
        "enNameLanguage": "Ngigalingatun",
        "location": {
          "lat": 5.383332999999999,
          "lng": 33.3
        },
        "keyAccentLanguage": "ngigalingatun"
      },
      {
        "code": 0,
        "type": "City",
        "enNameLanguage": "Keyala",
        "location": {
          "lat": 4.469679,
          "lng": 32.858292
        },
        "keyAccentLanguage": "keyala"
      },
      {
        "code": 0,
        "type": "City",
        "enNameLanguage": "Magwe",
        "location": {
          "lat": 4.132842999999999,
          "lng": 32.2803309
        },
        "keyAccentLanguage": "magwe"
      },
      {
        "code": 0,
        "type": "City",
        "enNameLanguage": "Kachaching",
        "location": {
          "lat": 4.407,
          "lng": 33.575
        },
        "keyAccentLanguage": "kachaching"
      },
      {
        "code": 0,
        "type": "City",
        "enNameLanguage": "Gonyiro",
        "location": {
          "lat": 4.243,
          "lng": 32.507
        },
        "keyAccentLanguage": "gonyiro"
      }
    ],
    "enNameLanguage": "Eastern Equatoria",
    "keyAccentLanguage": "eastern_equatoria"
  },
  {
    "code": 0,
    "type": "State",
    "location": {
      "lat": 7.181961899999999,
      "lng": 32.3560952
    },
    "districtList": [
      {
        "code": 0,
        "type": "City",
        "enNameLanguage": "Bor",
        "location": {
          "lat": 6.2132663,
          "lng": 31.5655424
        },
        "keyAccentLanguage": "bor"
      },
      {
        "code": 0,
        "type": "City",
        "enNameLanguage": "Bor",
        "location": {
          "lat": 6.2132663,
          "lng": 31.5655424
        },
        "keyAccentLanguage": "bor"
      },
      {
        "code": 0,
        "type": "City",
        "enNameLanguage": "Ajon",
        "location": {
          "lat": 6.837966,
          "lng": 31.28277
        },
        "keyAccentLanguage": "ajon"
      },
      {
        "code": 0,
        "type": "City",
        "enNameLanguage": "Angnor",
        "location": {
          "lat": 6.837966,
          "lng": 31.28277
        },
        "keyAccentLanguage": "angnor"
      },
      {
        "code": 0,
        "type": "City",
        "enNameLanguage": "Areit",
        "location": {
          "lat": 6.837966,
          "lng": 31.28277
        },
        "keyAccentLanguage": "areit"
      },
      {
        "code": 0,
        "type": "City",
        "enNameLanguage": "Bong",
        "location": {
          "lat": 6.837966,
          "lng": 31.28277
        },
        "keyAccentLanguage": "bong"
      },
      {
        "code": 0,
        "type": "City",
        "enNameLanguage": "Akok",
        "location": {
          "lat": 6.837966,
          "lng": 31.28277
        },
        "keyAccentLanguage": "akok"
      },
      {
        "code": 0,
        "type": "City",
        "enNameLanguage": "Aliang",
        "location": {
          "lat": 6.837966,
          "lng": 31.28277
        },
        "keyAccentLanguage": "aliang"
      },
      {
        "code": 0,
        "type": "City",
        "enNameLanguage": "Ajibja",
        "location": {
          "lat": 7,
          "lng": 31.383333
        },
        "keyAccentLanguage": "ajibja"
      },
      {
        "code": 0,
        "type": "City",
        "enNameLanguage": "Akai",
        "location": {
          "lat": 8.733333000000002,
          "lng": 31.1
        },
        "keyAccentLanguage": "akai"
      },
      {
        "code": 0,
        "type": "City",
        "enNameLanguage": "Abodit",
        "location": {
          "lat": 6.595278,
          "lng": 31.496667
        },
        "keyAccentLanguage": "abodit"
      },
      {
        "code": 0,
        "type": "City",
        "enNameLanguage": "Achoma",
        "location": {
          "lat": 6.336111,
          "lng": 31.610278
        },
        "keyAccentLanguage": "achoma"
      },
      {
        "code": 0,
        "type": "City",
        "enNameLanguage": "Alanga",
        "location": {
          "lat": 6.837966,
          "lng": 31.28277
        },
        "keyAccentLanguage": "alanga"
      },
      {
        "code": 0,
        "type": "City",
        "enNameLanguage": "Biau",
        "location": {
          "lat": 8.04267,
          "lng": 31.12965999999999
        },
        "keyAccentLanguage": "biau"
      },
      {
        "code": 0,
        "type": "City",
        "enNameLanguage": "Baidit",
        "location": {
          "lat": 6.425625399999999,
          "lng": 31.554122
        },
        "keyAccentLanguage": "baidit"
      },
      {
        "code": 0,
        "type": "City",
        "enNameLanguage": "Atcherah",
        "location": {
          "lat": 6.766667,
          "lng": 33.066667
        },
        "keyAccentLanguage": "atcherah"
      },
      {
        "code": 0,
        "type": "City",
        "enNameLanguage": "Bul",
        "location": {
          "lat": 8.260712,
          "lng": 32.055321
        },
        "keyAccentLanguage": "bul"
      },
      {
        "code": 0,
        "type": "City",
        "enNameLanguage": "Achol",
        "location": {
          "lat": 6.837966,
          "lng": 31.28277
        },
        "keyAccentLanguage": "achol"
      },
      {
        "code": 0,
        "type": "City",
        "enNameLanguage": "Buldiya",
        "location": {
          "lat": 8.216944,
          "lng": 30.83277799999999
        },
        "keyAccentLanguage": "buldiya"
      },
      {
        "code": 0,
        "type": "City",
        "enNameLanguage": "Akowit",
        "location": {
          "lat": 6.837966,
          "lng": 31.28277
        },
        "keyAccentLanguage": "akowit"
      },
      {
        "code": 0,
        "type": "City",
        "enNameLanguage": "Anokwai",
        "location": {
          "lat": 6.398333,
          "lng": 31.559722
        },
        "keyAccentLanguage": "anokwai"
      },
      {
        "code": 0,
        "type": "City",
        "enNameLanguage": "Batimoru",
        "location": {
          "lat": 6.366667,
          "lng": 33.383333
        },
        "keyAccentLanguage": "batimoru"
      },
      {
        "code": 0,
        "type": "City",
        "enNameLanguage": "Berboi",
        "location": {
          "lat": 9.453356,
          "lng": 31.02401
        },
        "keyAccentLanguage": "berboi"
      },
      {
        "code": 0,
        "type": "City",
        "enNameLanguage": "Bura",
        "location": {
          "lat": 6.837966,
          "lng": 31.28277
        },
        "keyAccentLanguage": "bura"
      },
      {
        "code": 0,
        "type": "City",
        "enNameLanguage": "Malek",
        "location": {
          "lat": 6.837966,
          "lng": 31.28277
        },
        "keyAccentLanguage": "malek"
      },
      {
        "code": 0,
        "type": "City",
        "enNameLanguage": "Badodi",
        "location": {
          "lat": 9.289420999999999,
          "lng": 31.397671
        },
        "keyAccentLanguage": "badodi"
      },
      {
        "code": 0,
        "type": "City",
        "enNameLanguage": "Bior Arbit",
        "location": {
          "lat": 7.181961899999999,
          "lng": 32.3560952
        },
        "keyAccentLanguage": "bior_arbit"
      },
      {
        "code": 0,
        "type": "City",
        "enNameLanguage": "Junqali",
        "location": {
          "lat": 6.837966,
          "lng": 31.28277
        },
        "keyAccentLanguage": "junqali"
      },
      {
        "code": 0,
        "type": "City",
        "enNameLanguage": "Bungo",
        "location": {
          "lat": 7.399999999999999,
          "lng": 33.96
        },
        "keyAccentLanguage": "bungo"
      },
      {
        "code": 0,
        "type": "City",
        "enNameLanguage": "Kongor",
        "location": {
          "lat": 7.159369,
          "lng": 31.34118999999999
        },
        "keyAccentLanguage": "kongor"
      },
      {
        "code": 0,
        "type": "City",
        "enNameLanguage": "Ajuini",
        "location": {
          "lat": 7.466666999999999,
          "lng": 31.416667
        },
        "keyAccentLanguage": "ajuini"
      },
      {
        "code": 0,
        "type": "City",
        "enNameLanguage": "Didi",
        "location": {
          "lat": 6.3,
          "lng": 34.483333
        },
        "keyAccentLanguage": "didi"
      },
      {
        "code": 0,
        "type": "City",
        "enNameLanguage": "Ad Fakwan",
        "location": {
          "lat": 8.536944000000002,
          "lng": 30.653611
        },
        "keyAccentLanguage": "ad_fakwan"
      },
      {
        "code": 0,
        "type": "City",
        "enNameLanguage": "Aynyadi",
        "location": {
          "lat": 6.837966,
          "lng": 31.28277
        },
        "keyAccentLanguage": "aynyadi"
      },
      {
        "code": 0,
        "type": "City",
        "enNameLanguage": "Bongak",
        "location": {
          "lat": 7.437366,
          "lng": 33.217369
        },
        "keyAccentLanguage": "bongak"
      },
      {
        "code": 0,
        "type": "City",
        "enNameLanguage": "Burbur",
        "location": {
          "lat": 6.616667,
          "lng": 32.966667
        },
        "keyAccentLanguage": "burbur"
      },
      {
        "code": 0,
        "type": "City",
        "enNameLanguage": "Bwon Ngera",
        "location": {
          "lat": 9.235555999999999,
          "lng": 30.812222
        },
        "keyAccentLanguage": "bwon_ngera"
      },
      {
        "code": 0,
        "type": "City",
        "enNameLanguage": "Buragwa",
        "location": {
          "lat": 6.837966,
          "lng": 31.28277
        },
        "keyAccentLanguage": "buragwa"
      },
      {
        "code": 0,
        "type": "City",
        "enNameLanguage": "Mogogh",
        "location": {
          "lat": 8.451704,
          "lng": 31.327909
        },
        "keyAccentLanguage": "mogogh"
      },
      {
        "code": 0,
        "type": "City",
        "enNameLanguage": "Chiulbong",
        "location": {
          "lat": 8.65,
          "lng": 31.4
        },
        "keyAccentLanguage": "chiulbong"
      },
      {
        "code": 0,
        "type": "City",
        "enNameLanguage": "Budwot",
        "location": {
          "lat": 8.253116,
          "lng": 32.135849
        },
        "keyAccentLanguage": "budwot"
      },
      {
        "code": 0,
        "type": "City",
        "enNameLanguage": "Fanoing",
        "location": {
          "lat": 6.449229000000001,
          "lng": 31.54265
        },
        "keyAccentLanguage": "fanoing"
      },
      {
        "code": 0,
        "type": "City",
        "enNameLanguage": "Pochala",
        "location": {
          "lat": 7.177186599999999,
          "lng": 34.0876947
        },
        "keyAccentLanguage": "pochala"
      },
      {
        "code": 0,
        "type": "City",
        "enNameLanguage": "Towot",
        "location": {
          "lat": 6.172358,
          "lng": 34.383141
        },
        "keyAccentLanguage": "towot"
      },
      {
        "code": 0,
        "type": "City",
        "enNameLanguage": "Duk Fadiat",
        "location": {
          "lat": 7.750782099999999,
          "lng": 31.3970415
        },
        "keyAccentLanguage": "duk_fadiat"
      },
      {
        "code": 0,
        "type": "City",
        "enNameLanguage": "Waw",
        "location": {
          "lat": 8.261664,
          "lng": 31.375641
        },
        "keyAccentLanguage": "waw"
      },
      {
        "code": 0,
        "type": "City",
        "enNameLanguage": "Chargoz",
        "location": {
          "lat": 6.966667,
          "lng": 33.016667
        },
        "keyAccentLanguage": "chargoz"
      },
      {
        "code": 0,
        "type": "City",
        "enNameLanguage": "Buingfor",
        "location": {
          "lat": 8.316666999999999,
          "lng": 31.016667
        },
        "keyAccentLanguage": "buingfor"
      },
      {
        "code": 0,
        "type": "City",
        "enNameLanguage": "Pibor Post",
        "location": {
          "lat": 6.8001687,
          "lng": 33.126717
        },
        "keyAccentLanguage": "pibor_post"
      },
      {
        "code": 0,
        "type": "City",
        "enNameLanguage": "Kongettit",
        "location": {
          "lat": 7.424073,
          "lng": 32.782902
        },
        "keyAccentLanguage": "kongettit"
      },
      {
        "code": 0,
        "type": "City",
        "enNameLanguage": "Akuich",
        "location": {
          "lat": 6.984722000000001,
          "lng": 31.234444
        },
        "keyAccentLanguage": "akuich"
      },
      {
        "code": 0,
        "type": "City",
        "enNameLanguage": "Thul",
        "location": {
          "lat": 8.491482999999999,
          "lng": 32.061081
        },
        "keyAccentLanguage": "thul"
      },
      {
        "code": 0,
        "type": "City",
        "enNameLanguage": "Waat",
        "location": {
          "lat": 8.2016564,
          "lng": 32.1575745
        },
        "keyAccentLanguage": "waat"
      },
      {
        "code": 0,
        "type": "City",
        "enNameLanguage": "Sobat Camp",
        "location": {
          "lat": 8.88516051977155,
          "lng": 32.39789665030801
        },
        "keyAccentLanguage": "sobat_camp"
      },
      {
        "code": 0,
        "type": "City",
        "enNameLanguage": "Yarkwaich",
        "location": {
          "lat": 8.926966,
          "lng": 32.40958
        },
        "keyAccentLanguage": "yarkwaich"
      },
      {
        "code": 0,
        "type": "City",
        "enNameLanguage": "Fakwak",
        "location": {
          "lat": 8.356190999999999,
          "lng": 30.727739
        },
        "keyAccentLanguage": "fakwak"
      },
      {
        "code": 0,
        "type": "City",
        "enNameLanguage": "Neum",
        "location": {
          "lat": 6.837966,
          "lng": 31.28277
        },
        "keyAccentLanguage": "neum"
      },
      {
        "code": 0,
        "type": "City",
        "enNameLanguage": "Fathai",
        "location": {
          "lat": 6.837966,
          "lng": 31.28277
        },
        "keyAccentLanguage": "fathai"
      },
      {
        "code": 0,
        "type": "City",
        "enNameLanguage": "Chatokbai",
        "location": {
          "lat": 9.0825,
          "lng": 31.596111
        },
        "keyAccentLanguage": "chatokbai"
      },
      {
        "code": 0,
        "type": "City",
        "enNameLanguage": "Ajwara",
        "location": {
          "lat": 7.117,
          "lng": 33.983
        },
        "keyAccentLanguage": "ajwara"
      },
      {
        "code": 0,
        "type": "City",
        "enNameLanguage": "Aiyot",
        "location": {
          "lat": 9.118,
          "lng": 31.646
        },
        "keyAccentLanguage": "aiyot"
      },
      {
        "code": 0,
        "type": "City",
        "enNameLanguage": "Belichifor",
        "location": {
          "lat": 6.558,
          "lng": 33.275
        },
        "keyAccentLanguage": "belichifor"
      },
      {
        "code": 0,
        "type": "City",
        "enNameLanguage": "Faddoi",
        "location": {
          "lat": 8.133,
          "lng": 32.306
        },
        "keyAccentLanguage": "faddoi"
      },
      {
        "code": 0,
        "type": "City",
        "enNameLanguage": "Abich",
        "location": {
          "lat": 6.877,
          "lng": 33.607
        },
        "keyAccentLanguage": "abich"
      },
      {
        "code": 0,
        "type": "City",
        "enNameLanguage": "Bilait",
        "location": {
          "lat": 6.683,
          "lng": 33.25
        },
        "keyAccentLanguage": "bilait"
      },
      {
        "code": 0,
        "type": "City",
        "enNameLanguage": "Duk Faiwil",
        "location": {
          "lat": 7.498,
          "lng": 31.488
        },
        "keyAccentLanguage": "duk_faiwil"
      },
      {
        "code": 0,
        "type": "City",
        "enNameLanguage": "Agum",
        "location": {
          "lat": 8.217,
          "lng": 31.383
        },
        "keyAccentLanguage": "agum"
      },
      {
        "code": 0,
        "type": "City",
        "enNameLanguage": "Adet",
        "location": {
          "lat": 6.583,
          "lng": 31.55
        },
        "keyAccentLanguage": "adet"
      },
      {
        "code": 0,
        "type": "City",
        "enNameLanguage": "Ashwilich",
        "location": {
          "lat": 6.48,
          "lng": 31.614
        },
        "keyAccentLanguage": "ashwilich"
      },
      {
        "code": 0,
        "type": "City",
        "enNameLanguage": "Akobo",
        "location": {
          "lat": 7.775,
          "lng": 32.999
        },
        "keyAccentLanguage": "akobo"
      },
      {
        "code": 0,
        "type": "City",
        "enNameLanguage": "Aiweng",
        "location": {
          "lat": 7.533,
          "lng": 31.4
        },
        "keyAccentLanguage": "aiweng"
      },
      {
        "code": 0,
        "type": "City",
        "enNameLanguage": "Bulbil",
        "location": {
          "lat": 8.351,
          "lng": 30.727
        },
        "keyAccentLanguage": "bulbil"
      },
      {
        "code": 0,
        "type": "City",
        "enNameLanguage": "Bi",
        "location": {
          "lat": 9.395,
          "lng": 30.833
        },
        "keyAccentLanguage": "bi"
      },
      {
        "code": 0,
        "type": "City",
        "enNameLanguage": "Belichinanu",
        "location": {
          "lat": 6.733,
          "lng": 33.167
        },
        "keyAccentLanguage": "belichinanu"
      },
      {
        "code": 0,
        "type": "City",
        "enNameLanguage": "Burugila",
        "location": {
          "lat": 7.7,
          "lng": 33.067
        },
        "keyAccentLanguage": "burugila"
      },
      {
        "code": 0,
        "type": "City",
        "enNameLanguage": "Akelo",
        "location": {
          "lat": 6.995,
          "lng": 33.808
        },
        "keyAccentLanguage": "akelo"
      },
      {
        "code": 0,
        "type": "City",
        "enNameLanguage": "Apati",
        "location": {
          "lat": 6.733,
          "lng": 33.067
        },
        "keyAccentLanguage": "apati"
      },
      {
        "code": 0,
        "type": "City",
        "enNameLanguage": "Kan",
        "location": {
          "lat": 9.023,
          "lng": 31.769
        },
        "keyAccentLanguage": "kan"
      },
      {
        "code": 0,
        "type": "City",
        "enNameLanguage": "Bar",
        "location": {
          "lat": 8.346,
          "lng": 30.936
        },
        "keyAccentLanguage": "bar"
      },
      {
        "code": 0,
        "type": "City",
        "enNameLanguage": "Buingfiort",
        "location": {
          "lat": 9.164,
          "lng": 31.703
        },
        "keyAccentLanguage": "buingfiort"
      },
      {
        "code": 0,
        "type": "City",
        "enNameLanguage": "Nyerol",
        "location": {
          "lat": 8.684,
          "lng": 32.043
        },
        "keyAccentLanguage": "nyerol"
      },
      {
        "code": 0,
        "type": "City",
        "enNameLanguage": "Buk",
        "location": {
          "lat": 8.033,
          "lng": 31.433
        },
        "keyAccentLanguage": "buk"
      },
      {
        "code": 0,
        "type": "City",
        "enNameLanguage": "Cantiere",
        "location": {
          "lat": 6.45,
          "lng": 34.933
        },
        "keyAccentLanguage": "cantiere"
      },
      {
        "code": 0,
        "type": "City",
        "enNameLanguage": "Ayod",
        "location": {
          "lat": 8.131,
          "lng": 31.411
        },
        "keyAccentLanguage": "ayod"
      },
      {
        "code": 0,
        "type": "City",
        "enNameLanguage": "Lowelli",
        "location": {
          "lat": 5.964,
          "lng": 33.762
        },
        "keyAccentLanguage": "lowelli"
      },
      {
        "code": 0,
        "type": "City",
        "enNameLanguage": "Beh",
        "location": {
          "lat": 6.717,
          "lng": 33.033
        },
        "keyAccentLanguage": "beh"
      },
      {
        "code": 0,
        "type": "City",
        "enNameLanguage": "Bulriah",
        "location": {
          "lat": 9.365,
          "lng": 30.85
        },
        "keyAccentLanguage": "bulriah"
      },
      {
        "code": 0,
        "type": "City",
        "enNameLanguage": "Bobolein",
        "location": {
          "lat": 6.667,
          "lng": 32.933
        },
        "keyAccentLanguage": "bobolein"
      },
      {
        "code": 0,
        "type": "City",
        "enNameLanguage": "Ayom",
        "location": {
          "lat": 7.667,
          "lng": 31.883
        },
        "keyAccentLanguage": "ayom"
      },
      {
        "code": 0,
        "type": "City",
        "enNameLanguage": "Assaung",
        "location": {
          "lat": 6.946,
          "lng": 31.402
        },
        "keyAccentLanguage": "assaung"
      },
      {
        "code": 0,
        "type": "City",
        "enNameLanguage": "Peper",
        "location": {
          "lat": 7.064,
          "lng": 32.991
        },
        "keyAccentLanguage": "peper"
      },
      {
        "code": 0,
        "type": "City",
        "enNameLanguage": "Wunanyak",
        "location": {
          "lat": 9.097,
          "lng": 31.735
        },
        "keyAccentLanguage": "wunanyak"
      },
      {
        "code": 0,
        "type": "City",
        "enNameLanguage": "Maar",
        "location": {
          "lat": 6.905,
          "lng": 31.354
        },
        "keyAccentLanguage": "maar"
      },
      {
        "code": 0,
        "type": "City",
        "enNameLanguage": "Lyodein",
        "location": {
          "lat": 6.156,
          "lng": 33.517
        },
        "keyAccentLanguage": "lyodein"
      },
      {
        "code": 0,
        "type": "City",
        "enNameLanguage": "Berad",
        "location": {
          "lat": 8.822,
          "lng": 30.654
        },
        "keyAccentLanguage": "berad"
      },
      {
        "code": 0,
        "type": "City",
        "enNameLanguage": "Atet",
        "location": {
          "lat": 6.263,
          "lng": 31.733
        },
        "keyAccentLanguage": "atet"
      },
      {
        "code": 0,
        "type": "City",
        "enNameLanguage": "Woi",
        "location": {
          "lat": 7.959,
          "lng": 31.086
        },
        "keyAccentLanguage": "woi"
      },
      {
        "code": 0,
        "type": "City",
        "enNameLanguage": "Lopaye",
        "location": {
          "lat": 6.634,
          "lng": 33.719
        },
        "keyAccentLanguage": "lopaye"
      },
      {
        "code": 0,
        "type": "City",
        "enNameLanguage": "Chindura",
        "location": {
          "lat": 6.917,
          "lng": 33.033
        },
        "keyAccentLanguage": "chindura"
      },
      {
        "code": 0,
        "type": "City",
        "enNameLanguage": "Fangak",
        "location": {
          "lat": 9.061,
          "lng": 30.877
        },
        "keyAccentLanguage": "fangak"
      }
    ],
    "enNameLanguage": "Jonglei",
    "keyAccentLanguage": "jonglei"
  },
  {
    "code": 0,
    "type": "State",
    "location": {
      "lat": 37.1628255,
      "lng": -95.69116230000002
    },
    "districtList": [
      {
        "code": 0,
        "type": "City",
        "enNameLanguage": "Achod",
        "location": {
          "lat": 21.9628594,
          "lng": 72.8323463
        },
        "keyAccentLanguage": "achod"
      },
      {
        "code": 0,
        "type": "City",
        "enNameLanguage": "Akot",
        "location": {
          "lat": 21.0972769,
          "lng": 77.0537986
        },
        "keyAccentLanguage": "akot"
      },
      {
        "code": 0,
        "type": "City",
        "enNameLanguage": "Jummayzah",
        "location": {
          "lat": 7.096865999999999,
          "lng": 29.130911
        },
        "keyAccentLanguage": "jummayzah"
      },
      {
        "code": 0,
        "type": "City",
        "enNameLanguage": "Adjang",
        "location": {
          "lat": 7.301389,
          "lng": 29.525556
        },
        "keyAccentLanguage": "adjang"
      },
      {
        "code": 0,
        "type": "City",
        "enNameLanguage": "Agujang",
        "location": {
          "lat": 7.415278000000001,
          "lng": 29.594167
        },
        "keyAccentLanguage": "agujang"
      },
      {
        "code": 0,
        "type": "City",
        "enNameLanguage": "Ajijuit",
        "location": {
          "lat": 6.916666999999999,
          "lng": 29.6
        },
        "keyAccentLanguage": "ajijuit"
      },
      {
        "code": 0,
        "type": "City",
        "enNameLanguage": "Alliab",
        "location": {
          "lat": 6.586504,
          "lng": 29.47256999999999
        },
        "keyAccentLanguage": "alliab"
      },
      {
        "code": 0,
        "type": "City",
        "enNameLanguage": "Abi Rij",
        "location": {
          "lat": 6.962121,
          "lng": 29.43829
        },
        "keyAccentLanguage": "abi_rij"
      },
      {
        "code": 0,
        "type": "City",
        "enNameLanguage": "Anyei",
        "location": {
          "lat": 9.838550699999999,
          "lng": 28.4863963
        },
        "keyAccentLanguage": "anyei"
      },
      {
        "code": 0,
        "type": "City",
        "enNameLanguage": "Alelpaich",
        "location": {
          "lat": 6.6,
          "lng": 30.43333299999999
        },
        "keyAccentLanguage": "alelpaich"
      },
      {
        "code": 0,
        "type": "City",
        "enNameLanguage": "Anyuol",
        "location": {
          "lat": 6.196360899999999,
          "lng": 30.36285
        },
        "keyAccentLanguage": "anyuol"
      },
      {
        "code": 0,
        "type": "City",
        "enNameLanguage": "Yirol",
        "location": {
          "lat": 6.5609799,
          "lng": 30.5020001
        },
        "keyAccentLanguage": "yirol"
      },
      {
        "code": 0,
        "type": "City",
        "enNameLanguage": "Agokadol",
        "location": {
          "lat": 6.921302,
          "lng": 29.50782
        },
        "keyAccentLanguage": "agokadol"
      },
      {
        "code": 0,
        "type": "City",
        "enNameLanguage": "Minkamman",
        "location": {
          "lat": 6.038206,
          "lng": 31.51063
        },
        "keyAccentLanguage": "minkamman"
      },
      {
        "code": 0,
        "type": "City",
        "enNameLanguage": "Aiwi",
        "location": {
          "lat": 7.683,
          "lng": 29.633
        },
        "keyAccentLanguage": "aiwi"
      },
      {
        "code": 0,
        "type": "City",
        "enNameLanguage": "Achigor",
        "location": {
          "lat": 6.608,
          "lng": 30.974
        },
        "keyAccentLanguage": "achigor"
      },
      {
        "code": 0,
        "type": "City",
        "enNameLanguage": "Ajaj",
        "location": {
          "lat": 6.164,
          "lng": 31.284
        },
        "keyAccentLanguage": "ajaj"
      },
      {
        "code": 0,
        "type": "City",
        "enNameLanguage": "Abiyai",
        "location": {
          "lat": 7.117,
          "lng": 29.284
        },
        "keyAccentLanguage": "abiyai"
      },
      {
        "code": 0,
        "type": "City",
        "enNameLanguage": "Aliet",
        "location": {
          "lat": 7.567,
          "lng": 29.667
        },
        "keyAccentLanguage": "aliet"
      },
      {
        "code": 0,
        "type": "City",
        "enNameLanguage": "Adundut",
        "location": {
          "lat": 6.731,
          "lng": 31.162
        },
        "keyAccentLanguage": "adundut"
      },
      {
        "code": 0,
        "type": "City",
        "enNameLanguage": "Akwei",
        "location": {
          "lat": 6.583,
          "lng": 30.467
        },
        "keyAccentLanguage": "akwei"
      },
      {
        "code": 0,
        "type": "City",
        "enNameLanguage": "Aeng",
        "location": {
          "lat": 6.147,
          "lng": 31.331
        },
        "keyAccentLanguage": "aeng"
      },
      {
        "code": 0,
        "type": "City",
        "enNameLanguage": "Abeir",
        "location": {
          "lat": 6.867,
          "lng": 29.617
        },
        "keyAccentLanguage": "abeir"
      },
      {
        "code": 0,
        "type": "City",
        "enNameLanguage": "Ado",
        "location": {
          "lat": 6.383,
          "lng": 30.1
        },
        "keyAccentLanguage": "ado"
      },
      {
        "code": 0,
        "type": "City",
        "enNameLanguage": "Dirjay",
        "location": {
          "lat": 6.448,
          "lng": 30.605
        },
        "keyAccentLanguage": "dirjay"
      },
      {
        "code": 0,
        "type": "City",
        "enNameLanguage": "Alaitoi",
        "location": {
          "lat": 7.209,
          "lng": 29.433
        },
        "keyAccentLanguage": "alaitoi"
      },
      {
        "code": 0,
        "type": "City",
        "enNameLanguage": "Aghan",
        "location": {
          "lat": 6.267,
          "lng": 30.367
        },
        "keyAccentLanguage": "aghan"
      },
      {
        "code": 0,
        "type": "City",
        "enNameLanguage": "Adiota",
        "location": {
          "lat": 6.575,
          "lng": 31.299
        },
        "keyAccentLanguage": "adiota"
      },
      {
        "code": 0,
        "type": "City",
        "enNameLanguage": "Alonglei",
        "location": {
          "lat": 6.654,
          "lng": 30.939
        },
        "keyAccentLanguage": "alonglei"
      },
      {
        "code": 0,
        "type": "City",
        "enNameLanguage": "Aluakluak",
        "location": {
          "lat": 6.476,
          "lng": 30.113
        },
        "keyAccentLanguage": "aluakluak"
      },
      {
        "code": 0,
        "type": "City",
        "enNameLanguage": "Akoloch",
        "location": {
          "lat": 6.799,
          "lng": 30.701
        },
        "keyAccentLanguage": "akoloch"
      },
      {
        "code": 0,
        "type": "City",
        "enNameLanguage": "Anyur",
        "location": {
          "lat": 6.129,
          "lng": 31.281
        },
        "keyAccentLanguage": "anyur"
      },
      {
        "code": 0,
        "type": "City",
        "enNameLanguage": "Akwak",
        "location": {
          "lat": 6.354,
          "lng": 31.459
        },
        "keyAccentLanguage": "akwak"
      },
      {
        "code": 0,
        "type": "City",
        "enNameLanguage": "Alwet",
        "location": {
          "lat": 7.008,
          "lng": 29.696
        },
        "keyAccentLanguage": "alwet"
      },
      {
        "code": 0,
        "type": "City",
        "enNameLanguage": "Pathiong",
        "location": {
          "lat": 6.76,
          "lng": 30.881
        },
        "keyAccentLanguage": "pathiong"
      },
      {
        "code": 0,
        "type": "City",
        "enNameLanguage": "Achol",
        "location": {
          "lat": 7.067,
          "lng": 29.8
        },
        "keyAccentLanguage": "achol"
      },
      {
        "code": 0,
        "type": "City",
        "enNameLanguage": "Dodo Goei",
        "location": {
          "lat": 5.953,
          "lng": 29.429
        },
        "keyAccentLanguage": "dodo_goei"
      },
      {
        "code": 0,
        "type": "City",
        "enNameLanguage": "Aiyen",
        "location": {
          "lat": 6.583,
          "lng": 29.783
        },
        "keyAccentLanguage": "aiyen"
      },
      {
        "code": 0,
        "type": "City",
        "enNameLanguage": "Amur",
        "location": {
          "lat": 7.161,
          "lng": 29.394
        },
        "keyAccentLanguage": "amur"
      },
      {
        "code": 0,
        "type": "City",
        "enNameLanguage": "Ameil",
        "location": {
          "lat": 7.433,
          "lng": 29.45
        },
        "keyAccentLanguage": "ameil"
      },
      {
        "code": 0,
        "type": "City",
        "enNameLanguage": "Agorbar",
        "location": {
          "lat": 6.746,
          "lng": 31.212
        },
        "keyAccentLanguage": "agorbar"
      },
      {
        "code": 0,
        "type": "City",
        "enNameLanguage": "Anoig",
        "location": {
          "lat": 7.155,
          "lng": 29.725
        },
        "keyAccentLanguage": "anoig"
      },
      {
        "code": 0,
        "type": "City",
        "enNameLanguage": "Mayen",
        "location": {
          "lat": 6.561,
          "lng": 31.147
        },
        "keyAccentLanguage": "mayen"
      },
      {
        "code": 0,
        "type": "City",
        "enNameLanguage": "Paloich",
        "location": {
          "lat": 6.761,
          "lng": 30.113
        },
        "keyAccentLanguage": "paloich"
      },
      {
        "code": 0,
        "type": "City",
        "enNameLanguage": "Achok",
        "location": {
          "lat": 6.866,
          "lng": 30.666
        },
        "keyAccentLanguage": "achok"
      },
      {
        "code": 0,
        "type": "City",
        "enNameLanguage": "Agul",
        "location": {
          "lat": 6.712,
          "lng": 30.898
        },
        "keyAccentLanguage": "agul"
      },
      {
        "code": 0,
        "type": "City",
        "enNameLanguage": "Alul",
        "location": {
          "lat": 6.122,
          "lng": 31.041
        },
        "keyAccentLanguage": "alul"
      },
      {
        "code": 0,
        "type": "City",
        "enNameLanguage": "Madbar",
        "location": {
          "lat": 6.32,
          "lng": 30.662
        },
        "keyAccentLanguage": "madbar"
      },
      {
        "code": 0,
        "type": "City",
        "enNameLanguage": "Wal Athiang",
        "location": {
          "lat": 7.684,
          "lng": 29.713
        },
        "keyAccentLanguage": "wal_athiang"
      },
      {
        "code": 0,
        "type": "City",
        "enNameLanguage": "Feir",
        "location": {
          "lat": 7.487,
          "lng": 29.424
        },
        "keyAccentLanguage": "feir"
      },
      {
        "code": 0,
        "type": "City",
        "enNameLanguage": "Damblu",
        "location": {
          "lat": 6.326,
          "lng": 29.467
        },
        "keyAccentLanguage": "damblu"
      },
      {
        "code": 0,
        "type": "City",
        "enNameLanguage": "Abui",
        "location": {
          "lat": 7.024,
          "lng": 29.694
        },
        "keyAccentLanguage": "abui"
      },
      {
        "code": 0,
        "type": "City",
        "enNameLanguage": "Rumbek",
        "location": {
          "lat": 6.802,
          "lng": 29.694
        },
        "keyAccentLanguage": "rumbek"
      },
      {
        "code": 0,
        "type": "City",
        "enNameLanguage": "Aramularo",
        "location": {
          "lat": 6.717,
          "lng": 29.2
        },
        "keyAccentLanguage": "aramularo"
      },
      {
        "code": 0,
        "type": "City",
        "enNameLanguage": "Abiem",
        "location": {
          "lat": 6.263,
          "lng": 31.174
        },
        "keyAccentLanguage": "abiem"
      },
      {
        "code": 0,
        "type": "City",
        "enNameLanguage": "Ajwir",
        "location": {
          "lat": 6.878,
          "lng": 30.702
        },
        "keyAccentLanguage": "ajwir"
      },
      {
        "code": 0,
        "type": "City",
        "enNameLanguage": "Anyat",
        "location": {
          "lat": 6.097,
          "lng": 31.041
        },
        "keyAccentLanguage": "anyat"
      },
      {
        "code": 0,
        "type": "City",
        "enNameLanguage": "Paguere",
        "location": {
          "lat": 7.028,
          "lng": 30.084
        },
        "keyAccentLanguage": "paguere"
      },
      {
        "code": 0,
        "type": "City",
        "enNameLanguage": "Agoran",
        "location": {
          "lat": 6.3,
          "lng": 30.133
        },
        "keyAccentLanguage": "agoran"
      },
      {
        "code": 0,
        "type": "City",
        "enNameLanguage": "Agol",
        "location": {
          "lat": 6.044,
          "lng": 31.386
        },
        "keyAccentLanguage": "agol"
      },
      {
        "code": 0,
        "type": "City",
        "enNameLanguage": "Anangyan",
        "location": {
          "lat": 6.795,
          "lng": 30.829
        },
        "keyAccentLanguage": "anangyan"
      },
      {
        "code": 0,
        "type": "City",
        "enNameLanguage": "Shuai",
        "location": {
          "lat": 7.118,
          "lng": 29.731
        },
        "keyAccentLanguage": "shuai"
      },
      {
        "code": 0,
        "type": "City",
        "enNameLanguage": "Alotshuai",
        "location": {
          "lat": 7.033,
          "lng": 29.15
        },
        "keyAccentLanguage": "alotshuai"
      },
      {
        "code": 0,
        "type": "City",
        "enNameLanguage": "Riani",
        "location": {
          "lat": 6.228,
          "lng": 28.714
        },
        "keyAccentLanguage": "riani"
      },
      {
        "code": 0,
        "type": "City",
        "enNameLanguage": "Adull",
        "location": {
          "lat": 7.245,
          "lng": 29.493
        },
        "keyAccentLanguage": "adull"
      },
      {
        "code": 0,
        "type": "City",
        "enNameLanguage": "Amoi",
        "location": {
          "lat": 7.253,
          "lng": 29.429
        },
        "keyAccentLanguage": "amoi"
      },
      {
        "code": 0,
        "type": "City",
        "enNameLanguage": "Kwek Makur",
        "location": {
          "lat": 6.681,
          "lng": 29.833
        },
        "keyAccentLanguage": "kwek_makur"
      },
      {
        "code": 0,
        "type": "City",
        "enNameLanguage": "Alongid",
        "location": {
          "lat": 6.983,
          "lng": 29.25
        },
        "keyAccentLanguage": "alongid"
      },
      {
        "code": 0,
        "type": "City",
        "enNameLanguage": "Ajok",
        "location": {
          "lat": 7.348,
          "lng": 29.753
        },
        "keyAccentLanguage": "ajok"
      },
      {
        "code": 0,
        "type": "City",
        "enNameLanguage": "Ubori",
        "location": {
          "lat": 6.666,
          "lng": 29.323
        },
        "keyAccentLanguage": "ubori"
      },
      {
        "code": 0,
        "type": "City",
        "enNameLanguage": "Nyiel",
        "location": {
          "lat": 6.111,
          "lng": 31.191
        },
        "keyAccentLanguage": "nyiel"
      },
      {
        "code": 0,
        "type": "City",
        "enNameLanguage": "Delbeng",
        "location": {
          "lat": 7.465,
          "lng": 29.83
        },
        "keyAccentLanguage": "delbeng"
      },
      {
        "code": 0,
        "type": "City",
        "enNameLanguage": "Apair",
        "location": {
          "lat": 7,
          "lng": 29.467
        },
        "keyAccentLanguage": "apair"
      },
      {
        "code": 0,
        "type": "City",
        "enNameLanguage": "Manyang",
        "location": {
          "lat": 6.753,
          "lng": 30.618
        },
        "keyAccentLanguage": "manyang"
      },
      {
        "code": 0,
        "type": "City",
        "enNameLanguage": "Ajoich",
        "location": {
          "lat": 7.011,
          "lng": 29.123
        },
        "keyAccentLanguage": "ajoich"
      },
      {
        "code": 0,
        "type": "City",
        "enNameLanguage": "Achwer",
        "location": {
          "lat": 7.005,
          "lng": 30.22
        },
        "keyAccentLanguage": "achwer"
      },
      {
        "code": 0,
        "type": "City",
        "enNameLanguage": "Amerachir",
        "location": {
          "lat": 6.753,
          "lng": 30.868
        },
        "keyAccentLanguage": "amerachir"
      },
      {
        "code": 0,
        "type": "City",
        "enNameLanguage": "Atum",
        "location": {
          "lat": 7.369,
          "lng": 29.108
        },
        "keyAccentLanguage": "atum"
      },
      {
        "code": 0,
        "type": "City",
        "enNameLanguage": "Akeu",
        "location": {
          "lat": 6.267,
          "lng": 30.617
        },
        "keyAccentLanguage": "akeu"
      },
      {
        "code": 0,
        "type": "City",
        "enNameLanguage": "Ajak",
        "location": {
          "lat": 7.029,
          "lng": 30.529
        },
        "keyAccentLanguage": "ajak"
      },
      {
        "code": 0,
        "type": "City",
        "enNameLanguage": "Apheit",
        "location": {
          "lat": 7.144,
          "lng": 29.683
        },
        "keyAccentLanguage": "apheit"
      },
      {
        "code": 0,
        "type": "City",
        "enNameLanguage": "Lor",
        "location": {
          "lat": 6.441,
          "lng": 29.613
        },
        "keyAccentLanguage": "lor"
      },
      {
        "code": 0,
        "type": "City",
        "enNameLanguage": "Lau",
        "location": {
          "lat": 6.738,
          "lng": 30.408
        },
        "keyAccentLanguage": "lau"
      },
      {
        "code": 0,
        "type": "City",
        "enNameLanguage": "Aghanich",
        "location": {
          "lat": 6.783,
          "lng": 30.85
        },
        "keyAccentLanguage": "aghanich"
      },
      {
        "code": 0,
        "type": "City",
        "enNameLanguage": "Akwolakwoy",
        "location": {
          "lat": 6.503,
          "lng": 30.581
        },
        "keyAccentLanguage": "akwolakwoy"
      },
      {
        "code": 0,
        "type": "City",
        "enNameLanguage": "Amom Ping",
        "location": {
          "lat": 7.032,
          "lng": 30.091
        },
        "keyAccentLanguage": "amom_ping"
      },
      {
        "code": 0,
        "type": "City",
        "enNameLanguage": "Papiu",
        "location": {
          "lat": 6.489,
          "lng": 31.329
        },
        "keyAccentLanguage": "papiu"
      },
      {
        "code": 0,
        "type": "City",
        "enNameLanguage": "Tior",
        "location": {
          "lat": 6.38,
          "lng": 31.173
        },
        "keyAccentLanguage": "tior"
      },
      {
        "code": 0,
        "type": "City",
        "enNameLanguage": "Alel",
        "location": {
          "lat": 6.201,
          "lng": 30.943
        },
        "keyAccentLanguage": "alel"
      },
      {
        "code": 0,
        "type": "City",
        "enNameLanguage": "Shambe",
        "location": {
          "lat": 7.108,
          "lng": 30.763
        },
        "keyAccentLanguage": "shambe"
      },
      {
        "code": 0,
        "type": "City",
        "enNameLanguage": "Mbia",
        "location": {
          "lat": 6.255,
          "lng": 29.319
        },
        "keyAccentLanguage": "mbia"
      },
      {
        "code": 0,
        "type": "City",
        "enNameLanguage": "Kashwal",
        "location": {
          "lat": 7.025,
          "lng": 29.245
        },
        "keyAccentLanguage": "kashwal"
      },
      {
        "code": 0,
        "type": "City",
        "enNameLanguage": "Alerwey",
        "location": {
          "lat": 6.536,
          "lng": 30.499
        },
        "keyAccentLanguage": "alerwey"
      },
      {
        "code": 0,
        "type": "City",
        "enNameLanguage": "Agar",
        "location": {
          "lat": 7.073,
          "lng": 29.874
        },
        "keyAccentLanguage": "agar"
      },
      {
        "code": 0,
        "type": "City",
        "enNameLanguage": "Agorogwor",
        "location": {
          "lat": 6.118,
          "lng": 31.136
        },
        "keyAccentLanguage": "agorogwor"
      },
      {
        "code": 0,
        "type": "City",
        "enNameLanguage": "Anak",
        "location": {
          "lat": 7.183,
          "lng": 29.417
        },
        "keyAccentLanguage": "anak"
      },
      {
        "code": 0,
        "type": "City",
        "enNameLanguage": "Amit",
        "location": {
          "lat": 7.015,
          "lng": 29.801
        },
        "keyAccentLanguage": "amit"
      },
      {
        "code": 0,
        "type": "City",
        "enNameLanguage": "Boli",
        "location": {
          "lat": 6.009,
          "lng": 28.721
        },
        "keyAccentLanguage": "boli"
      },
      {
        "code": 0,
        "type": "City",
        "enNameLanguage": "Aramtalla",
        "location": {
          "lat": 6.783,
          "lng": 29.217
        },
        "keyAccentLanguage": "aramtalla"
      },
      {
        "code": 0,
        "type": "City",
        "enNameLanguage": "Abiem",
        "location": {
          "lat": 6.263,
          "lng": 31.174
        },
        "keyAccentLanguage": "abiem"
      }
    ],
    "enNameLanguage": "Lakes",
    "keyAccentLanguage": "lakes"
  },
  {
    "code": 0,
    "type": "State",
    "location": {
      "lat": 0,
      "lng": 0
    },
    "districtList": [
      {
        "code": 0,
        "type": "City",
        "enNameLanguage": "Aluk",
        "location": {
          "lat": 8.433333,
          "lng": 27.533333
        },
        "keyAccentLanguage": "aluk"
      },
      {
        "code": 0,
        "type": "City",
        "enNameLanguage": "Chak Chak",
        "location": {
          "lat": 8.536044900000002,
          "lng": 26.7967849
        },
        "keyAccentLanguage": "chak_chak"
      },
      {
        "code": 0,
        "type": "City",
        "enNameLanguage": "Bayt `Uthman",
        "location": {
          "lat": 8.553593,
          "lng": 26.37369
        },
        "keyAccentLanguage": "bayt_`uthman"
      },
      {
        "code": 0,
        "type": "City",
        "enNameLanguage": "Alangari",
        "location": {
          "lat": 8.244,
          "lng": 26.91
        },
        "keyAccentLanguage": "alangari"
      },
      {
        "code": 0,
        "type": "City",
        "enNameLanguage": "Akwar",
        "location": {
          "lat": 9.117,
          "lng": 26.75
        },
        "keyAccentLanguage": "akwar"
      },
      {
        "code": 0,
        "type": "City",
        "enNameLanguage": "Abort",
        "location": {
          "lat": 8.883,
          "lng": 27.583
        },
        "keyAccentLanguage": "abort"
      },
      {
        "code": 0,
        "type": "City",
        "enNameLanguage": "Kome",
        "location": {
          "lat": 8.517,
          "lng": 27.583
        },
        "keyAccentLanguage": "kome"
      },
      {
        "code": 0,
        "type": "City",
        "enNameLanguage": "Akwairmam",
        "location": {
          "lat": 8.917,
          "lng": 26.917
        },
        "keyAccentLanguage": "akwairmam"
      },
      {
        "code": 0,
        "type": "City",
        "enNameLanguage": "Angyul",
        "location": {
          "lat": 9.067,
          "lng": 27.367
        },
        "keyAccentLanguage": "angyul"
      },
      {
        "code": 0,
        "type": "City",
        "enNameLanguage": "Goi Goi",
        "location": {
          "lat": 8.317,
          "lng": 27.5
        },
        "keyAccentLanguage": "goi_goi"
      },
      {
        "code": 0,
        "type": "City",
        "enNameLanguage": "Atur",
        "location": {
          "lat": 8.867,
          "lng": 27.85
        },
        "keyAccentLanguage": "atur"
      },
      {
        "code": 0,
        "type": "City",
        "enNameLanguage": "Abarud",
        "location": {
          "lat": 8.9,
          "lng": 26.15
        },
        "keyAccentLanguage": "abarud"
      },
      {
        "code": 0,
        "type": "City",
        "enNameLanguage": "Margware",
        "location": {
          "lat": 8.567,
          "lng": 27.7
        },
        "keyAccentLanguage": "margware"
      },
      {
        "code": 0,
        "type": "City",
        "enNameLanguage": "Akwot",
        "location": {
          "lat": 9.083,
          "lng": 27.1
        },
        "keyAccentLanguage": "akwot"
      },
      {
        "code": 0,
        "type": "City",
        "enNameLanguage": "Manyok",
        "location": {
          "lat": 9.15,
          "lng": 26.933
        },
        "keyAccentLanguage": "manyok"
      },
      {
        "code": 0,
        "type": "City",
        "enNameLanguage": "Mohom",
        "location": {
          "lat": 9.1,
          "lng": 26.717
        },
        "keyAccentLanguage": "mohom"
      },
      {
        "code": 0,
        "type": "City",
        "enNameLanguage": "Maknai",
        "location": {
          "lat": 8.667,
          "lng": 27.817
        },
        "keyAccentLanguage": "maknai"
      },
      {
        "code": 0,
        "type": "City",
        "enNameLanguage": "Guru",
        "location": {
          "lat": 8.433,
          "lng": 26.233
        },
        "keyAccentLanguage": "guru"
      },
      {
        "code": 0,
        "type": "City",
        "enNameLanguage": "Rorayai",
        "location": {
          "lat": 8.833,
          "lng": 27.65
        },
        "keyAccentLanguage": "rorayai"
      },
      {
        "code": 0,
        "type": "City",
        "enNameLanguage": "Aweil",
        "location": {
          "lat": 8.77,
          "lng": 27.393
        },
        "keyAccentLanguage": "aweil"
      },
      {
        "code": 0,
        "type": "City",
        "enNameLanguage": "Lul Abak",
        "location": {
          "lat": 9.017,
          "lng": 27.45
        },
        "keyAccentLanguage": "lul_abak"
      },
      {
        "code": 0,
        "type": "City",
        "enNameLanguage": "Fan Kar",
        "location": {
          "lat": 8.6,
          "lng": 27.75
        },
        "keyAccentLanguage": "fan_kar"
      },
      {
        "code": 0,
        "type": "City",
        "enNameLanguage": "Ashaki",
        "location": {
          "lat": 8.733,
          "lng": 26.2
        },
        "keyAccentLanguage": "ashaki"
      },
      {
        "code": 0,
        "type": "City",
        "enNameLanguage": "Dembo",
        "location": {
          "lat": 8.367,
          "lng": 27.4
        },
        "keyAccentLanguage": "dembo"
      },
      {
        "code": 0,
        "type": "City",
        "enNameLanguage": "Makem",
        "location": {
          "lat": 9.167,
          "lng": 27.117
        },
        "keyAccentLanguage": "makem"
      },
      {
        "code": 0,
        "type": "City",
        "enNameLanguage": "Wedweil",
        "location": {
          "lat": 8.847,
          "lng": 27.293
        },
        "keyAccentLanguage": "wedweil"
      },
      {
        "code": 0,
        "type": "City",
        "enNameLanguage": "Bayt `Ali",
        "location": {
          "lat": 8.65,
          "lng": 26.333
        },
        "keyAccentLanguage": "bayt_`ali"
      },
      {
        "code": 0,
        "type": "City",
        "enNameLanguage": "Shaykh Nur",
        "location": {
          "lat": 8.917,
          "lng": 27.233
        },
        "keyAccentLanguage": "shaykh_nur"
      },
      {
        "code": 0,
        "type": "City",
        "enNameLanguage": "Wishia",
        "location": {
          "lat": 8.367,
          "lng": 26.85
        },
        "keyAccentLanguage": "wishia"
      },
      {
        "code": 0,
        "type": "City",
        "enNameLanguage": "Ungwei",
        "location": {
          "lat": 9.017,
          "lng": 27.75
        },
        "keyAccentLanguage": "ungwei"
      },
      {
        "code": 0,
        "type": "City",
        "enNameLanguage": "War Kwel",
        "location": {
          "lat": 9.217,
          "lng": 26.917
        },
        "keyAccentLanguage": "war_kwel"
      },
      {
        "code": 0,
        "type": "City",
        "enNameLanguage": "Reangung",
        "location": {
          "lat": 8.95,
          "lng": 27.2
        },
        "keyAccentLanguage": "reangung"
      },
      {
        "code": 0,
        "type": "City",
        "enNameLanguage": "Unarol",
        "location": {
          "lat": 9.233,
          "lng": 27.017
        },
        "keyAccentLanguage": "unarol"
      },
      {
        "code": 0,
        "type": "City",
        "enNameLanguage": "Rumatwek",
        "location": {
          "lat": 8.717,
          "lng": 27.717
        },
        "keyAccentLanguage": "rumatwek"
      },
      {
        "code": 0,
        "type": "City",
        "enNameLanguage": "Akite",
        "location": {
          "lat": 8.583,
          "lng": 27.733
        },
        "keyAccentLanguage": "akite"
      },
      {
        "code": 0,
        "type": "City",
        "enNameLanguage": "Kwanton",
        "location": {
          "lat": 9.1,
          "lng": 27.233
        },
        "keyAccentLanguage": "kwanton"
      },
      {
        "code": 0,
        "type": "City",
        "enNameLanguage": "Fan Ungwi",
        "location": {
          "lat": 8.8,
          "lng": 27.8
        },
        "keyAccentLanguage": "fan_ungwi"
      },
      {
        "code": 0,
        "type": "City",
        "enNameLanguage": "Kira",
        "location": {
          "lat": 8.533,
          "lng": 26.367
        },
        "keyAccentLanguage": "kira"
      },
      {
        "code": 0,
        "type": "City",
        "enNameLanguage": "Omora",
        "location": {
          "lat": 8.477,
          "lng": 26.501
        },
        "keyAccentLanguage": "omora"
      },
      {
        "code": 0,
        "type": "City",
        "enNameLanguage": "Paru",
        "location": {
          "lat": 9.05,
          "lng": 26.933
        },
        "keyAccentLanguage": "paru"
      },
      {
        "code": 0,
        "type": "City",
        "enNameLanguage": "Riangker",
        "location": {
          "lat": 8.633,
          "lng": 27.8
        },
        "keyAccentLanguage": "riangker"
      },
      {
        "code": 0,
        "type": "City",
        "enNameLanguage": "Golo",
        "location": {
          "lat": 8.633,
          "lng": 26.867
        },
        "keyAccentLanguage": "golo"
      },
      {
        "code": 0,
        "type": "City",
        "enNameLanguage": "Alan",
        "location": {
          "lat": 9.067,
          "lng": 27.117
        },
        "keyAccentLanguage": "alan"
      },
      {
        "code": 0,
        "type": "City",
        "enNameLanguage": "Gwem",
        "location": {
          "lat": 8.9,
          "lng": 27.367
        },
        "keyAccentLanguage": "gwem"
      },
      {
        "code": 0,
        "type": "City",
        "enNameLanguage": "Dain",
        "location": {
          "lat": 8.933,
          "lng": 27.739
        },
        "keyAccentLanguage": "dain"
      },
      {
        "code": 0,
        "type": "City",
        "enNameLanguage": "Sultan Chak Chak",
        "location": {
          "lat": 8.683,
          "lng": 26.883
        },
        "keyAccentLanguage": "sultan_chak_chak"
      },
      {
        "code": 0,
        "type": "City",
        "enNameLanguage": "Daala",
        "location": {
          "lat": 9.048,
          "lng": 26.182
        },
        "keyAccentLanguage": "daala"
      },
      {
        "code": 0,
        "type": "City",
        "enNameLanguage": "Mapair",
        "location": {
          "lat": 9.117,
          "lng": 27.583
        },
        "keyAccentLanguage": "mapair"
      },
      {
        "code": 0,
        "type": "City",
        "enNameLanguage": "Mareng",
        "location": {
          "lat": 8.95,
          "lng": 27.733
        },
        "keyAccentLanguage": "mareng"
      },
      {
        "code": 0,
        "type": "City",
        "enNameLanguage": "Winejok",
        "location": {
          "lat": 9.017,
          "lng": 27.567
        },