[
  {
    "code": 0,
    "type": "State",
    "location": {
      "lat": 0,
      "lng": 0
    },
    "districtList": [
      {
        "code": 0,
        "type": "City",
        "enNameLanguage": "Abu Dawayah",
        "location": {
          "lat": 11.567,
          "lng": 34.433
        },
        "keyAccentLanguage": "abu_dawayah"
      },
      {
        "code": 0,
        "type": "City",
        "enNameLanguage": "`Azazah",
        "location": {
          "lat": 11.667,
          "lng": 34.35
        },
        "keyAccentLanguage": "`azazah"
      },
      {
        "code": 0,
        "type": "City",
        "enNameLanguage": "Abu Jumayy",
        "location": {
          "lat": 11.517,
          "lng": 34.5
        },
        "keyAccentLanguage": "abu_jumayy"
      },
      {
        "code": 0,
        "type": "City",
        "enNameLanguage": "Abauadala",
        "location": {
          "lat": 11.133,
          "lng": 34.567
        },
        "keyAccentLanguage": "abauadala"
      },
      {
        "code": 0,
        "type": "City",
        "enNameLanguage": "Abguana",
        "location": {
          "lat": 9.617,
          "lng": 34.117
        },
        "keyAccentLanguage": "abguana"
      },
      {
        "code": 0,
        "type": "City",
        "enNameLanguage": "Adi",
        "location": {
          "lat": 11.1,
          "lng": 34.867
        },
        "keyAccentLanguage": "adi"
      },
      {
        "code": 0,
        "type": "City",
        "enNameLanguage": "Abu Qudaf",
        "location": {
          "lat": 11.483,
          "lng": 34.833
        },
        "keyAccentLanguage": "abu_qudaf"
      },
      {
        "code": 0,
        "type": "City",
        "enNameLanguage": "Baitamaru",
        "location": {
          "lat": 11.483,
          "lng": 34.833
        },
        "keyAccentLanguage": "baitamaru"
      },
      {
        "code": 0,
        "type": "City",
        "enNameLanguage": "Abu Ruqaybah",
        "location": {
          "lat": 11.967,
          "lng": 34.733
        },
        "keyAccentLanguage": "abu_ruqaybah"
      },
      {
        "code": 0,
        "type": "City",
        "enNameLanguage": "Disa",
        "location": {
          "lat": 12.056,
          "lng": 34.253
        },
        "keyAccentLanguage": "disa"
      },
      {
        "code": 0,
        "type": "City",
        "enNameLanguage": "Chali El Arab",
        "location": {
          "lat": 10.273,
          "lng": 34.058
        },
        "keyAccentLanguage": "chali_el_arab"
      },
      {
        "code": 0,
        "type": "City",
        "enNameLanguage": "Amiri",
        "location": {
          "lat": 11.516,
          "lng": 35.025
        },
        "keyAccentLanguage": "amiri"
      },
      {
        "code": 0,
        "type": "City",
        "enNameLanguage": "Al Garef",
        "location": {
          "lat": 12.067,
          "lng": 34.321
        },
        "keyAccentLanguage": "al_garef"
      },
      {
        "code": 0,
        "type": "City",
        "enNameLanguage": "Akilili",
        "location": {
          "lat": 10.95,
          "lng": 34.367
        },
        "keyAccentLanguage": "akilili"
      },
      {
        "code": 0,
        "type": "City",
        "enNameLanguage": "Abu Kartod",
        "location": {
          "lat": 11.6,
          "lng": 34.383
        },
        "keyAccentLanguage": "abu_kartod"
      },
      {
        "code": 0,
        "type": "City",
        "enNameLanguage": "Ad Dawmah",
        "location": {
          "lat": 11.917,
          "lng": 34.383
        },
        "keyAccentLanguage": "ad_dawmah"
      },
      {
        "code": 0,
        "type": "City",
        "enNameLanguage": "Akhoshali",
        "location": {
          "lat": 11.533,
          "lng": 34.467
        },
        "keyAccentLanguage": "akhoshali"
      },
      {
        "code": 0,
        "type": "City",
        "enNameLanguage": "Gizen",
        "location": {
          "lat": 10.768,
          "lng": 34.795
        },
        "keyAccentLanguage": "gizen"
      },
      {
        "code": 0,
        "type": "City",
        "enNameLanguage": "Al Mak Muhammad",
        "location": {
          "lat": 10.9,
          "lng": 34.917
        },
        "keyAccentLanguage": "al_mak_muhammad"
      },
      {
        "code": 0,
        "type": "City",
        "enNameLanguage": "`Abd al Farraj",
        "location": {
          "lat": 10.267,
          "lng": 34.05
        },
        "keyAccentLanguage": "`abd_al_farraj"
      },
      {
        "code": 0,
        "type": "City",
        "enNameLanguage": "Adassi",
        "location": {
          "lat": 11.283,
          "lng": 34.8
        },
        "keyAccentLanguage": "adassi"
      },
      {
        "code": 0,
        "type": "City",
        "enNameLanguage": "Amugu",
        "location": {
          "lat": 11.033,
          "lng": 34.9
        },
        "keyAccentLanguage": "amugu"
      },
      {
        "code": 0,
        "type": "City",
        "enNameLanguage": "Ar Ruqaybah Gharb",
        "location": {
          "lat": 11.65,
          "lng": 34.35
        },
        "keyAccentLanguage": "ar_ruqaybah_gharb"
      },
      {
        "code": 0,
        "type": "City",
        "enNameLanguage": "Ar Ruhayd",
        "location": {
          "lat": 11.3,
          "lng": 34.683
        },
        "keyAccentLanguage": "ar_ruhayd"
      },
      {
        "code": 0,
        "type": "City",
        "enNameLanguage": "An Nuwayri",
        "location": {
          "lat": 11.533,
          "lng": 34.433
        },
        "keyAccentLanguage": "an_nuwayri"
      },
      {
        "code": 0,
        "type": "City",
        "enNameLanguage": "Al Khawr",
        "location": {
          "lat": 10.483,
          "lng": 34.25
        },
        "keyAccentLanguage": "al_khawr"
      },
      {
        "code": 0,
        "type": "City",
        "enNameLanguage": "Al Barun",
        "location": {
          "lat": 11.734,
          "lng": 33.504
        },
        "keyAccentLanguage": "al_barun"
      },
      {
        "code": 0,
        "type": "City",
        "enNameLanguage": "`Amarah",
        "location": {
          "lat": 10.367,
          "lng": 34.2
        },
        "keyAccentLanguage": "`amarah"
      },
      {
        "code": 0,
        "type": "City",
        "enNameLanguage": "Abu Shunaynah",
        "location": {
          "lat": 11.383,
          "lng": 34.667
        },
        "keyAccentLanguage": "abu_shunaynah"
      },
      {
        "code": 0,
        "type": "City",
        "enNameLanguage": "Abela",
        "location": {
          "lat": 11.417,
          "lng": 34.583
        },
        "keyAccentLanguage": "abela"
      },
      {
        "code": 0,
        "type": "City",
        "enNameLanguage": "Amora",
        "location": {
          "lat": 10.95,
          "lng": 34.833
        },
        "keyAccentLanguage": "amora"
      },
      {
        "code": 0,
        "type": "City",
        "enNameLanguage": "Agharalu",
        "location": {
          "lat": 10.9,
          "lng": 34.9
        },
        "keyAccentLanguage": "agharalu"
      },
      {
        "code": 0,
        "type": "City",
        "enNameLanguage": "Al Ghanamah",
        "location": {
          "lat": 12.333,
          "lng": 34.467
        },
        "keyAccentLanguage": "al_ghanamah"
      },
      {
        "code": 0,
        "type": "City",
        "enNameLanguage": "Gerabin Tegali",
        "location": {
          "lat": 12.119,
          "lng": 33.817
        },
        "keyAccentLanguage": "gerabin_tegali"
      },
      {
        "code": 0,
        "type": "City",
        "enNameLanguage": "Ad Danget",
        "location": {
          "lat": 11.283,
          "lng": 34.667
        },
        "keyAccentLanguage": "ad_danget"
      },
      {
        "code": 0,
        "type": "City",
        "enNameLanguage": "Abu Kuk",
        "location": {
          "lat": 12.209,
          "lng": 34.207
        },
        "keyAccentLanguage": "abu_kuk"
      },
      {
        "code": 0,
        "type": "City",
        "enNameLanguage": "Al Wala",
        "location": {
          "lat": 11.467,
          "lng": 34.517
        },
        "keyAccentLanguage": "al_wala"
      },
      {
        "code": 0,
        "type": "City",
        "enNameLanguage": "Amilir",
        "location": {
          "lat": 11.167,
          "lng": 34.967
        },
        "keyAccentLanguage": "amilir"
      },
      {
        "code": 0,
        "type": "City",
        "enNameLanguage": "Abania",
        "location": {
          "lat": 11.067,
          "lng": 34.55
        },
        "keyAccentLanguage": "abania"
      },
      {
        "code": 0,
        "type": "City",
        "enNameLanguage": "Fabirso",
        "location": {
          "lat": 11.073,
          "lng": 34.667
        },
        "keyAccentLanguage": "fabirso"
      },
      {
        "code": 0,
        "type": "City",
        "enNameLanguage": "Kambal",
        "location": {
          "lat": 11.254,
          "lng": 34.867
        },
        "keyAccentLanguage": "kambal"
      },
      {
        "code": 0,
        "type": "City",
        "enNameLanguage": "`Adila",
        "location": {
          "lat": 11.25,
          "lng": 34.65
        },
        "keyAccentLanguage": "`adila"
      },
      {
        "code": 0,
        "type": "City",
        "enNameLanguage": "`Aqab al Laban",
        "location": {
          "lat": 10.267,
          "lng": 34
        },
        "keyAccentLanguage": "`aqab_al_laban"
      },
      {
        "code": 0,
        "type": "City",
        "enNameLanguage": "Pomfa",
        "location": {
          "lat": 11.29,
          "lng": 34.128
        },
        "keyAccentLanguage": "pomfa"
      },
      {
        "code": 0,
        "type": "City",
        "enNameLanguage": "Badaws",
        "location": {
          "lat": 12.15,
          "lng": 34.317
        },
        "keyAccentLanguage": "badaws"
      },
      {
        "code": 0,
        "type": "City",
        "enNameLanguage": "Arugo",
        "location": {
          "lat": 11.533,
          "lng": 34.483
        },
        "keyAccentLanguage": "arugo"
      },
      {
        "code": 0,
        "type": "City",
        "enNameLanguage": "Agani",
        "location": {
          "lat": 10.2,
          "lng": 34.183
        },
        "keyAccentLanguage": "agani"
      },
      {
        "code": 0,
        "type": "City",
        "enNameLanguage": "Abu Maugud",
        "location": {
          "lat": 10.204,
          "lng": 33.966
        },
        "keyAccentLanguage": "abu_maugud"
      },
      {
        "code": 0,
        "type": "City",
        "enNameLanguage": "Al Khatmiyah",
        "location": {
          "lat": 11.833,
          "lng": 34.35
        },
        "keyAccentLanguage": "al_khatmiyah"
      },
      {
        "code": 0,
        "type": "City",
        "enNameLanguage": "Ashabalu",
        "location": {
          "lat": 10.833,
          "lng": 34.9
        },
        "keyAccentLanguage": "ashabalu"
      },
      {
        "code": 0,
        "type": "City",
        "enNameLanguage": "Ar Rusayris",
        "location": {
          "lat": 11.859,
          "lng": 34.377
        },
        "keyAccentLanguage": "ar_rusayris"
      },
      {
        "code": 0,
        "type": "City",
        "enNameLanguage": "Al Bi'r",
        "location": {
          "lat": 11.183,
          "lng": 34.95
        },
        "keyAccentLanguage": "al_bi'r"
      },
      {
        "code": 0,
        "type": "City",
        "enNameLanguage": "Kayli",
        "location": {
          "lat": 10.844,
          "lng": 34.32
        },
        "keyAccentLanguage": "kayli"
      },
      {
        "code": 0,
        "type": "City",
        "enNameLanguage": "Bagawi",
        "location": {
          "lat": 12.317,
          "lng": 34.35
        },
        "keyAccentLanguage": "bagawi"
      },
      {
        "code": 0,
        "type": "City",
        "enNameLanguage": "Aggar",
        "location": {
          "lat": 10.983,
          "lng": 34.9
        },
        "keyAccentLanguage": "aggar"
      },
      {
        "code": 0,
        "type": "City",
        "enNameLanguage": "Wadega",
        "location": {
          "lat": 10.494,
          "lng": 33.905
        },
        "keyAccentLanguage": "wadega"
      },
      {
        "code": 0,
        "type": "City",
        "enNameLanguage": "Al Mak Ilyas",
        "location": {
          "lat": 11.267,
          "lng": 34.65
        },
        "keyAccentLanguage": "al_mak_ilyas"
      },
      {
        "code": 0,
        "type": "City",
        "enNameLanguage": "Mortesoro",
        "location": {
          "lat": 10.24,
          "lng": 34.107
        },
        "keyAccentLanguage": "mortesoro"
      },
      {
        "code": 0,
        "type": "City",
        "enNameLanguage": "Asilantir",
        "location": {
          "lat": 11.15,
          "lng": 34.933
        },
        "keyAccentLanguage": "asilantir"
      },
      {
        "code": 0,
        "type": "City",
        "enNameLanguage": "Babarros",
        "location": {
          "lat": 10.333,
          "lng": 34.217
        },
        "keyAccentLanguage": "babarros"
      },
      {
        "code": 0,
        "type": "City",
        "enNameLanguage": "Al Karori",
        "location": {
          "lat": 12.033,
          "lng": 34.333
        },
        "keyAccentLanguage": "al_karori"
      },
      {
        "code": 0,
        "type": "City",
        "enNameLanguage": "Ballilah",
        "location": {
          "lat": 10.433,
          "lng": 33.883
        },
        "keyAccentLanguage": "ballilah"
      },
      {
        "code": 0,
        "type": "City",
        "enNameLanguage": "Ed Damazin",
        "location": {
          "lat": 11.86,
          "lng": 34.358
        },
        "keyAccentLanguage": "ed_damazin"
      },
      {
        "code": 0,
        "type": "City",
        "enNameLanguage": "Abugga",
        "location": {
          "lat": 11.15,
          "lng": 34.517
        },
        "keyAccentLanguage": "abugga"
      },
      {
        "code": 0,
        "type": "City",
        "enNameLanguage": "Al Kharabah",
        "location": {
          "lat": 11.717,
          "lng": 34.4
        },
        "keyAccentLanguage": "al_kharabah"
      },
      {
        "code": 0,
        "type": "City",
        "enNameLanguage": "Aylei",
        "location": {
          "lat": 10.217,
          "lng": 34.1
        },
        "keyAccentLanguage": "aylei"
      },
      {
        "code": 0,
        "type": "City",
        "enNameLanguage": "Ad Daym",
        "location": {
          "lat": 11.233,
          "lng": 34.933
        },
        "keyAccentLanguage": "ad_daym"
      },
      {
        "code": 0,
        "type": "City",
        "enNameLanguage": "Abbogol",
        "location": {
          "lat": 11.183,
          "lng": 34.633
        },
        "keyAccentLanguage": "abbogol"
      },
      {
        "code": 0,
        "type": "City",
        "enNameLanguage": "Agoramundi",
        "location": {
          "lat": 10.25,
          "lng": 34.2
        },
        "keyAccentLanguage": "agoramundi"
      },
      {
        "code": 0,
        "type": "City",
        "enNameLanguage": "Ulu",
        "location": {
          "lat": 10.717,
          "lng": 33.493
        },
        "keyAccentLanguage": "ulu"
      },
      {
        "code": 0,
        "type": "City",
        "enNameLanguage": "Baghabur",
        "location": {
          "lat": 11.25,
          "lng": 34.917
        },
        "keyAccentLanguage": "baghabur"
      },
      {
        "code": 0,
        "type": "City",
        "enNameLanguage": "At Tin",
        "location": {
          "lat": 11.267,
          "lng": 33.867
        },
        "keyAccentLanguage": "at_tin"
      },
      {
        "code": 0,
        "type": "City",
        "enNameLanguage": "Ar Ruqaybah",
        "location": {
          "lat": 11.667,
          "lng": 34.367
        },
        "keyAccentLanguage": "ar_ruqaybah"
      },
      {
        "code": 0,
        "type": "City",
        "enNameLanguage": "`Agab",
        "location": {
          "lat": 10.367,
          "lng": 33.85
        },
        "keyAccentLanguage": "`agab"
      },
      {
        "code": 0,
        "type": "City",
        "enNameLanguage": "Harun",
        "location": {
          "lat": 12.304,
          "lng": 34.264
        },
        "keyAccentLanguage": "harun"
      },
      {
        "code": 0,
        "type": "City",
        "enNameLanguage": "Ash Shallal",
        "location": {
          "lat": 11.8,
          "lng": 34.4
        },
        "keyAccentLanguage": "ash_shallal"
      },
      {
        "code": 0,
        "type": "City",
        "enNameLanguage": "Bikori",
        "location": {
          "lat": 11.199,
          "lng": 34.648
        },
        "keyAccentLanguage": "bikori"
      },
      {
        "code": 0,
        "type": "City",
        "enNameLanguage": "Bakkah",
        "location": {
          "lat": 11.383,
          "lng": 34.067
        },
        "keyAccentLanguage": "bakkah"
      },
      {
        "code": 0,
        "type": "City",
        "enNameLanguage": "Bobuk",
        "location": {
          "lat": 11.502,
          "lng": 34.076
        },
        "keyAccentLanguage": "bobuk"
      },
      {
        "code": 0,
        "type": "City",
        "enNameLanguage": "Amurdello",
        "location": {
          "lat": 11.333,
          "lng": 34.7
        },
        "keyAccentLanguage": "amurdello"
      },
      {
        "code": 0,
        "type": "City",
        "enNameLanguage": "Kurmuk",
        "location": {
          "lat": 10.576,
          "lng": 34.242
        },
        "keyAccentLanguage": "kurmuk"
      },
      {
        "code": 0,
        "type": "City",
        "enNameLanguage": "Ad-Damazin",
        "location": {
          "lat": 11.767,
          "lng": 34.35
        },
        "keyAccentLanguage": "ad-damazin"
      },
      {
        "code": 0,
        "type": "City",
        "enNameLanguage": "Baw",
        "location": {
          "lat": 11.34,
          "lng": 34.085
        },
        "keyAccentLanguage": "baw"
      },
      {
        "code": 0,
        "type": "City",
        "enNameLanguage": "Fanziger",
        "location": {
          "lat": 10.796,
          "lng": 34.443
        },
        "keyAccentLanguage": "fanziger"
      },
      {
        "code": 0,
        "type": "City",
        "enNameLanguage": "Al Jazirah",
        "location": {
          "lat": 11.283,
          "lng": 34.75
        },
        "keyAccentLanguage": "al_jazirah"
      },
      {
        "code": 0,
        "type": "City",
        "enNameLanguage": "Abu Ramad",
        "location": {
          "lat": 11.883,
          "lng": 34.367
        },
        "keyAccentLanguage": "abu_ramad"
      },
      {
        "code": 0,
        "type": "City",
        "enNameLanguage": "Arbodi",
        "location": {
          "lat": 10.5,
          "lng": 34.25
        },
        "keyAccentLanguage": "arbodi"
      },
      {
        "code": 0,
        "type": "City",
        "enNameLanguage": "Abungoro",
        "location": {
          "lat": 9.967,
          "lng": 34.1
        },
        "keyAccentLanguage": "abungoro"
      },
      {
        "code": 0,
        "type": "City",
        "enNameLanguage": "Aradeiba",
        "location": {
          "lat": 11.3,
          "lng": 34.783
        },
        "keyAccentLanguage": "aradeiba"
      },
      {
        "code": 0,
        "type": "City",
        "enNameLanguage": "Al Jundi",
        "location": {
          "lat": 11.2,
          "lng": 34.65
        },
        "keyAccentLanguage": "al_jundi"
      },
      {
        "code": 0,
        "type": "City",
        "enNameLanguage": "Al Watawit",
        "location": {
          "lat": 10.833,
          "lng": 34.333
        },
        "keyAccentLanguage": "al_watawit"
      },
      {
        "code": 0,
        "type": "City",
        "enNameLanguage": "Agaru",
        "location": {
          "lat": 10.983,
          "lng": 34.733
        },
        "keyAccentLanguage": "agaru"
      },
      {
        "code": 0,
        "type": "City",
        "enNameLanguage": "Abu Shandi",
        "location": {
          "lat": 11.35,
          "lng": 34.7
        },
        "keyAccentLanguage": "abu_shandi"
      },
      {
        "code": 0,
        "type": "City",
        "enNameLanguage": "Abu Baras",
        "location": {
          "lat": 10.867,
          "lng": 34.517
        },
        "keyAccentLanguage": "abu_baras"
      },
      {
        "code": 0,
        "type": "City",
        "enNameLanguage": "Abus",
        "location": {
          "lat": 11,
          "lng": 34.7
        },
        "keyAccentLanguage": "abus"
      },
      {
        "code": 0,
        "type": "City",
        "enNameLanguage": "Al Fil",
        "location": {
          "lat": 9.95,
          "lng": 34.033
        },
        "keyAccentLanguage": "al_fil"
      },
      {
        "code": 0,
        "type": "City",
        "enNameLanguage": "Abu Karish",
        "location": {
          "lat": 10.2,
          "lng": 33.933
        },
        "keyAccentLanguage": "abu_karish"
      },
      {
        "code": 0,
        "type": "City",
        "enNameLanguage": "Al Hajar",
        "location": {
          "lat": 11.9,
          "lng": 34.383
        },
        "keyAccentLanguage": "al_hajar"
      },
      {
        "code": 0,
        "type": "City",
        "enNameLanguage": "Al Gana",
        "location": {
          "lat": 11.4,
          "lng": 34.933
        },
        "keyAccentLanguage": "al_gana"
      },
      {
        "code": 0,
        "type": "City",
        "enNameLanguage": "Amiri",
        "location": {
          "lat": 11.516,
          "lng": 35.025
        },
        "keyAccentLanguage": "amiri"
      }
    ],
    "enNameLanguage": "Blue Nile",
    "keyAccentLanguage": "blue_nile"
  },
  {
    "code": 0,
    "type": "State",
    "location": {
      "lat": 0,
      "lng": 0
    },
    "districtList": [
      {
        "code": 0,
        "type": "City",
        "enNameLanguage": "Hotura",
        "location": {
          "lat": 12.517,
          "lng": 23.683
        },
        "keyAccentLanguage": "hotura"
      },
      {
        "code": 0,
        "type": "City",
        "enNameLanguage": "Dabinga",
        "location": {
          "lat": 13.083,
          "lng": 23.833
        },
        "keyAccentLanguage": "dabinga"
      },
      {
        "code": 0,
        "type": "City",
        "enNameLanguage": "Ginyo",
        "location": {
          "lat": 12.517,
          "lng": 23.317
        },
        "keyAccentLanguage": "ginyo"
      },
      {
        "code": 0,
        "type": "City",
        "enNameLanguage": "Artala",
        "location": {
          "lat": 11.85,
          "lng": 23.733
        },
        "keyAccentLanguage": "artala"
      },
      {
        "code": 0,
        "type": "City",
        "enNameLanguage": "Korgusa",
        "location": {
          "lat": 12.35,
          "lng": 22.9
        },
        "keyAccentLanguage": "korgusa"
      },
      {
        "code": 0,
        "type": "City",
        "enNameLanguage": "Kortolonga",
        "location": {
          "lat": 12.567,
          "lng": 22.783
        },
        "keyAccentLanguage": "kortolonga"
      },
      {
        "code": 0,
        "type": "City",
        "enNameLanguage": "Kongye",
        "location": {
          "lat": 12.917,
          "lng": 23.5
        },
        "keyAccentLanguage": "kongye"
      },
      {
        "code": 0,
        "type": "City",
        "enNameLanguage": "Buronga",
        "location": {
          "lat": 11.967,
          "lng": 23.25
        },
        "keyAccentLanguage": "buronga"
      },
      {
        "code": 0,
        "type": "City",
        "enNameLanguage": "Fongfong",
        "location": {
          "lat": 12.931,
          "lng": 23.233
        },
        "keyAccentLanguage": "fongfong"
      },
      {
        "code": 0,
        "type": "City",
        "enNameLanguage": "Gaiya",
        "location": {
          "lat": 11.567,
          "lng": 22.75
        },
        "keyAccentLanguage": "gaiya"
      },
      {
        "code": 0,
        "type": "City",
        "enNameLanguage": "Korare",
        "location": {
          "lat": 12.983,
          "lng": 23.417
        },
        "keyAccentLanguage": "korare"
      },
      {
        "code": 0,
        "type": "City",
        "enNameLanguage": "Daliyah",
        "location": {
          "lat": 12.717,
          "lng": 23.567
        },
        "keyAccentLanguage": "daliyah"
      },
      {
        "code": 0,
        "type": "City",
        "enNameLanguage": "Karraro",
        "location": {
          "lat": 12.034,
          "lng": 23.572
        },
        "keyAccentLanguage": "karraro"
      },
      {
        "code": 0,
        "type": "City",
        "enNameLanguage": "Babil",
        "location": {
          "lat": 11.701,
          "lng": 22.583
        },
        "keyAccentLanguage": "babil"
      },
      {
        "code": 0,
        "type": "City",
        "enNameLanguage": "Marlenga",
        "location": {
          "lat": 11.595,
          "lng": 23.284
        },
        "keyAccentLanguage": "marlenga"
      },
      {
        "code": 0,
        "type": "City",
        "enNameLanguage": "Dei",
        "location": {
          "lat": 13.15,
          "lng": 23.283
        },
        "keyAccentLanguage": "dei"
      },
      {
        "code": 0,
        "type": "City",
        "enNameLanguage": "Dungo",
        "location": {
          "lat": 12.983,
          "lng": 23.8
        },
        "keyAccentLanguage": "dungo"
      },
      {
        "code": 0,
        "type": "City",
        "enNameLanguage": "Kosua",
        "location": {
          "lat": 11.407,
          "lng": 23.454
        },
        "keyAccentLanguage": "kosua"
      },
      {
        "code": 0,
        "type": "City",
        "enNameLanguage": "Dambar",
        "location": {
          "lat": 11.374,
          "lng": 23.596
        },
        "keyAccentLanguage": "dambar"
      },
      {
        "code": 0,
        "type": "City",
        "enNameLanguage": "Kelling",
        "location": {
          "lat": 13.083,
          "lng": 24.317
        },
        "keyAccentLanguage": "kelling"
      },
      {
        "code": 0,
        "type": "City",
        "enNameLanguage": "Juguma",
        "location": {
          "lat": 11.733,
          "lng": 22.767
        },
        "keyAccentLanguage": "juguma"
      },
      {
        "code": 0,
        "type": "City",
        "enNameLanguage": "Dulukiri",
        "location": {
          "lat": 11.383,
          "lng": 23.617
        },
        "keyAccentLanguage": "dulukiri"
      },
      {
        "code": 0,
        "type": "City",
        "enNameLanguage": "Abata",
        "location": {
          "lat": 13.131,
          "lng": 23.63
        },
        "keyAccentLanguage": "abata"
      },
      {
        "code": 0,
        "type": "City",
        "enNameLanguage": "Bulgumeil",
        "location": {
          "lat": 13.083,
          "lng": 23.6
        },
        "keyAccentLanguage": "bulgumeil"
      },
      {
        "code": 0,
        "type": "City",
        "enNameLanguage": "Guldubar",
        "location": {
          "lat": 12.1,
          "lng": 23.75
        },
        "keyAccentLanguage": "guldubar"
      },
      {
        "code": 0,
        "type": "City",
        "enNameLanguage": "At Tabah",
        "location": {
          "lat": 11.3,
          "lng": 23.617
        },
        "keyAccentLanguage": "at_tabah"
      },
      {
        "code": 0,
        "type": "City",
        "enNameLanguage": "Bumbil",
        "location": {
          "lat": 11.783,
          "lng": 23.083
        },
        "keyAccentLanguage": "bumbil"
      },
      {
        "code": 0,
        "type": "City",
        "enNameLanguage": "Bubu",
        "location": {
          "lat": 12.633,
          "lng": 23.333
        },
        "keyAccentLanguage": "bubu"
      },
      {
        "code": 0,
        "type": "City",
        "enNameLanguage": "Kammbuna",
        "location": {
          "lat": 13.167,
          "lng": 24.083
        },
        "keyAccentLanguage": "kammbuna"
      },
      {
        "code": 0,
        "type": "City",
        "enNameLanguage": "Zalingei",
        "location": {
          "lat": 12.9,
          "lng": 23.477
        },
        "keyAccentLanguage": "zalingei"
      },
      {
        "code": 0,
        "type": "City",
        "enNameLanguage": "Deimbo",
        "location": {
          "lat": 11.9,
          "lng": 23.717
        },
        "keyAccentLanguage": "deimbo"
      },
      {
        "code": 0,
        "type": "City",
        "enNameLanguage": "Kunjara",
        "location": {
          "lat": 13.082,
          "lng": 23.89
        },
        "keyAccentLanguage": "kunjara"
      },
      {
        "code": 0,
        "type": "City",
        "enNameLanguage": "Gartaga",
        "location": {
          "lat": 11.924,
          "lng": 23.075
        },
        "keyAccentLanguage": "gartaga"
      },
      {
        "code": 0,
        "type": "City",
        "enNameLanguage": "Korgojok",
        "location": {
          "lat": 12.617,
          "lng": 22.65
        },
        "keyAccentLanguage": "korgojok"
      },
      {
        "code": 0,
        "type": "City",
        "enNameLanguage": "Yoyo",
        "location": {
          "lat": 12.061,
          "lng": 22.833
        },
        "keyAccentLanguage": "yoyo"
      },
      {
        "code": 0,
        "type": "City",
        "enNameLanguage": "Kulmo",
        "location": {
          "lat": 12.606,
          "lng": 23.315
        },
        "keyAccentLanguage": "kulmo"
      },
      {
        "code": 0,
        "type": "City",
        "enNameLanguage": "Kagko",
        "location": {
          "lat": 12.367,
          "lng": 23.383
        },
        "keyAccentLanguage": "kagko"
      },
      {
        "code": 0,
        "type": "City",
        "enNameLanguage": "Dulgo",
        "location": {
          "lat": 12.517,
          "lng": 23.267
        },
        "keyAccentLanguage": "dulgo"
      },
      {
        "code": 0,
        "type": "City",
        "enNameLanguage": "Korei",
        "location": {
          "lat": 12.912,
          "lng": 23.358
        },
        "keyAccentLanguage": "korei"
      },
      {
        "code": 0,
        "type": "City",
        "enNameLanguage": "Ballah",
        "location": {
          "lat": 12.783,
          "lng": 22.75
        },
        "keyAccentLanguage": "ballah"
      },
      {
        "code": 0,
        "type": "City",
        "enNameLanguage": "Kedilnye",
        "location": {
          "lat": 12.833,
          "lng": 23.533
        },
        "keyAccentLanguage": "kedilnye"
      },
      {
        "code": 0,
        "type": "City",
        "enNameLanguage": "Turrah",
        "location": {
          "lat": 13.254,
          "lng": 24.344
        },
        "keyAccentLanguage": "turrah"
      },
      {
        "code": 0,
        "type": "City",
        "enNameLanguage": "Bata",
        "location": {
          "lat": 12.117,
          "lng": 23.033
        },
        "keyAccentLanguage": "bata"
      },
      {
        "code": 0,
        "type": "City",
        "enNameLanguage": "Kigienni",
        "location": {
          "lat": 12.133,
          "lng": 23.733
        },
        "keyAccentLanguage": "kigienni"
      },
      {
        "code": 0,
        "type": "City",
        "enNameLanguage": "Dumbaro",
        "location": {
          "lat": 12.733,
          "lng": 22.833
        },
        "keyAccentLanguage": "dumbaro"
      },
      {
        "code": 0,
        "type": "City",
        "enNameLanguage": "Sirri",
        "location": {
          "lat": 12.542,
          "lng": 22.907
        },
        "keyAccentLanguage": "sirri"
      },
      {
        "code": 0,
        "type": "City",
        "enNameLanguage": "Dali",
        "location": {
          "lat": 12.45,
          "lng": 22.683
        },
        "keyAccentLanguage": "dali"
      },
      {
        "code": 0,
        "type": "City",
        "enNameLanguage": "Duraysah",
        "location": {
          "lat": 12.695,
          "lng": 22.775
        },
        "keyAccentLanguage": "duraysah"
      },
      {
        "code": 0,
        "type": "City",
        "enNameLanguage": "Dambarang",
        "location": {
          "lat": 11.733,
          "lng": 23.7
        },
        "keyAccentLanguage": "dambarang"
      },
      {
        "code": 0,
        "type": "City",
        "enNameLanguage": "Ballas",
        "location": {
          "lat": 13.2,
          "lng": 23.35
        },
        "keyAccentLanguage": "ballas"
      },
      {
        "code": 0,
        "type": "City",
        "enNameLanguage": "Anjikoti",
        "location": {
          "lat": 12.1,
          "lng": 22.633
        },
        "keyAccentLanguage": "anjikoti"
      },
      {
        "code": 0,
        "type": "City",
        "enNameLanguage": "Dignyo",
        "location": {
          "lat": 12.217,
          "lng": 23.2
        },
        "keyAccentLanguage": "dignyo"
      },
      {
        "code": 0,
        "type": "City",
        "enNameLanguage": "Birganga",
        "location": {
          "lat": 12.8,
          "lng": 23.167
        },
        "keyAccentLanguage": "birganga"
      },
      {
        "code": 0,
        "type": "City",
        "enNameLanguage": "GamiFilli",
        "location": {
          "lat": 13.316,
          "lng": 23.296
        },
        "keyAccentLanguage": "gamifilli"
      },
      {
        "code": 0,
        "type": "City",
        "enNameLanguage": "Dulayq",
        "location": {
          "lat": 12.483,
          "lng": 23.267
        },
        "keyAccentLanguage": "dulayq"
      },
      {
        "code": 0,
        "type": "City",
        "enNameLanguage": "Karkulli",
        "location": {
          "lat": 12.05,
          "lng": 23.25
        },
        "keyAccentLanguage": "karkulli"
      },
      {
        "code": 0,
        "type": "City",
        "enNameLanguage": "Garsila",
        "location": {
          "lat": 12.367,
          "lng": 23.142
        },
        "keyAccentLanguage": "garsila"
      },
      {
        "code": 0,
        "type": "City",
        "enNameLanguage": "Edermi",
        "location": {
          "lat": 13.45,
          "lng": 23.667
        },
        "keyAccentLanguage": "edermi"
      },
      {
        "code": 0,
        "type": "City",
        "enNameLanguage": "Durmei",
        "location": {
          "lat": 12.65,
          "lng": 23.267
        },
        "keyAccentLanguage": "durmei"
      },
      {
        "code": 0,
        "type": "City",
        "enNameLanguage": "Hajar Banda",
        "location": {
          "lat": 11.494,
          "lng": 23.004
        },
        "keyAccentLanguage": "hajar_banda"
      },
      {
        "code": 0,
        "type": "City",
        "enNameLanguage": "Kirbi",
        "location": {
          "lat": 12.017,
          "lng": 23.2
        },
        "keyAccentLanguage": "kirbi"
      },
      {
        "code": 0,
        "type": "City",
        "enNameLanguage": "Asangdali",
        "location": {
          "lat": 12.983,
          "lng": 23.933
        },
        "keyAccentLanguage": "asangdali"
      },
      {
        "code": 0,
        "type": "City",
        "enNameLanguage": "Burubaasi",
        "location": {
          "lat": 13.05,
          "lng": 23.15
        },
        "keyAccentLanguage": "burubaasi"
      },
      {
        "code": 0,
        "type": "City",
        "enNameLanguage": "Titini",
        "location": {
          "lat": 11.743,
          "lng": 22.925
        },
        "keyAccentLanguage": "titini"
      },
      {
        "code": 0,
        "type": "City",
        "enNameLanguage": "Amar Jadid",
        "location": {
          "lat": 12.282,
          "lng": 23.045
        },
        "keyAccentLanguage": "amar_jadid"
      },
      {
        "code": 0,
        "type": "City",
        "enNameLanguage": "Sullu",
        "location": {
          "lat": 12.849,
          "lng": 23.101
        },
        "keyAccentLanguage": "sullu"
      },
      {
        "code": 0,
        "type": "City",
        "enNameLanguage": "Kore",
        "location": {
          "lat": 11.733,
          "lng": 23.567
        },
        "keyAccentLanguage": "kore"
      },
      {
        "code": 0,
        "type": "City",
        "enNameLanguage": "Fado",
        "location": {
          "lat": 11.767,
          "lng": 23.65
        },
        "keyAccentLanguage": "fado"
      },
      {
        "code": 0,
        "type": "City",
        "enNameLanguage": "Kabirah",
        "location": {
          "lat": 12.5,
          "lng": 22.683
        },
        "keyAccentLanguage": "kabirah"
      },
      {
        "code": 0,
        "type": "City",
        "enNameLanguage": "Digu",
        "location": {
          "lat": 12.517,
          "lng": 23.3
        },
        "keyAccentLanguage": "digu"
      },
      {
        "code": 0,
        "type": "City",
        "enNameLanguage": "Kawa",
        "location": {
          "lat": 12.633,
          "lng": 23.6
        },
        "keyAccentLanguage": "kawa"
      },
      {
        "code": 0,
        "type": "City",
        "enNameLanguage": "Hamidiya",
        "location": {
          "lat": 12.917,
          "lng": 23.483
        },
        "keyAccentLanguage": "hamidiya"
      },
      {
        "code": 0,
        "type": "City",
        "enNameLanguage": "Dar Zubi",
        "location": {
          "lat": 13.117,
          "lng": 23.667
        },
        "keyAccentLanguage": "dar_zubi"
      },
      {
        "code": 0,
        "type": "City",
        "enNameLanguage": "Duro",
        "location": {
          "lat": 12.467,
          "lng": 23.183
        },
        "keyAccentLanguage": "duro"
      },
      {
        "code": 0,
        "type": "City",
        "enNameLanguage": "Dangai",
        "location": {
          "lat": 11.817,
          "lng": 23.75
        },
        "keyAccentLanguage": "dangai"
      },
      {
        "code": 0,
        "type": "City",
        "enNameLanguage": "Jaja",
        "location": {
          "lat": 12.7,
          "lng": 23.2
        },
        "keyAccentLanguage": "jaja"
      },
      {
        "code": 0,
        "type": "City",
        "enNameLanguage": "Deirirro",
        "location": {
          "lat": 12.967,
          "lng": 23
        },
        "keyAccentLanguage": "deirirro"
      },
      {
        "code": 0,
        "type": "City",
        "enNameLanguage": "Gulli",
        "location": {
          "lat": 13.067,
          "lng": 23.2
        },
        "keyAccentLanguage": "gulli"
      },
      {
        "code": 0,
        "type": "City",
        "enNameLanguage": "Giri",
        "location": {
          "lat": 12.817,
          "lng": 23.367
        },
        "keyAccentLanguage": "giri"
      },
      {
        "code": 0,
        "type": "City",
        "enNameLanguage": "Kosormungia",
        "location": {
          "lat": 13.433,
          "lng": 23.567
        },
        "keyAccentLanguage": "kosormungia"
      },
      {
        "code": 0,
        "type": "City",
        "enNameLanguage": "Guldo",
        "location": {
          "lat": 13.136,
          "lng": 24.148
        },
        "keyAccentLanguage": "guldo"
      },
      {
        "code": 0,
        "type": "City",
        "enNameLanguage": "Durri",
        "location": {
          "lat": 12.933,
          "lng": 23.567
        },
        "keyAccentLanguage": "durri"
      },
      {
        "code": 0,
        "type": "City",
        "enNameLanguage": "Kabar",
        "location": {
          "lat": 11.55,
          "lng": 23.1
        },
        "keyAccentLanguage": "kabar"
      },
      {
        "code": 0,
        "type": "City",
        "enNameLanguage": "Barakah",
        "location": {
          "lat": 12.35,
          "lng": 23.55
        },
        "keyAccentLanguage": "barakah"
      },
      {
        "code": 0,
        "type": "City",
        "enNameLanguage": "Godoba",
        "location": {
          "lat": 12.667,
          "lng": 23.733
        },
        "keyAccentLanguage": "godoba"
      },
      {
        "code": 0,
        "type": "City",
        "enNameLanguage": "Agra",
        "location": {
          "lat": 12.067,
          "lng": 23.2
        },
        "keyAccentLanguage": "agra"
      },
      {
        "code": 0,
        "type": "City",
        "enNameLanguage": "Burbur",
        "location": {
          "lat": 12.517,
          "lng": 23.45
        },
        "keyAccentLanguage": "burbur"
      },
      {
        "code": 0,
        "type": "City",
        "enNameLanguage": "Kaskeidi",
        "location": {
          "lat": 12.3,
          "lng": 23.417
        },
        "keyAccentLanguage": "kaskeidi"
      },
      {
        "code": 0,
        "type": "City",
        "enNameLanguage": "Kasoleri",
        "location": {
          "lat": 11.967,
          "lng": 23
        },
        "keyAccentLanguage": "kasoleri"
      },
      {
        "code": 0,
        "type": "City",
        "enNameLanguage": "Dulmoinya",
        "location": {
          "lat": 12.05,
          "lng": 22.867
        },
        "keyAccentLanguage": "dulmoinya"
      },
      {
        "code": 0,
        "type": "City",
        "enNameLanguage": "Gudai",
        "location": {
          "lat": 13.2,
          "lng": 23.717
        },
        "keyAccentLanguage": "gudai"
      },
      {
        "code": 0,
        "type": "City",
        "enNameLanguage": "Dimbala",
        "location": {
          "lat": 11.533,
          "lng": 23.2
        },
        "keyAccentLanguage": "dimbala"
      },
      {
        "code": 0,
        "type": "City",
        "enNameLanguage": "Ambara",
        "location": {
          "lat": 11.9,
          "lng": 23.383
        },
        "keyAccentLanguage": "ambara"
      },
      {
        "code": 0,
        "type": "City",
        "enNameLanguage": "Arwala",
        "location": {
          "lat": 12.383,
          "lng": 23.283
        },
        "keyAccentLanguage": "arwala"
      },
      {
        "code": 0,
        "type": "City",
        "enNameLanguage": "Duri",
        "location": {
          "lat": 12.267,
          "lng": 22.967
        },
        "keyAccentLanguage": "duri"
      },
      {
        "code": 0,
        "type": "City",
        "enNameLanguage": "Gara",
        "location": {
          "lat": 12.667,
          "lng": 23.283
        },
        "keyAccentLanguage": "gara"
      },
      {
        "code": 0,
        "type": "City",
        "enNameLanguage": "Gusa",
        "location": {
          "lat": 12.3,
          "lng": 23.05
        },
        "keyAccentLanguage": "gusa"
      },
      {
        "code": 0,
        "type": "City",
        "enNameLanguage": "Golanga",
        "location": {
          "lat": 12.317,
          "lng": 23.2
        },
        "keyAccentLanguage": "golanga"
      },
      {
        "code": 0,
        "type": "City",
        "enNameLanguage": "Burbur",
        "location": {
          "lat": 12.517,
          "lng": 23.45
        },
        "keyAccentLanguage": "burbur"
      },
      {
        "code": 0,
        "type": "City",
        "enNameLanguage": "Kulme",
        "location": {
          "lat": 12.595,
          "lng": 23.619
        },
        "keyAccentLanguage": "kulme"
      }
    ],
    "enNameLanguage": "Central Darfur",
    "keyAccentLanguage": "central_darfur"
  },
  {
    "code": 0,
    "type": "State",
    "location": {
      "lat": 0,
      "lng": 0
    },
    "districtList": [
      {
        "code": 0,
        "type": "City",
        "enNameLanguage": "Baddal",
        "location": {
          "lat": 12.083,
          "lng": 25.667
        },
        "keyAccentLanguage": "baddal"
      },
      {
        "code": 0,
        "type": "City",
        "enNameLanguage": "Beringil",
        "location": {
          "lat": 12.167,
          "lng": 25.683
        },
        "keyAccentLanguage": "beringil"
      },
      {
        "code": 0,
        "type": "City",
        "enNameLanguage": "`Abd Allah",
        "location": {
          "lat": 12.883,
          "lng": 25.5
        },
        "keyAccentLanguage": "`abd_allah"
      },
      {
        "code": 0,
        "type": "City",
        "enNameLanguage": "Ahmad `Abd Allahi",
        "location": {
          "lat": 11.617,
          "lng": 26.967
        },
        "keyAccentLanguage": "ahmad_`abd_allahi"
      },
      {
        "code": 0,
        "type": "City",
        "enNameLanguage": "Gamal",
        "location": {
          "lat": 11.567,
          "lng": 25.85
        },
        "keyAccentLanguage": "gamal"
      },
      {
        "code": 0,
        "type": "City",
        "enNameLanguage": "Gafalu",
        "location": {
          "lat": 12.883,
          "lng": 25.567
        },
        "keyAccentLanguage": "gafalu"
      },
      {
        "code": 0,
        "type": "City",
        "enNameLanguage": "Kumia",
        "location": {
          "lat": 10.95,
          "lng": 26.417
        },
        "keyAccentLanguage": "kumia"
      },
      {
        "code": 0,
        "type": "City",
        "enNameLanguage": "Abu Qa`b",
        "location": {
          "lat": 11.95,
          "lng": 25.817
        },
        "keyAccentLanguage": "abu_qa`b"
      },
      {
        "code": 0,
        "type": "City",
        "enNameLanguage": "Abu Matariq",
        "location": {
          "lat": 10.968,
          "lng": 26.292
        },
        "keyAccentLanguage": "abu_matariq"
      },
      {
        "code": 0,
        "type": "City",
        "enNameLanguage": "Abu Kunaysh",
        "location": {
          "lat": 10.983,
          "lng": 26.6
        },
        "keyAccentLanguage": "abu_kunaysh"
      },
      {
        "code": 0,
        "type": "City",
        "enNameLanguage": "Kabr",
        "location": {
          "lat": 10.9,
          "lng": 26.833
        },
        "keyAccentLanguage": "kabr"
      },
      {
        "code": 0,
        "type": "City",
        "enNameLanguage": "Baturo",
        "location": {
          "lat": 11.217,
          "lng": 25.6
        },
        "keyAccentLanguage": "baturo"
      },
      {
        "code": 0,
        "type": "City",
        "enNameLanguage": "Shaqq Hamad",
        "location": {
          "lat": 11.583,
          "lng": 26.933
        },
        "keyAccentLanguage": "shaqq_hamad"
      },
      {
        "code": 0,
        "type": "City",
        "enNameLanguage": "Marqubah",
        "location": {
          "lat": 11.543,
          "lng": 25.363
        },
        "keyAccentLanguage": "marqubah"
      },
      {
        "code": 0,
        "type": "City",
        "enNameLanguage": "Abu Dangal",
        "location": {
          "lat": 12.35,
          "lng": 25.717
        },
        "keyAccentLanguage": "abu_dangal"
      },
      {
        "code": 0,
        "type": "City",
        "enNameLanguage": "Koreina",
        "location": {
          "lat": 11.4,
          "lng": 26.217
        },
        "keyAccentLanguage": "koreina"
      },
      {
        "code": 0,
        "type": "City",
        "enNameLanguage": "Khorubaya",
        "location": {
          "lat": 10.933,
          "lng": 26.933
        },
        "keyAccentLanguage": "khorubaya"
      },
      {
        "code": 0,
        "type": "City",
        "enNameLanguage": "Far` al Habil",
        "location": {
          "lat": 10.933,
          "lng": 26.117
        },
        "keyAccentLanguage": "far`_al_habil"
      },
      {
        "code": 0,
        "type": "City",
        "enNameLanguage": "Ad Duayn",
        "location": {
          "lat": 11.426,
          "lng": 26.159
        },
        "keyAccentLanguage": "ad_duayn"
      },
      {
        "code": 0,
        "type": "City",
        "enNameLanguage": "Khaiyoba",
        "location": {
          "lat": 10.767,
          "lng": 27
        },
        "keyAccentLanguage": "khaiyoba"
      },
      {
        "code": 0,
        "type": "City",
        "enNameLanguage": "Abu Tabanu",
        "location": {
          "lat": 11.333,
          "lng": 26.3
        },
        "keyAccentLanguage": "abu_tabanu"
      },
      {
        "code": 0,
        "type": "City",
        "enNameLanguage": "Ma`aliya Dardok",
        "location": {
          "lat": 11.583,
          "lng": 25.883
        },
        "keyAccentLanguage": "ma`aliya_dardok"
      },
      {
        "code": 0,
        "type": "City",
        "enNameLanguage": "Umm Dorota",
        "location": {
          "lat": 10.833,
          "lng": 25.783
        },
        "keyAccentLanguage": "umm_dorota"
      },
      {
        "code": 0,
        "type": "City",
        "enNameLanguage": "Kalaju",
        "location": {
          "lat": 11.933,
          "lng": 25.7
        },
        "keyAccentLanguage": "kalaju"
      },
      {
        "code": 0,
        "type": "City",
        "enNameLanguage": "Al Qabr",
        "location": {
          "lat": 11.467,
          "lng": 27.033
        },
        "keyAccentLanguage": "al_qabr"
      },
      {
        "code": 0,
        "type": "City",
        "enNameLanguage": "Umm Aradu",
        "location": {
          "lat": 12.317,
          "lng": 25.733
        },
        "keyAccentLanguage": "umm_aradu"
      },
      {
        "code": 0,
        "type": "City",
        "enNameLanguage": "Tuhama",
        "location": {
          "lat": 11.033,
          "lng": 26.35
        },
        "keyAccentLanguage": "tuhama"
      },
      {
        "code": 0,
        "type": "City",
        "enNameLanguage": "Abi Karu",
        "location": {
          "lat": 12.217,
          "lng": 25.7
        },
        "keyAccentLanguage": "abi_karu"
      },
      {
        "code": 0,
        "type": "City",
        "enNameLanguage": "Lesun",
        "location": {
          "lat": 10.533,
          "lng": 26.7
        },
        "keyAccentLanguage": "lesun"
      },
      {
        "code": 0,
        "type": "City",
        "enNameLanguage": "Bana",
        "location": {
          "lat": 10.883,
          "lng": 26.833
        },
        "keyAccentLanguage": "bana"
      },
      {
        "code": 0,
        "type": "City",
        "enNameLanguage": "Shu`aybat",
        "location": {
          "lat": 11.65,
          "lng": 26.667
        },
        "keyAccentLanguage": "shu`aybat"
      },
      {
        "code": 0,
        "type": "City",
        "enNameLanguage": "Mireigha",
        "location": {
          "lat": 11.183,
          "lng": 25.65
        },
        "keyAccentLanguage": "mireigha"
      },
      {
        "code": 0,
        "type": "City",
        "enNameLanguage": "Wad Hassib",
        "location": {
          "lat": 11.753,
          "lng": 26.851
        },
        "keyAccentLanguage": "wad_hassib"
      },
      {
        "code": 0,
        "type": "City",
        "enNameLanguage": "As Sumayh",
        "location": {
          "lat": 9.822,
          "lng": 27.655
        },
        "keyAccentLanguage": "as_sumayh"
      },
      {
        "code": 0,
        "type": "City",
        "enNameLanguage": "Tumbruku",
        "location": {
          "lat": 10.783,
          "lng": 26.8
        },
        "keyAccentLanguage": "tumbruku"
      },
      {
        "code": 0,
        "type": "City",
        "enNameLanguage": "Arid",
        "location": {
          "lat": 12.65,
          "lng": 25.55
        },
        "keyAccentLanguage": "arid"
      },
      {
        "code": 0,
        "type": "City",
        "enNameLanguage": "Khabaqah",
        "location": {
          "lat": 12.7,
          "lng": 25.467
        },
        "keyAccentLanguage": "khabaqah"
      },
      {
        "code": 0,
        "type": "City",
        "enNameLanguage": "Umm Marahik",
        "location": {
          "lat": 11.017,
          "lng": 26.95
        },
        "keyAccentLanguage": "umm_marahik"
      },
      {
        "code": 0,
        "type": "City",
        "enNameLanguage": "Kulaykili",
        "location": {
          "lat": 11.359,
          "lng": 25.602
        },
        "keyAccentLanguage": "kulaykili"
      },
      {
        "code": 0,
        "type": "City",
        "enNameLanguage": "Khamis Armarn",
        "location": {
          "lat": 11.433,
          "lng": 25.733
        },
        "keyAccentLanguage": "khamis_armarn"
      },
      {
        "code": 0,
        "type": "City",
        "enNameLanguage": "Dauro",
        "location": {
          "lat": 12.283,
          "lng": 25.717
        },
        "keyAccentLanguage": "dauro"
      },
      {
        "code": 0,
        "type": "City",
        "enNameLanguage": "Ad Du`ayn",
        "location": {
          "lat": 11.433,
          "lng": 26.15
        },
        "keyAccentLanguage": "ad_du`ayn"
      },
      {
        "code": 0,
        "type": "City",
        "enNameLanguage": "Jadas Sid",
        "location": {
          "lat": 11.683,
          "lng": 26.717
        },
        "keyAccentLanguage": "jadas_sid"
      },
      {
        "code": 0,
        "type": "City",
        "enNameLanguage": "Shalasha",
        "location": {
          "lat": 10.513,
          "lng": 26.685
        },
        "keyAccentLanguage": "shalasha"
      },
      {
        "code": 0,
        "type": "City",
        "enNameLanguage": "Shaqq Al Gawad",
        "location": {
          "lat": 12.436,
          "lng": 25.926
        },
        "keyAccentLanguage": "shaqq_al_gawad"
      },
      {
        "code": 0,
        "type": "City",
        "enNameLanguage": "Sirwal",
        "location": {
          "lat": 10.933,
          "lng": 26.467
        },
        "keyAccentLanguage": "sirwal"
      },
      {
        "code": 0,
        "type": "City",
        "enNameLanguage": "Umm Boim",
        "location": {
          "lat": 11.722,
          "lng": 25.941
        },
        "keyAccentLanguage": "umm_boim"
      },
      {
        "code": 0,
        "type": "City",
        "enNameLanguage": "Hamid Egeil",
        "location": {
          "lat": 11.483,
          "lng": 26.633
        },
        "keyAccentLanguage": "hamid_egeil"
      },
      {
        "code": 0,
        "type": "City",
        "enNameLanguage": "Qubbah",
        "location": {
          "lat": 11.65,
          "lng": 27.117
        },
        "keyAccentLanguage": "qubbah"
      },
      {
        "code": 0,
        "type": "City",
        "enNameLanguage": "Shaqq `Isa as Sa'igh",
        "location": {
          "lat": 11.783,
          "lng": 27.083
        },
        "keyAccentLanguage": "shaqq_`isa_as_sa'igh"
      },
      {
        "code": 0,
        "type": "City",
        "enNameLanguage": "Harazah Ruqayyiqah",
        "location": {
          "lat": 10.867,
          "lng": 25.95
        },
        "keyAccentLanguage": "harazah_ruqayyiqah"
      },
      {
        "code": 0,
        "type": "City",
        "enNameLanguage": "Rahad al Marrah",
        "location": {
          "lat": 11.183,
          "lng": 26.083
        },
        "keyAccentLanguage": "rahad_al_marrah"
      },
      {
        "code": 0,
        "type": "City",
        "enNameLanguage": "Masaleit",
        "location": {
          "lat": 12.917,
          "lng": 25.483
        },
        "keyAccentLanguage": "masaleit"
      },
      {
        "code": 0,
        "type": "City",
        "enNameLanguage": "Sadr al Hisan",
        "location": {
          "lat": 10.917,
          "lng": 26.317
        },
        "keyAccentLanguage": "sadr_al_hisan"
      },
      {
        "code": 0,
        "type": "City",
        "enNameLanguage": "Gebbid",
        "location": {
          "lat": 11.383,
          "lng": 26.633
        },
        "keyAccentLanguage": "gebbid"
      },
      {
        "code": 0,
        "type": "City",
        "enNameLanguage": "Umm Radim",
        "location": {
          "lat": 11.717,
          "lng": 27.15
        },
        "keyAccentLanguage": "umm_radim"
      },
      {
        "code": 0,
        "type": "City",
        "enNameLanguage": "Al `Aris",
        "location": {
          "lat": 10.8,
          "lng": 25.767
        },
        "keyAccentLanguage": "al_`aris"
      },
      {
        "code": 0,
        "type": "City",
        "enNameLanguage": "Shaqq al Burah",
        "location": {
          "lat": 11.65,
          "lng": 26.833
        },
        "keyAccentLanguage": "shaqq_al_burah"
      },
      {
        "code": 0,
        "type": "City",
        "enNameLanguage": "An Nair",
        "location": {
          "lat": 11.717,
          "lng": 26.817
        },
        "keyAccentLanguage": "an_nair"
      },
      {
        "code": 0,
        "type": "City",
        "enNameLanguage": "Umm Deroti",
        "location": {
          "lat": 11.383,
          "lng": 25.967
        },
        "keyAccentLanguage": "umm_deroti"
      },
      {
        "code": 0,
        "type": "City",
        "enNameLanguage": "Umm La`ota",
        "location": {
          "lat": 11.617,
          "lng": 26.05
        },
        "keyAccentLanguage": "umm_la`ota"
      },
      {
        "code": 0,
        "type": "City",
        "enNameLanguage": "Habib",
        "location": {
          "lat": 11.75,
          "lng": 26.933
        },
        "keyAccentLanguage": "habib"
      },
      {
        "code": 0,
        "type": "City",
        "enNameLanguage": "Kafran Kaula",
        "location": {
          "lat": 11.817,
          "lng": 26.367
        },
        "keyAccentLanguage": "kafran_kaula"
      },
      {
        "code": 0,
        "type": "City",
        "enNameLanguage": "Gostoweir",
        "location": {
          "lat": 12.717,
          "lng": 25.783
        },
        "keyAccentLanguage": "gostoweir"
      },
      {
        "code": 0,
        "type": "City",
        "enNameLanguage": "As Saqr",
        "location": {
          "lat": 11.578,
          "lng": 26.944
        },
        "keyAccentLanguage": "as_saqr"
      },
      {
        "code": 0,
        "type": "City",
        "enNameLanguage": "Abu Shattah",
        "location": {
          "lat": 11.433,
          "lng": 26.033
        },
        "keyAccentLanguage": "abu_shattah"
      },
      {
        "code": 0,
        "type": "City",
        "enNameLanguage": "Rujaylah",
        "location": {
          "lat": 11.533,
          "lng": 25.35
        },
        "keyAccentLanguage": "rujaylah"
      },
      {
        "code": 0,
        "type": "City",
        "enNameLanguage": "Al `Urayqat",
        "location": {
          "lat": 11.05,
          "lng": 26.617
        },
        "keyAccentLanguage": "al_`urayqat"
      },
      {
        "code": 0,
        "type": "City",
        "enNameLanguage": "At Tayyib Mafin",
        "location": {
          "lat": 10.9,
          "lng": 26.9
        },
        "keyAccentLanguage": "at_tayyib_mafin"
      },
      {
        "code": 0,
        "type": "City",
        "enNameLanguage": "Abu Karinka",
        "location": {
          "lat": 11.594,
          "lng": 26.565
        },
        "keyAccentLanguage": "abu_karinka"
      },
      {
        "code": 0,
        "type": "City",
        "enNameLanguage": "Al Faei",
        "location": {
          "lat": 11.033,
          "lng": 26.433
        },
        "keyAccentLanguage": "al_faei"
      },
      {
        "code": 0,
        "type": "City",
        "enNameLanguage": "`Iyal an Naji",
        "location": {
          "lat": 11.617,
          "lng": 26.633
        },
        "keyAccentLanguage": "`iyal_an_naji"
      },
      {
        "code": 0,
        "type": "City",
        "enNameLanguage": "Rahad at Tabah",
        "location": {
          "lat": 11.917,
          "lng": 25.6
        },
        "keyAccentLanguage": "rahad_at_tabah"
      },
      {
        "code": 0,
        "type": "City",
        "enNameLanguage": "Az Zumagi",
        "location": {
          "lat": 11.533,
          "lng": 25.967
        },
        "keyAccentLanguage": "az_zumagi"
      },
      {
        "code": 0,
        "type": "City",
        "enNameLanguage": "Shaqq Tayyib",
        "location": {
          "lat": 11.533,
          "lng": 27.117
        },
        "keyAccentLanguage": "shaqq_tayyib"
      },
      {
        "code": 0,
        "type": "City",
        "enNameLanguage": "Tawur",
        "location": {
          "lat": 10.333,
          "lng": 26.217
        },
        "keyAccentLanguage": "tawur"
      },
      {
        "code": 0,
        "type": "City",
        "enNameLanguage": "Silkhalaq",
        "location": {
          "lat": 11.217,
          "lng": 25.65
        },
        "keyAccentLanguage": "silkhalaq"
      },
      {
        "code": 0,
        "type": "City",
        "enNameLanguage": "Umm Derib",
        "location": {
          "lat": 10.983,
          "lng": 26.567
        },
        "keyAccentLanguage": "umm_derib"
      },
      {
        "code": 0,
        "type": "City",
        "enNameLanguage": "Qurdud",
        "location": {
          "lat": 11.817,
          "lng": 25.767
        },
        "keyAccentLanguage": "qurdud"
      },
      {
        "code": 0,
        "type": "City",
        "enNameLanguage": "Al Matawrad",
        "location": {
          "lat": 11.933,
          "lng": 25.933
        },
        "keyAccentLanguage": "al_matawrad"
      },
      {
        "code": 0,
        "type": "City",
        "enNameLanguage": "Gabras",
        "location": {
          "lat": 10.271,
          "lng": 26.234
        },
        "keyAccentLanguage": "gabras"
      },
      {
        "code": 0,
        "type": "City",
        "enNameLanguage": "Harun",
        "location": {
          "lat": 11.333,
          "lng": 25.717
        },
        "keyAccentLanguage": "harun"
      },
      {
        "code": 0,
        "type": "City",
        "enNameLanguage": "Abu Gheid",
        "location": {
          "lat": 11.75,
          "lng": 27.083
        },
        "keyAccentLanguage": "abu_gheid"
      },
      {
        "code": 0,
        "type": "City",
        "enNameLanguage": "Abu Jabrah",
        "location": {
          "lat": 11.064,
          "lng": 26.856
        },
        "keyAccentLanguage": "abu_jabrah"
      },
      {
        "code": 0,
        "type": "City",
        "enNameLanguage": "Tomat",
        "location": {
          "lat": 11.484,
          "lng": 27.033
        },
        "keyAccentLanguage": "tomat"
      },
      {
        "code": 0,
        "type": "City",
        "enNameLanguage": "Sibdu",
        "location": {
          "lat": 10.958,
          "lng": 26.345
        },
        "keyAccentLanguage": "sibdu"
      },
      {
        "code": 0,
        "type": "City",
        "enNameLanguage": "Tha`alibah",
        "location": {
          "lat": 11.7,
          "lng": 26.9
        },
        "keyAccentLanguage": "tha`alibah"
      },
      {
        "code": 0,
        "type": "City",
        "enNameLanguage": "Gidel as Sant",
        "location": {
          "lat": 11,
          "lng": 26.517
        },
        "keyAccentLanguage": "gidel_as_sant"
      },
      {
        "code": 0,
        "type": "City",
        "enNameLanguage": "Safaha",
        "location": {
          "lat": 9.783,
          "lng": 26.918
        },
        "keyAccentLanguage": "safaha"
      },
      {
        "code": 0,
        "type": "City",
        "enNameLanguage": "Dobayan",
        "location": {
          "lat": 11.4,
          "lng": 25.7
        },
        "keyAccentLanguage": "dobayan"
      },
      {
        "code": 0,
        "type": "City",
        "enNameLanguage": "Bakhit",
        "location": {
          "lat": 11.468,
          "lng": 26.804
        },
        "keyAccentLanguage": "bakhit"
      },
      {
        "code": 0,
        "type": "City",
        "enNameLanguage": "Quwayrin",
        "location": {
          "lat": 11.133,
          "lng": 25.583
        },
        "keyAccentLanguage": "quwayrin"
      },
      {
        "code": 0,
        "type": "City",
        "enNameLanguage": "Dakadim",
        "location": {
          "lat": 10.867,
          "lng": 26.817
        },
        "keyAccentLanguage": "dakadim"
      },
      {
        "code": 0,
        "type": "City",
        "enNameLanguage": "Siwar",
        "location": {
          "lat": 11.15,
          "lng": 25.65
        },
        "keyAccentLanguage": "siwar"
      },
      {
        "code": 0,
        "type": "City",
        "enNameLanguage": "`Ajab Allah",
        "location": {
          "lat": 11.333,
          "lng": 26.583
        },
        "keyAccentLanguage": "`ajab_allah"
      },
      {
        "code": 0,
        "type": "City",
        "enNameLanguage": "Harrar",
        "location": {
          "lat": 11.4,
          "lng": 26.667
        },
        "keyAccentLanguage": "harrar"
      },
      {
        "code": 0,
        "type": "City",
        "enNameLanguage": "Umm Mireifina",
        "location": {
          "lat": 10.983,
          "lng": 26.95
        },
        "keyAccentLanguage": "umm_mireifina"
      },
      {
        "code": 0,
        "type": "City",
        "enNameLanguage": "Sigeir Umm Sa`una",
        "location": {
          "lat": 12.017,
          "lng": 26.2
        },
        "keyAccentLanguage": "sigeir_umm_sa`una"
      },
      {
        "code": 0,
        "type": "City",
        "enNameLanguage": "Muhajiriyah",
        "location": {
          "lat": 11.993,
          "lng": 25.632
        },
        "keyAccentLanguage": "muhajiriyah"
      },
      {
        "code": 0,
        "type": "City",
        "enNameLanguage": "Kutayrayah",
        "location": {
          "lat": 11.383,
          "lng": 25.467
        },
        "keyAccentLanguage": "kutayrayah"
      }
    ],
    "enNameLanguage": "East Darfur",
    "keyAccentLanguage": "east_darfur"
  },
  {
    "code": 0,
    "type": "State",
    "location": {
      "lat": 14.024307,
      "lng": 35.3685679
    },
    "districtList": [
      {
        "code": 0,
        "type": "City",
        "enNameLanguage": "Abu `Urwah",
        "location": {
          "lat": 13.55,
          "lng": 35.833
        },
        "keyAccentLanguage": "abu_`urwah"
      },
      {
        "code": 0,
        "type": "City",
        "enNameLanguage": "Abu Darisah",
        "location": {
          "lat": 14.292,
          "lng": 36.259
        },
        "keyAccentLanguage": "abu_darisah"
      },
      {
        "code": 0,
        "type": "City",
        "enNameLanguage": "`Amarah",
        "location": {
          "lat": 14.3,
          "lng": 35.8
        },
        "keyAccentLanguage": "`amarah"
      },
      {
        "code": 0,
        "type": "City",
        "enNameLanguage": "Baylah",
        "location": {
          "lat": 13.683,
          "lng": 34.833
        },
        "keyAccentLanguage": "baylah"
      },
      {
        "code": 0,
        "type": "City",
        "enNameLanguage": "El Hawata",
        "location": {
          "lat": 13.446,
          "lng": 34.624
        },
        "keyAccentLanguage": "el_hawata"
      },
      {
        "code": 0,
        "type": "City",
        "enNameLanguage": "Ash Sharmah",
        "location": {
          "lat": 15.593,
          "lng": 34.391
        },
        "keyAccentLanguage": "ash_sharmah"
      },
      {
        "code": 0,
        "type": "City",
        "enNameLanguage": "As Sihai",
        "location": {
          "lat": 14.265,
          "lng": 36.362
        },
        "keyAccentLanguage": "as_sihai"
      },
      {
        "code": 0,
        "type": "City",
        "enNameLanguage": "Abu `Agala",
        "location": {
          "lat": 14.05,
          "lng": 35.5
        },
        "keyAccentLanguage": "abu_`agala"
      },
      {
        "code": 0,
        "type": "City",
        "enNameLanguage": "Abu Rahmah",
        "location": {
          "lat": 13.933,
          "lng": 34.55
        },
        "keyAccentLanguage": "abu_rahmah"
      },
      {
        "code": 0,
        "type": "City",
        "enNameLanguage": "Daym Bakr",
        "location": {
          "lat": 14.05,
          "lng": 35.367
        },
        "keyAccentLanguage": "daym_bakr"
      },
      {
        "code": 0,
        "type": "City",
        "enNameLanguage": "Aghbash",
        "location": {
          "lat": 12.983,
          "lng": 35.9
        },
        "keyAccentLanguage": "aghbash"
      },
      {
        "code": 0,
        "type": "City",
        "enNameLanguage": "Shuwak",
        "location": {
          "lat": 14.395,
          "lng": 35.871
        },
        "keyAccentLanguage": "shuwak"
      },
      {
        "code": 0,
        "type": "City",
        "enNameLanguage": "Migreh",
        "location": {
          "lat": 14.095,
          "lng": 34.653
        },
        "keyAccentLanguage": "migreh"
      },
      {
        "code": 0,
        "type": "City",
        "enNameLanguage": "Abu Zarad",
        "location": {
          "lat": 12.967,
          "lng": 35.85
        },
        "keyAccentLanguage": "abu_zarad"
      },
      {
        "code": 0,
        "type": "City",
        "enNameLanguage": "Balos",
        "location": {
          "lat": 13.375,
          "lng": 34.962
        },
        "keyAccentLanguage": "balos"
      },
      {
        "code": 0,
        "type": "City",
        "enNameLanguage": "`Abd ar Razzaq",
        "location": {
          "lat": 13.333,
          "lng": 34.75
        },
        "keyAccentLanguage": "`abd_ar_razzaq"
      },
      {
        "code": 0,
        "type": "City",
        "enNameLanguage": "Babikri",
        "location": {
          "lat": 12.995,
          "lng": 35.764
        },
        "keyAccentLanguage": "babikri"
      },
      {
        "code": 0,
        "type": "City",
        "enNameLanguage": "Husheib",
        "location": {
          "lat": 14.911,
          "lng": 35.125
        },
        "keyAccentLanguage": "husheib"
      },
      {
        "code": 0,
        "type": "City",
        "enNameLanguage": "Jazirat Fatimah",
        "location": {
          "lat": 13.35,
          "lng": 34.75
        },
        "keyAccentLanguage": "jazirat_fatimah"
      },
      {
        "code": 0,
        "type": "City",
        "enNameLanguage": "Conry",
        "location": {
          "lat": 13.85,
          "lng": 36.117
        },
        "keyAccentLanguage": "conry"
      },
      {
        "code": 0,
        "type": "City",
        "enNameLanguage": "Abu Qulut",
        "location": {
          "lat": 13.667,
          "lng": 35.9
        },
        "keyAccentLanguage": "abu_qulut"
      },
      {
        "code": 0,
        "type": "City",
        "enNameLanguage": "Al `Arid",
        "location": {
          "lat": 13.567,
          "lng": 34.817
        },
        "keyAccentLanguage": "al_`arid"
      },
      {
        "code": 0,
        "type": "City",
        "enNameLanguage": "Ad Dahhab",
        "location": {
          "lat": 13.9,
          "lng": 36.1
        },
        "keyAccentLanguage": "ad_dahhab"
      },
      {
        "code": 0,
        "type": "City",
        "enNameLanguage": "Shammam",
        "location": {
          "lat": 13.27,
          "lng": 34.812
        },
        "keyAccentLanguage": "shammam"
      },
      {
        "code": 0,
        "type": "City",
        "enNameLanguage": "El Buweida",
        "location": {
          "lat": 13.511,
          "lng": 34.966
        },
        "keyAccentLanguage": "el_buweida"
      },
      {
        "code": 0,
        "type": "City",
        "enNameLanguage": "Ghuraydiyat",
        "location": {
          "lat": 14.067,
          "lng": 35.467
        },
        "keyAccentLanguage": "ghuraydiyat"
      },
      {
        "code": 0,
        "type": "City",
        "enNameLanguage": "Heleyba",
        "location": {
          "lat": 14.004,
          "lng": 36.021
        },
        "keyAccentLanguage": "heleyba"
      },
      {
        "code": 0,
        "type": "City",
        "enNameLanguage": "Ad Darabi",
        "location": {
          "lat": 13.967,
          "lng": 36.067
        },
        "keyAccentLanguage": "ad_darabi"
      },
      {
        "code": 0,
        "type": "City",
        "enNameLanguage": "Abu Babun",
        "location": {
          "lat": 13.3,
          "lng": 34.733
        },
        "keyAccentLanguage": "abu_babun"
      },
      {
        "code": 0,
        "type": "City",
        "enNameLanguage": "Al Halimab",
        "location": {
          "lat": 13.717,
          "lng": 34.533
        },
        "keyAccentLanguage": "al_halimab"
      },
      {
        "code": 0,
        "type": "City",
        "enNameLanguage": "Basunda",
        "location": {
          "lat": 12.88,
          "lng": 35.808
        },
        "keyAccentLanguage": "basunda"
      },
      {
        "code": 0,
        "type": "City",
        "enNameLanguage": "Wad Kabu",
        "location": {
          "lat": 14.247,
          "lng": 35.51
        },
        "keyAccentLanguage": "wad_kabu"
      },
      {
        "code": 0,
        "type": "City",
        "enNameLanguage": "Muqatta",
        "location": {
          "lat": 14.66,
          "lng": 35.858
        },
        "keyAccentLanguage": "muqatta"
      },
      {
        "code": 0,
        "type": "City",
        "enNameLanguage": "`Abbudah",
        "location": {
          "lat": 14.333,
          "lng": 35.883
        },
        "keyAccentLanguage": "`abbudah"
      },
      {
        "code": 0,
        "type": "City",
        "enNameLanguage": "Ar Rawashidah",
        "location": {
          "lat": 14.18,
          "lng": 35.572
        },
        "keyAccentLanguage": "ar_rawashidah"
      },
      {
        "code": 0,
        "type": "City",
        "enNameLanguage": "Samsam",
        "location": {
          "lat": 13.283,
          "lng": 35.291
        },
        "keyAccentLanguage": "samsam"
      },
      {
        "code": 0,
        "type": "City",
        "enNameLanguage": "Jabal Qurayn",
        "location": {
          "lat": 13.533,
          "lng": 34.783
        },
        "keyAccentLanguage": "jabal_qurayn"
      },
      {
        "code": 0,
        "type": "City",
        "enNameLanguage": "Fallata",
        "location": {
          "lat": 12.735,
          "lng": 35.549
        },
        "keyAccentLanguage": "fallata"
      },
      {
        "code": 0,
        "type": "City",
        "enNameLanguage": "Karnekeila",
        "location": {
          "lat": 13,
          "lng": 35.917
        },
        "keyAccentLanguage": "karnekeila"
      },
      {
        "code": 0,
        "type": "City",
        "enNameLanguage": "El Mafaza",
        "location": {
          "lat": 13.652,
          "lng": 34.507
        },
        "keyAccentLanguage": "el_mafaza"
      },
      {
        "code": 0,
        "type": "City",
        "enNameLanguage": "Khashm Al Qirbah",
        "location": {
          "lat": 14.962,
          "lng": 35.909
        },
        "keyAccentLanguage": "khashm_al_qirbah"
      },
      {
        "code": 0,
        "type": "City",
        "enNameLanguage": "Al Agharr",
        "location": {
          "lat": 13.483,
          "lng": 34.95
        },
        "keyAccentLanguage": "al_agharr"
      },
      {
        "code": 0,
        "type": "City",
        "enNameLanguage": "Gallabat",
        "location": {
          "lat": 12.966,
          "lng": 36.132
        },
        "keyAccentLanguage": "gallabat"
      },
      {
        "code": 0,
        "type": "City",
        "enNameLanguage": "Heleiba",
        "location": {
          "lat": 14,
          "lng": 36.017
        },
        "keyAccentLanguage": "heleiba"
      },
      {
        "code": 0,
        "type": "City",
        "enNameLanguage": "Burbur",
        "location": {
          "lat": 13.45,
          "lng": 34.617
        },
        "keyAccentLanguage": "burbur"
      },
      {
        "code": 0,
        "type": "City",
        "enNameLanguage": "Hagokat",
        "location": {
          "lat": 14.15,
          "lng": 35.417
        },
        "keyAccentLanguage": "hagokat"
      },
      {
        "code": 0,
        "type": "City",
        "enNameLanguage": "Mayass",
        "location": {
          "lat": 13.767,
          "lng": 34.583
        },
        "keyAccentLanguage": "mayass"
      },
      {
        "code": 0,
        "type": "City",
        "enNameLanguage": "Tunaydibah",
        "location": {
          "lat": 13.758,
          "lng": 34.378
        },
        "keyAccentLanguage": "tunaydibah"
      },
      {
        "code": 0,
        "type": "City",
        "enNameLanguage": "Kassab",
        "location": {
          "lat": 13.833,
          "lng": 35.433
        },
        "keyAccentLanguage": "kassab"
      },
      {
        "code": 0,
        "type": "City",
        "enNameLanguage": "Harun",
        "location": {
          "lat": 13.967,
          "lng": 35.283
        },
        "keyAccentLanguage": "harun"
      },
      {
        "code": 0,
        "type": "City",
        "enNameLanguage": "Al Fazra",
        "location": {
          "lat": 12.719,
          "lng": 35.594
        },
        "keyAccentLanguage": "al_fazra"
      },
      {
        "code": 0,
        "type": "City",
        "enNameLanguage": "Gurab Ful",
        "location": {
          "lat": 13.967,
          "lng": 35.333
        },
        "keyAccentLanguage": "gurab_ful"
      },
      {
        "code": 0,
        "type": "City",
        "enNameLanguage": "Isagha",
        "location": {
          "lat": 14.242,
          "lng": 36.136
        },
        "keyAccentLanguage": "isagha"
      },
      {
        "code": 0,
        "type": "City",
        "enNameLanguage": "Karadis",
        "location": {
          "lat": 14.183,
          "lng": 35.35
        },
        "keyAccentLanguage": "karadis"
      },
      {
        "code": 0,
        "type": "City",
        "enNameLanguage": "Wad al Huri",
        "location": {
          "lat": 13.897,
          "lng": 35.23
        },
        "keyAccentLanguage": "wad_al_huri"
      },
      {
        "code": 0,
        "type": "City",
        "enNameLanguage": "Ateina",
        "location": {
          "lat": 14.1,
          "lng": 34.1
        },
        "keyAccentLanguage": "ateina"
      },
      {
        "code": 0,
        "type": "City",
        "enNameLanguage": "Al Qadarif",
        "location": {
          "lat": 14.044,
          "lng": 35.391
        },
        "keyAccentLanguage": "al_qadarif"
      },
      {
        "code": 0,
        "type": "City",
        "enNameLanguage": "Dar `Agabna",
        "location": {
          "lat": 13.433,
          "lng": 34.433
        },
        "keyAccentLanguage": "dar_`agabna"
      },
      {
        "code": 0,
        "type": "City",
        "enNameLanguage": "Suki",
        "location": {
          "lat": 14.415,
          "lng": 34.698
        },
        "keyAccentLanguage": "suki"
      },
      {
        "code": 0,
        "type": "City",
        "enNameLanguage": "Tomat",
        "location": {
          "lat": 14.3,
          "lng": 35.845
        },
        "keyAccentLanguage": "tomat"
      },
      {
        "code": 0,
        "type": "City",
        "enNameLanguage": "Gua",
        "location": {
          "lat": 13.483,
          "lng": 34.517
        },
        "keyAccentLanguage": "gua"
      },
      {
        "code": 0,
        "type": "City",
        "enNameLanguage": "Humrah",
        "location": {
          "lat": 13.633,
          "lng": 35.567
        },
        "keyAccentLanguage": "humrah"
      },
      {
        "code": 0,
        "type": "City",
        "enNameLanguage": "Baqbaqah",
        "location": {
          "lat": 13.967,
          "lng": 36.05
        },
        "keyAccentLanguage": "baqbaqah"
      },
      {
        "code": 0,
        "type": "City",
        "enNameLanguage": "Hajj at Tahir",
        "location": {
          "lat": 13.317,
          "lng": 34.75
        },
        "keyAccentLanguage": "hajj_at_tahir"
      },
      {
        "code": 0,
        "type": "City",
        "enNameLanguage": "Hayafa",
        "location": {
          "lat": 12.933,
          "lng": 35.883
        },
        "keyAccentLanguage": "hayafa"
      },
      {
        "code": 0,
        "type": "City",
        "enNameLanguage": "Fadal",
        "location": {
          "lat": 13.95,
          "lng": 35.317
        },
        "keyAccentLanguage": "fadal"
      },
      {
        "code": 0,
        "type": "City",
        "enNameLanguage": "Hamid as Sufi",
        "location": {
          "lat": 14.217,
          "lng": 35.9
        },
        "keyAccentLanguage": "hamid_as_sufi"
      },
      {
        "code": 0,
        "type": "City",
        "enNameLanguage": "Qala En Nahl",
        "location": {
          "lat": 13.633,
          "lng": 34.95
        },
        "keyAccentLanguage": "qala_en_nahl"
      },
      {
        "code": 0,
        "type": "City",
        "enNameLanguage": "Hukumah",
        "location": {
          "lat": 13.867,
          "lng": 36.117
        },
        "keyAccentLanguage": "hukumah"
      },
      {
        "code": 0,
        "type": "City",
        "enNameLanguage": "Matna",
        "location": {
          "lat": 13.796,
          "lng": 35.059
        },
        "keyAccentLanguage": "matna"
      },
      {
        "code": 0,
        "type": "City",
        "enNameLanguage": "El Fau",
        "location": {
          "lat": 14.09,
          "lng": 34.393
        },
        "keyAccentLanguage": "el_fau"
      },
      {
        "code": 0,
        "type": "City",
        "enNameLanguage": "Ayn al Luwayqah",
        "location": {
          "lat": 14.199,
          "lng": 33.951
        },
        "keyAccentLanguage": "ayn_al_luwayqah"
      },
      {
        "code": 0,
        "type": "City",
        "enNameLanguage": "Doka",
        "location": {
          "lat": 13.525,
          "lng": 35.762
        },
        "keyAccentLanguage": "doka"
      },
      {
        "code": 0,
        "type": "City",
        "enNameLanguage": "Geliem",
        "location": {
          "lat": 13.95,
          "lng": 35.333
        },
        "keyAccentLanguage": "geliem"
      },
      {
        "code": 0,
        "type": "City",
        "enNameLanguage": "Gabub",
        "location": {
          "lat": 14.017,
          "lng": 35.783
        },
        "keyAccentLanguage": "gabub"
      },
      {
        "code": 0,
        "type": "City",
        "enNameLanguage": "Fadl as Sid",
        "location": {
          "lat": 13.8,
          "lng": 35.7
        },
        "keyAccentLanguage": "fadl_as_sid"
      },
      {
        "code": 0,
        "type": "City",
        "enNameLanguage": "Abu Raydah",
        "location": {
          "lat": 14.267,
          "lng": 35.883
        },
        "keyAccentLanguage": "abu_raydah"
      },
      {
        "code": 0,
        "type": "City",
        "enNameLanguage": "Hajj as Sid",
        "location": {
          "lat": 14.067,
          "lng": 34.117
        },
        "keyAccentLanguage": "hajj_as_sid"
      },
      {
        "code": 0,
        "type": "City",
        "enNameLanguage": "`Azazah",
        "location": {
          "lat": 14.133,
          "lng": 35.3
        },
        "keyAccentLanguage": "`azazah"
      },
      {
        "code": 0,
        "type": "City",
        "enNameLanguage": "Ghurayqanah",
        "location": {
          "lat": 13.45,
          "lng": 34.483
        },
        "keyAccentLanguage": "ghurayqanah"
      },
      {
        "code": 0,
        "type": "City",
        "enNameLanguage": "Kuraydah",
        "location": {
          "lat": 14.117,
          "lng": 35.933
        },
        "keyAccentLanguage": "kuraydah"
      },
      {
        "code": 0,
        "type": "City",
        "enNameLanguage": "Abu Rumaylah",
        "location": {
          "lat": 13.517,
          "lng": 35.4
        },
        "keyAccentLanguage": "abu_rumaylah"
      },
      {
        "code": 0,
        "type": "City",
        "enNameLanguage": "Kumur Hajj as Sayyid",
        "location": {
          "lat": 13.983,
          "lng": 34.017
        },
        "keyAccentLanguage": "kumur_hajj_as_sayyid"
      },
      {
        "code": 0,
        "type": "City",
        "enNameLanguage": "Fatah al Bab",
        "location": {
          "lat": 12.933,
          "lng": 36.083
        },
        "keyAccentLanguage": "fatah_al_bab"
      },
      {
        "code": 0,
        "type": "City",
        "enNameLanguage": "At Tumsah",
        "location": {
          "lat": 12.709,
          "lng": 35.602
        },
        "keyAccentLanguage": "at_tumsah"
      },
      {
        "code": 0,
        "type": "City",
        "enNameLanguage": "Malek",
        "location": {
          "lat": 13.633,
          "lng": 34.55
        },
        "keyAccentLanguage": "malek"
      },
      {
        "code": 0,
        "type": "City",
        "enNameLanguage": "Kakum",
        "location": {
          "lat": 13.617,
          "lng": 35.95
        },
        "keyAccentLanguage": "kakum"
      },
      {
        "code": 0,
        "type": "City",
        "enNameLanguage": "Kunaynah",
        "location": {
          "lat": 13.083,
          "lng": 36.033
        },
        "keyAccentLanguage": "kunaynah"
      },
      {
        "code": 0,
        "type": "City",
        "enNameLanguage": "`Amarat al Khalifah",
        "location": {
          "lat": 13.4,
          "lng": 34.667
        },
        "keyAccentLanguage": "`amarat_al_khalifah"
      },
      {
        "code": 0,
        "type": "City",
        "enNameLanguage": "Sufi",
        "location": {
          "lat": 14.183,
          "lng": 35.899
        },
        "keyAccentLanguage": "sufi"
      },
      {
        "code": 0,
        "type": "City",
        "enNameLanguage": "`Aradeiba",
        "location": {
          "lat": 14.367,
          "lng": 35.867
        },
        "keyAccentLanguage": "`aradeiba"
      },
      {
        "code": 0,
        "type": "City",
        "enNameLanguage": "Rumeila",
        "location": {
          "lat": 12.947,
          "lng": 35.041
        },
        "keyAccentLanguage": "rumeila"
      },
      {
        "code": 0,
        "type": "City",
        "enNameLanguage": "Maliha",
        "location": {
          "lat": 13.079,
          "lng": 35.88
        },
        "keyAccentLanguage": "maliha"
      },
      {
        "code": 0,
        "type": "City",
        "enNameLanguage": "Al Jaza'ir",
        "location": {
          "lat": 14.038,
          "lng": 36
        },
        "keyAccentLanguage": "al_jaza'ir"
      },
      {
        "code": 0,
        "type": "City",
        "enNameLanguage": "`Aradeib",
        "location": {
          "lat": 14.083,
          "lng": 35.95
        },
        "keyAccentLanguage": "`aradeib"
      },
      {
        "code": 0,
        "type": "City",
        "enNameLanguage": "Khayr As Sid",
        "location": {
          "lat": 14.131,
          "lng": 34.132
        },
        "keyAccentLanguage": "khayr_as_sid"
      },
      {
        "code": 0,
        "type": "City",
        "enNameLanguage": "Ban",
        "location": {
          "lat": 13.417,
          "lng": 34.917
        },
        "keyAccentLanguage": "ban"
      },
      {
        "code": 0,
        "type": "City",
        "enNameLanguage": "Kandawa",
        "location": {
          "lat": 13.917,
          "lng": 35.367
        },
        "keyAccentLanguage": "kandawa"
      },
      {
        "code": 0,
        "type": "City",
        "enNameLanguage": "Umshidara",
        "location": {
          "lat": 14.106,
          "lng": 35.471
        },
        "keyAccentLanguage": "umshidara"
      },
      {
        "code": 0,
        "type": "City",
        "enNameLanguage": "Al Khartah",
        "location": {
          "lat": 14.167,
          "lng": 35.767
        },
        "keyAccentLanguage": "al_khartah"
      }
    ],
    "enNameLanguage": "Gedaref",
    "keyAccentLanguage": "gedaref"
  },
  {
    "code": 0,
    "type": "State",
    "location": {
      "lat": 0,
      "lng": 0
    },
    "districtList": [
      {
        "code": 0,
        "type": "City",
        "enNameLanguage": "Abu Sham",
        "location": {
          "lat": 15.07,
          "lng": 33.498
        },
        "keyAccentLanguage": "abu_sham"
      },
      {
        "code": 0,
        "type": "City",
        "enNameLanguage": "`Abd Allah Na'imah",
        "location": {
          "lat": 13.917,
          "lng": 32.883
        },
        "keyAccentLanguage": "`abd_allah_na'imah"
      },
      {
        "code": 0,
        "type": "City",
        "enNameLanguage": "`Abbas `Abd Allah",
        "location": {
          "lat": 14.033,
          "lng": 33.317
        },
        "keyAccentLanguage": "`abbas_`abd_allah"
      },
      {
        "code": 0,
        "type": "City",
        "enNameLanguage": "`Abd al Fadil",
        "location": {
          "lat": 14.083,
          "lng": 33.783
        },
        "keyAccentLanguage": "`abd_al_fadil"
      },
      {
        "code": 0,
        "type": "City",
        "enNameLanguage": "`Uthman Farah",
        "location": {
          "lat": 14.614,
          "lng": 32.901
        },
        "keyAccentLanguage": "`uthman_farah"
      },
      {
        "code": 0,
        "type": "City",
        "enNameLanguage": "`Utaysh",
        "location": {
          "lat": 14.333,
          "lng": 33.033
        },
        "keyAccentLanguage": "`utaysh"
      },
      {
        "code": 0,
        "type": "City",
        "enNameLanguage": "`Adar",
        "location": {
          "lat": 14.542,
          "lng": 32.695
        },
        "keyAccentLanguage": "`adar"
      },
      {
        "code": 0,
        "type": "City",
        "enNameLanguage": "`Abd el Qadir",
        "location": {
          "lat": 15.081,
          "lng": 33.481
        },
        "keyAccentLanguage": "`abd_el_qadir"
      },
      {
        "code": 0,
        "type": "City",
        "enNameLanguage": "`Abd al Hafiz",
        "location": {
          "lat": 14.35,
          "lng": 33.417
        },
        "keyAccentLanguage": "`abd_al_hafiz"
      },
      {
        "code": 0,
        "type": "City",
        "enNameLanguage": "Kereimet",
        "location": {
          "lat": 14.349,
          "lng": 32.949
        },
        "keyAccentLanguage": "kereimet"
      },
      {
        "code": 0,
        "type": "City",
        "enNameLanguage": "`Abd ad Da'im",
        "location": {
          "lat": 14.35,
          "lng": 33.45
        },
        "keyAccentLanguage": "`abd_ad_da'im"
      },
      {
        "code": 0,
        "type": "City",
        "enNameLanguage": "`Abd ar Rasul",
        "location": {
          "lat": 14.283,
          "lng": 32.6
        },
        "keyAccentLanguage": "`abd_ar_rasul"
      },
      {
        "code": 0,
        "type": "City",
        "enNameLanguage": "`Abd Allah Kahli",
        "location": {
          "lat": 14.917,
          "lng": 32.817
        },
        "keyAccentLanguage": "`abd_allah_kahli"
      },
      {
        "code": 0,
        "type": "City",
        "enNameLanguage": "`Aj Jan",
        "location": {
          "lat": 14.805,
          "lng": 32.968
        },
        "keyAccentLanguage": "`aj_jan"
      },
      {
        "code": 0,
        "type": "City",
        "enNameLanguage": "Al Kamilin",
        "location": {
          "lat": 15.083,
          "lng": 33.183
        },
        "keyAccentLanguage": "al_kamilin"
      },
      {
        "code": 0,
        "type": "City",
        "enNameLanguage": "Umm Talha",
        "location": {
          "lat": 14.08,
          "lng": 32.956
        },
        "keyAccentLanguage": "umm_talha"
      },
      {
        "code": 0,
        "type": "City",
        "enNameLanguage": "`Ayn al Luwayqah",
        "location": {
          "lat": 14.167,
          "lng": 33.917
        },
        "keyAccentLanguage": "`ayn_al_luwayqah"
      },
      {
        "code": 0,
        "type": "City",
        "enNameLanguage": "`Abd Allah",
        "location": {
          "lat": 14.483,
          "lng": 33.667
        },
        "keyAccentLanguage": "`abd_allah"
      },
      {
        "code": 0,
        "type": "City",
        "enNameLanguage": "`Abd ar Rahman",
        "location": {
          "lat": 14.567,
          "lng": 33.25
        },
        "keyAccentLanguage": "`abd_ar_rahman"
      },
      {
        "code": 0,
        "type": "City",
        "enNameLanguage": "`Abd an Nab",
        "location": {
          "lat": 14.467,
          "lng": 32.9
        },
        "keyAccentLanguage": "`abd_an_nab"
      },
      {
        "code": 0,
        "type": "City",
        "enNameLanguage": "`Abd al Jalil",
        "location": {
          "lat": 14.533,
          "lng": 33.35
        },
        "keyAccentLanguage": "`abd_al_jalil"
      },
      {
        "code": 0,
        "type": "City",
        "enNameLanguage": "`Utayshah",
        "location": {
          "lat": 14.283,
          "lng": 33.15
        },
        "keyAccentLanguage": "`utayshah"
      },
      {
        "code": 0,
        "type": "City",
        "enNameLanguage": "`Ufaynah",
        "location": {
          "lat": 14.367,
          "lng": 33.2
        },
        "keyAccentLanguage": "`ufaynah"
      },
      {
        "code": 0,
        "type": "City",
        "enNameLanguage": "`Adlan Godat",
        "location": {
          "lat": 14.85,
          "lng": 33.65
        },
        "keyAccentLanguage": "`adlan_godat"
      },
      {
        "code": 0,
        "type": "City",
        "enNameLanguage": "Abu Rus",
        "location": {
          "lat": 15.068,
          "lng": 33.121
        },
        "keyAccentLanguage": "abu_rus"
      },
      {
        "code": 0,
        "type": "City",
        "enNameLanguage": "Al Uqdah",
        "location": {
          "lat": 14.603,
          "lng": 32.918
        },
        "keyAccentLanguage": "al_uqdah"
      },
      {
        "code": 0,
        "type": "City",
        "enNameLanguage": "`Awaida",
        "location": {
          "lat": 14.7,
          "lng": 33.433
        },
        "keyAccentLanguage": "`awaida"
      },
      {
        "code": 0,
        "type": "City",
        "enNameLanguage": "Abu Dab",
        "location": {
          "lat": 14.9,
          "lng": 33.45
        },
        "keyAccentLanguage": "abu_dab"
      },
      {
        "code": 0,
        "type": "City",
        "enNameLanguage": "Hajj Abd Allah",
        "location": {
          "lat": 13.96,
          "lng": 33.595
        },
        "keyAccentLanguage": "hajj_abd_allah"
      },
      {
        "code": 0,
        "type": "City",
        "enNameLanguage": "Abu Khamsin",
        "location": {
          "lat": 14.55,
          "lng": 33.717
        },
        "keyAccentLanguage": "abu_khamsin"
      },
      {
        "code": 0,
        "type": "City",
        "enNameLanguage": "`Azazab",
        "location": {
          "lat": 14.017,
          "lng": 32.717
        },
        "keyAccentLanguage": "`azazab"
      },
      {
        "code": 0,
        "type": "City",
        "enNameLanguage": "`Awadiyah",
        "location": {
          "lat": 14.35,
          "lng": 33.65
        },
        "keyAccentLanguage": "`awadiyah"
      },
      {
        "code": 0,
        "type": "City",
        "enNameLanguage": "Abeikli",
        "location": {
          "lat": 14.333,
          "lng": 33.467
        },
        "keyAccentLanguage": "abeikli"
      },
      {
        "code": 0,
        "type": "City",
        "enNameLanguage": "Matuq",
        "location": {
          "lat": 14.18,
          "lng": 32.584
        },
        "keyAccentLanguage": "matuq"
      },
      {
        "code": 0,
        "type": "City",
        "enNameLanguage": "Hammurab",
        "location": {
          "lat": 15.019,
          "lng": 33.641
        },
        "keyAccentLanguage": "hammurab"
      },
      {
        "code": 0,
        "type": "City",
        "enNameLanguage": "`Urayqah",
        "location": {
          "lat": 14.533,
          "lng": 32.783
        },
        "keyAccentLanguage": "`urayqah"
      },
      {
        "code": 0,
        "type": "City",
        "enNameLanguage": "Abu Haraz",
        "location": {
          "lat": 14.583,
          "lng": 33.496
        },
        "keyAccentLanguage": "abu_haraz"
      },
      {
        "code": 0,
        "type": "City",
        "enNameLanguage": "Rufaa",
        "location": {
          "lat": 14.758,
          "lng": 33.367
        },
        "keyAccentLanguage": "rufaa"
      },
      {
        "code": 0,
        "type": "City",
        "enNameLanguage": "Abu Dhaqn",
        "location": {
          "lat": 14.433,
          "lng": 33.033
        },
        "keyAccentLanguage": "abu_dhaqn"
      },
      {
        "code": 0,
        "type": "City",
        "enNameLanguage": "`Abd al Ghani",
        "location": {
          "lat": 14.217,
          "lng": 33.25
        },
        "keyAccentLanguage": "`abd_al_ghani"
      },
      {
        "code": 0,
        "type": "City",
        "enNameLanguage": "Meheiriba",
        "location": {
          "lat": 14.833,
          "lng": 33.017
        },
        "keyAccentLanguage": "meheiriba"
      },
      {
        "code": 0,
        "type": "City",
        "enNameLanguage": "`Abd as Sadiq",
        "location": {
          "lat": 14.433,
          "lng": 32.517
        },
        "keyAccentLanguage": "`abd_as_sadiq"
      },
      {
        "code": 0,
        "type": "City",
        "enNameLanguage": "Abu `Ushar",
        "location": {
          "lat": 14.917,
          "lng": 33.183
        },
        "keyAccentLanguage": "abu_`ushar"
      },
      {
        "code": 0,
        "type": "City",
        "enNameLanguage": "Al Madinah",
        "location": {
          "lat": 14.367,
          "lng": 33.317
        },
        "keyAccentLanguage": "al_madinah"
      },
      {
        "code": 0,
        "type": "City",
        "enNameLanguage": "Fakhakhir",
        "location": {
          "lat": 14.285,
          "lng": 32.775
        },
        "keyAccentLanguage": "fakhakhir"
      },
      {
        "code": 0,
        "type": "City",
        "enNameLanguage": "Abu Dabarah",
        "location": {
          "lat": 14.267,
          "lng": 33.383
        },
        "keyAccentLanguage": "abu_dabarah"
      },
      {
        "code": 0,
        "type": "City",
        "enNameLanguage": "Kasambar",
        "location": {
          "lat": 15.106,
          "lng": 33.169
        },
        "keyAccentLanguage": "kasambar"
      },
      {
        "code": 0,
        "type": "City",
        "enNameLanguage": "Abu `Awn",
        "location": {
          "lat": 14.15,
          "lng": 32.8
        },
        "keyAccentLanguage": "abu_`awn"
      },
      {
        "code": 0,
        "type": "City",
        "enNameLanguage": "`Abd Al Majid",
        "location": {
          "lat": 14.983,
          "lng": 32.821
        },
        "keyAccentLanguage": "`abd_al_majid"
      },
      {
        "code": 0,
        "type": "City",
        "enNameLanguage": "Abu Horira",
        "location": {
          "lat": 15.183,
          "lng": 33.5
        },
        "keyAccentLanguage": "abu_horira"
      },
      {
        "code": 0,
        "type": "City",
        "enNameLanguage": "`Amarat an Nefeidiya",
        "location": {
          "lat": 14.15,
          "lng": 33.767
        },