[
  {
    "code": 0,
    "type": "State",
    "location": {
      "lat": 13.4548761,
      "lng": -16.5790323
    },
    "districtList": [
      {
        "code": 0,
        "type": "City",
        "enNameLanguage": "Ibo Town",
        "location": {
          "lat": 13.454375,
          "lng": -16.5753186
        },
        "keyAccentLanguage": "ibo_town"
      },
      {
        "code": 0,
        "type": "City",
        "enNameLanguage": "Kanifing Industrial Estate",
        "location": {
          "lat": 13.454375,
          "lng": -16.5753186
        },
        "keyAccentLanguage": "kanifing_industrial_estate"
      },
      {
        "code": 0,
        "type": "City",
        "enNameLanguage": "Ampaya",
        "location": {
          "lat": 13.454375,
          "lng": -16.5753186
        },
        "keyAccentLanguage": "ampaya"
      },
      {
        "code": 0,
        "type": "City",
        "enNameLanguage": "Kotu",
        "location": {
          "lat": 13.454375,
          "lng": -16.5753186
        },
        "keyAccentLanguage": "kotu"
      },
      {
        "code": 0,
        "type": "City",
        "enNameLanguage": "Dippa Kunda",
        "location": {
          "lat": 13.441526,
          "lng": -16.6801449
        },
        "keyAccentLanguage": "dippa_kunda"
      },
      {
        "code": 0,
        "type": "City",
        "enNameLanguage": "Talinding Kunjang",
        "location": {
          "lat": 13.454375,
          "lng": -16.5753186
        },
        "keyAccentLanguage": "talinding_kunjang"
      },
      {
        "code": 0,
        "type": "City",
        "enNameLanguage": "Banjul",
        "location": {
          "lat": 13.454375,
          "lng": -16.5753186
        },
        "keyAccentLanguage": "banjul"
      },
      {
        "code": 0,
        "type": "City",
        "enNameLanguage": "Bakote",
        "location": {
          "lat": 13.454375,
          "lng": -16.5753186
        },
        "keyAccentLanguage": "bakote"
      },
      {
        "code": 0,
        "type": "City",
        "enNameLanguage": "Bakau",
        "location": {
          "lat": 13.4807414,
          "lng": -16.6698337
        },
        "keyAccentLanguage": "bakau"
      },
      {
        "code": 0,
        "type": "City",
        "enNameLanguage": "Manjai Kunda",
        "location": {
          "lat": 13.4443386,
          "lng": -16.6976835
        },
        "keyAccentLanguage": "manjai_kunda"
      },
      {
        "code": 0,
        "type": "City",
        "enNameLanguage": "Sabigending",
        "location": {
          "lat": 13.454375,
          "lng": -16.5753186
        },
        "keyAccentLanguage": "sabigending"
      },
      {
        "code": 0,
        "type": "City",
        "enNameLanguage": "Bakau Kunku",
        "location": {
          "lat": 13.4807414,
          "lng": -16.6698337
        },
        "keyAccentLanguage": "bakau_kunku"
      },
      {
        "code": 0,
        "type": "City",
        "enNameLanguage": "Bakau NDing",
        "location": {
          "lat": 13.4807414,
          "lng": -16.6698337
        },
        "keyAccentLanguage": "bakau_nding"
      },
      {
        "code": 0,
        "type": "City",
        "enNameLanguage": "Fajara",
        "location": {
          "lat": 13.454375,
          "lng": -16.5753186
        },
        "keyAccentLanguage": "fajara"
      },
      {
        "code": 0,
        "type": "City",
        "enNameLanguage": "Sara Job Kunda",
        "location": {
          "lat": 13.454375,
          "lng": -16.5753186
        },
        "keyAccentLanguage": "sara_job_kunda"
      },
      {
        "code": 0,
        "type": "City",
        "enNameLanguage": "Old Jeswang",
        "location": {
          "lat": 13.4587956,
          "lng": -16.6607663
        },
        "keyAccentLanguage": "old_jeswang"
      },
      {
        "code": 0,
        "type": "City",
        "enNameLanguage": "Bununka Kunda",
        "location": {
          "lat": 13.4244066,
          "lng": -16.6794732
        },
        "keyAccentLanguage": "bununka_kunda"
      },
      {
        "code": 0,
        "type": "City",
        "enNameLanguage": "Sere Kunda",
        "location": {
          "lat": 13.4369838,
          "lng": -16.6812161
        },
        "keyAccentLanguage": "sere_kunda"
      },
      {
        "code": 0,
        "type": "City",
        "enNameLanguage": "Latri Kunda",
        "location": {
          "lat": 13.4477862,
          "lng": -16.6820854
        },
        "keyAccentLanguage": "latri_kunda"
      },
      {
        "code": 0,
        "type": "City",
        "enNameLanguage": "Kanifing",
        "location": {
          "lat": 13.454375,
          "lng": -16.5753186
        },
        "keyAccentLanguage": "kanifing"
      }
    ],
    "enNameLanguage": "Banjul",
    "keyAccentLanguage": "banjul"
  },
  {
    "code": 0,
    "type": "State",
    "location": {
      "lat": 13.5994469,
      "lng": -14.8921668
    },
    "districtList": [
      {
        "code": 0,
        "type": "City",
        "enNameLanguage": "Abeokuta",
        "location": {
          "lat": 7.147502,
          "lng": 3.3619356
        },
        "keyAccentLanguage": "abeokuta"
      },
      {
        "code": 0,
        "type": "City",
        "enNameLanguage": "Bamba Jallow",
        "location": {
          "lat": 13.56661,
          "lng": -15.32211
        },
        "keyAccentLanguage": "bamba_jallow"
      },
      {
        "code": 0,
        "type": "City",
        "enNameLanguage": "Bambako Kura",
        "location": {
          "lat": 13.404381,
          "lng": -15.766164
        },
        "keyAccentLanguage": "bambako_kura"
      },
      {
        "code": 0,
        "type": "City",
        "enNameLanguage": "Bakadaji Kunda",
        "location": {
          "lat": 13.65,
          "lng": -14.833333
        },
        "keyAccentLanguage": "bakadaji_kunda"
      },
      {
        "code": 0,
        "type": "City",
        "enNameLanguage": "Alla Tenta",
        "location": {
          "lat": 13.5994469,
          "lng": -14.8921668
        },
        "keyAccentLanguage": "alla_tenta"
      },
      {
        "code": 0,
        "type": "City",
        "enNameLanguage": "Babou Jobe",
        "location": {
          "lat": 13.5957847,
          "lng": -15.2940941
        },
        "keyAccentLanguage": "babou_jobe"
      },
      {
        "code": 0,
        "type": "City",
        "enNameLanguage": "Bantanto Jawara Jallow",
        "location": {
          "lat": 13.5934117,
          "lng": -15.1569629
        },
        "keyAccentLanguage": "bantanto_jawara_jallow"
      },
      {
        "code": 0,
        "type": "City",
        "enNameLanguage": "Barajali Tenda",
        "location": {
          "lat": 13.598878,
          "lng": -14.947733
        },
        "keyAccentLanguage": "barajali_tenda"
      },
      {
        "code": 0,
        "type": "City",
        "enNameLanguage": "Ahalulie",
        "location": {
          "lat": 13.465742,
          "lng": -14.91017
        },
        "keyAccentLanguage": "ahalulie"
      },
      {
        "code": 0,
        "type": "City",
        "enNameLanguage": "Bantanto Musa Bah",
        "location": {
          "lat": 13.5934117,
          "lng": -15.1569629
        },
        "keyAccentLanguage": "bantanto_musa_bah"
      },
      {
        "code": 0,
        "type": "City",
        "enNameLanguage": "Bati Hai",
        "location": {
          "lat": 13.696706,
          "lng": -15.205832
        },
        "keyAccentLanguage": "bati_hai"
      },
      {
        "code": 0,
        "type": "City",
        "enNameLanguage": "Barajali",
        "location": {
          "lat": 13.598878,
          "lng": -14.947733
        },
        "keyAccentLanguage": "barajali"
      },
      {
        "code": 0,
        "type": "City",
        "enNameLanguage": "Bantanto Ker Daburi",
        "location": {
          "lat": 13.5934117,
          "lng": -15.1569629
        },
        "keyAccentLanguage": "bantanto_ker_daburi"
      },
      {
        "code": 0,
        "type": "City",
        "enNameLanguage": "Brikama Nding",
        "location": {
          "lat": 13.2747943,
          "lng": -16.6409198
        },
        "keyAccentLanguage": "brikama_nding"
      },
      {
        "code": 0,
        "type": "City",
        "enNameLanguage": "Cha Kunda",
        "location": {
          "lat": 13.38298,
          "lng": -14.53607
        },
        "keyAccentLanguage": "cha_kunda"
      },
      {
        "code": 0,
        "type": "City",
        "enNameLanguage": "Bantanto Ker Olai",
        "location": {
          "lat": 13.5934117,
          "lng": -15.1569629
        },
        "keyAccentLanguage": "bantanto_ker_olai"
      },
      {
        "code": 0,
        "type": "City",
        "enNameLanguage": "Bati Yungo",
        "location": {
          "lat": 13.716899,
          "lng": -15.195678
        },
        "keyAccentLanguage": "bati_yungo"
      },
      {
        "code": 0,
        "type": "City",
        "enNameLanguage": "Kuntaur",
        "location": {
          "lat": 13.6707177,
          "lng": -14.8899772
        },
        "keyAccentLanguage": "kuntaur"
      },
      {
        "code": 0,
        "type": "City",
        "enNameLanguage": "Denton",
        "location": {
          "lat": 33.2165858,
          "lng": -97.13241049999999
        },
        "keyAccentLanguage": "denton"
      },
      {
        "code": 0,
        "type": "City",
        "enNameLanguage": "Bantanto",
        "location": {
          "lat": 13.5934117,
          "lng": -15.1569629
        },
        "keyAccentLanguage": "bantanto"
      },
      {
        "code": 0,
        "type": "City",
        "enNameLanguage": "Bantanto Ker Ebrima Kah",
        "location": {
          "lat": 13.5934117,
          "lng": -15.1569629
        },
        "keyAccentLanguage": "bantanto_ker_ebrima_kah"
      },
      {
        "code": 0,
        "type": "City",
        "enNameLanguage": "Bantanto Ker Samba Olo",
        "location": {
          "lat": 13.75,
          "lng": -15.05
        },
        "keyAccentLanguage": "bantanto_ker_samba_olo"
      },
      {
        "code": 0,
        "type": "City",
        "enNameLanguage": "Bati Jaha",
        "location": {
          "lat": 13.5994469,
          "lng": -14.8921668
        },
        "keyAccentLanguage": "bati_jaha"
      },
      {
        "code": 0,
        "type": "City",
        "enNameLanguage": "Janjanbureh",
        "location": {
          "lat": 13.5336211,
          "lng": -14.7695962
        },
        "keyAccentLanguage": "janjanbureh"
      },
      {
        "code": 0,
        "type": "City",
        "enNameLanguage": "Njau",
        "location": {
          "lat": 13.7474461,
          "lng": -15.2092423
        },
        "keyAccentLanguage": "njau"
      },
      {
        "code": 0,
        "type": "City",
        "enNameLanguage": "Bansang",
        "location": {
          "lat": 13.4347156,
          "lng": -14.6573246
        },
        "keyAccentLanguage": "bansang"
      },
      {
        "code": 0,
        "type": "City",
        "enNameLanguage": "Jessadi",
        "location": {
          "lat": 13.6370431,
          "lng": -15.2977525
        },
        "keyAccentLanguage": "jessadi"
      },
      {
        "code": 0,
        "type": "City",
        "enNameLanguage": "Dalaba",
        "location": {
          "lat": 13.5939589,
          "lng": -15.2161898
        },
        "keyAccentLanguage": "dalaba"
      },
      {
        "code": 0,
        "type": "City",
        "enNameLanguage": "Bantanto Ker Daburie",
        "location": {
          "lat": 13.5934117,
          "lng": -15.1569629
        },
        "keyAccentLanguage": "bantanto_ker_daburie"
      },
      {
        "code": 0,
        "type": "City",
        "enNameLanguage": "Daru",
        "location": {
          "lat": 13.5994469,
          "lng": -14.8921668
        },
        "keyAccentLanguage": "daru"
      },
      {
        "code": 0,
        "type": "City",
        "enNameLanguage": "Boraba",
        "location": {
          "lat": 13.504612,
          "lng": -14.740383
        },
        "keyAccentLanguage": "boraba"
      },
      {
        "code": 0,
        "type": "City",
        "enNameLanguage": "Demba Kali",
        "location": {
          "lat": 13.5994469,
          "lng": -14.8921668
        },
        "keyAccentLanguage": "demba_kali"
      },
      {
        "code": 0,
        "type": "City",
        "enNameLanguage": "Daro",
        "location": {
          "lat": 13.5994469,
          "lng": -14.8921668
        },
        "keyAccentLanguage": "daro"
      },
      {
        "code": 0,
        "type": "City",
        "enNameLanguage": "Brikama Ba",
        "location": {
          "lat": 13.5365174,
          "lng": -14.9315847
        },
        "keyAccentLanguage": "brikama_ba"
      },
      {
        "code": 0,
        "type": "City",
        "enNameLanguage": "Balanghar Njoben",
        "location": {
          "lat": 20.7011108,
          "lng": 83.4846069
        },
        "keyAccentLanguage": "balanghar_njoben"
      },
      {
        "code": 0,
        "type": "City",
        "enNameLanguage": "Sare Sofi",
        "location": {
          "lat": 13.417017,
          "lng": -14.517399
        },
        "keyAccentLanguage": "sare_sofi"
      },
      {
        "code": 0,
        "type": "City",
        "enNameLanguage": "Choyen",
        "location": {
          "lat": 13.6506,
          "lng": -15.420782
        },
        "keyAccentLanguage": "choyen"
      },
      {
        "code": 0,
        "type": "City",
        "enNameLanguage": "Carrols Wharf",
        "location": {
          "lat": 13.5994469,
          "lng": -14.8921668
        },
        "keyAccentLanguage": "carrols_wharf"
      },
      {
        "code": 0,
        "type": "City",
        "enNameLanguage": "Balanghar Ker N'Derry",
        "location": {
          "lat": 13.661382,
          "lng": -15.399388
        },
        "keyAccentLanguage": "balanghar_ker_n'derry"
      },
      {
        "code": 0,
        "type": "City",
        "enNameLanguage": "Choya",
        "location": {
          "lat": 13.5565206,
          "lng": -15.247274
        },
        "keyAccentLanguage": "choya"
      },
      {
        "code": 0,
        "type": "City",
        "enNameLanguage": "Chamen Baka",
        "location": {
          "lat": 13.7120655,
          "lng": -15.3876286
        },
        "keyAccentLanguage": "chamen_baka"
      },
      {
        "code": 0,
        "type": "City",
        "enNameLanguage": "Dasilame",
        "location": {
          "lat": 13.4760868,
          "lng": -15.2297199
        },
        "keyAccentLanguage": "dasilame"
      },
      {
        "code": 0,
        "type": "City",
        "enNameLanguage": "Cheken",
        "location": {
          "lat": 13.598721,
          "lng": -15.08689
        },
        "keyAccentLanguage": "cheken"
      },
      {
        "code": 0,
        "type": "City",
        "enNameLanguage": "Buduk",
        "location": {
          "lat": -8.6061166,
          "lng": 115.1563072
        },
        "keyAccentLanguage": "buduk"
      },
      {
        "code": 0,
        "type": "City",
        "enNameLanguage": "Kudang",
        "location": {
          "lat": 13.66379,
          "lng": -15.0601252
        },
        "keyAccentLanguage": "kudang"
      },
      {
        "code": 0,
        "type": "City",
        "enNameLanguage": "Darusalam",
        "location": {
          "lat": 13.6661412,
          "lng": -15.4004048
        },
        "keyAccentLanguage": "darusalam"
      },
      {
        "code": 0,
        "type": "City",
        "enNameLanguage": "Bahdad",
        "location": {
          "lat": 13.616667,
          "lng": -15.1
        },
        "keyAccentLanguage": "bahdad"
      },
      {
        "code": 0,
        "type": "City",
        "enNameLanguage": "Yoro Beri Kunda",
        "location": {
          "lat": 13.5,
          "lng": -14.75
        },
        "keyAccentLanguage": "yoro_beri_kunda"
      },
      {
        "code": 0,
        "type": "City",
        "enNameLanguage": "Kau-ur",
        "location": {
          "lat": 13.7100556,
          "lng": -15.3336087
        },
        "keyAccentLanguage": "kau-ur"
      },
      {
        "code": 0,
        "type": "City",
        "enNameLanguage": "Dobbo",
        "location": {
          "lat": 13.4745096,
          "lng": -14.6391064
        },
        "keyAccentLanguage": "dobbo"
      },
      {
        "code": 0,
        "type": "City",
        "enNameLanguage": "Dankunku",
        "location": {
          "lat": 13.5712781,
          "lng": -15.3262905
        },
        "keyAccentLanguage": "dankunku"
      },
      {
        "code": 0,
        "type": "City",
        "enNameLanguage": "Buruku",
        "location": {
          "lat": 7.417841099999999,
          "lng": 9.2231387
        },
        "keyAccentLanguage": "buruku"
      },
      {
        "code": 0,
        "type": "City",
        "enNameLanguage": "Dankunku Fula",
        "location": {
          "lat": 13.5712781,
          "lng": -15.3262905
        },
        "keyAccentLanguage": "dankunku_fula"
      },
      {
        "code": 0,
        "type": "City",
        "enNameLanguage": "Charmen",
        "location": {
          "lat": 13.7087879,
          "lng": -15.1631771
        },
        "keyAccentLanguage": "charmen"
      },
      {
        "code": 0,
        "type": "City",
        "enNameLanguage": "Borong Kunda",
        "location": {
          "lat": 13.633333,
          "lng": -14.6
        },
        "keyAccentLanguage": "borong_kunda"
      },
      {
        "code": 0,
        "type": "City",
        "enNameLanguage": "Bantanto Ker Sulay",
        "location": {
          "lat": 13.6955675,
          "lng": -15.2537655
        },
        "keyAccentLanguage": "bantanto_ker_sulay"
      },
      {
        "code": 0,
        "type": "City",
        "enNameLanguage": "Piniai Fula Kunda",
        "location": {
          "lat": 13.5494627,
          "lng": -15.2816563
        },
        "keyAccentLanguage": "piniai_fula_kunda"
      },
      {
        "code": 0,
        "type": "City",
        "enNameLanguage": "Dingirie",
        "location": {
          "lat": 13.7656608,
          "lng": -14.9208453
        },
        "keyAccentLanguage": "dingirie"
      },
      {
        "code": 0,
        "type": "City",
        "enNameLanguage": "Charjel",
        "location": {
          "lat": 13.448498,
          "lng": -14.557355
        },
        "keyAccentLanguage": "charjel"
      },
      {
        "code": 0,
        "type": "City",
        "enNameLanguage": "Buniadu",
        "location": {
          "lat": 13.5516172,
          "lng": -15.3372679
        },
        "keyAccentLanguage": "buniadu"
      },
      {
        "code": 0,
        "type": "City",
        "enNameLanguage": "Dembaso",
        "location": {
          "lat": 12.3312639,
          "lng": -15.16675
        },
        "keyAccentLanguage": "dembaso"
      },
      {
        "code": 0,
        "type": "City",
        "enNameLanguage": "Buduck Maila Secka",
        "location": {
          "lat": 13.5994469,
          "lng": -14.8921668
        },
        "keyAccentLanguage": "buduck_maila_secka"
      },
      {
        "code": 0,
        "type": "City",
        "enNameLanguage": "Bati Ndar",
        "location": {
          "lat": 13.7049084,
          "lng": -15.2012201
        },
        "keyAccentLanguage": "bati_ndar"
      },
      {
        "code": 0,
        "type": "City",
        "enNameLanguage": "Daru Mbaien",
        "location": {
          "lat": 13.819092,
          "lng": -15.06117
        },
        "keyAccentLanguage": "daru_mbaien"
      },
      {
        "code": 0,
        "type": "City",
        "enNameLanguage": "Banicuba Yoroyel",
        "location": {
          "lat": 13.516667,
          "lng": -14.6
        },
        "keyAccentLanguage": "banicuba_yoroyel"
      },
      {
        "code": 0,
        "type": "City",
        "enNameLanguage": "Demfai Njaga",
        "location": {
          "lat": 13.6210946,
          "lng": -14.6432765
        },
        "keyAccentLanguage": "demfai_njaga"
      },
      {
        "code": 0,
        "type": "City",
        "enNameLanguage": "Bantanto Ker Oldi",
        "location": {
          "lat": 13.7,
          "lng": -15.266667
        },
        "keyAccentLanguage": "bantanto_ker_oldi"
      },
      {
        "code": 0,
        "type": "City",
        "enNameLanguage": "Diemballa Ker Madi",
        "location": {
          "lat": 13.749565,
          "lng": -15.406833
        },
        "keyAccentLanguage": "diemballa_ker_madi"
      },
      {
        "code": 0,
        "type": "City",
        "enNameLanguage": "Bamba Kolong",
        "location": {
          "lat": 13.6,
          "lng": -15.133
        },
        "keyAccentLanguage": "bamba_kolong"
      },
      {
        "code": 0,
        "type": "City",
        "enNameLanguage": "Balanghar Wharf Town",
        "location": {
          "lat": 13.667,
          "lng": -15.367
        },
        "keyAccentLanguage": "balanghar_wharf_town"
      },
      {
        "code": 0,
        "type": "City",
        "enNameLanguage": "Bantang Koto",
        "location": {
          "lat": 13.65,
          "lng": -15.3
        },
        "keyAccentLanguage": "bantang_koto"
      },
      {
        "code": 0,
        "type": "City",
        "enNameLanguage": "Anias Kunda",
        "location": {
          "lat": 13.567,
          "lng": -15.183
        },
        "keyAccentLanguage": "anias_kunda"
      },
      {
        "code": 0,
        "type": "City",
        "enNameLanguage": "Bankuba Samboido",
        "location": {
          "lat": 13.433,
          "lng": -14.533
        },
        "keyAccentLanguage": "bankuba_samboido"
      },
      {
        "code": 0,
        "type": "City",
        "enNameLanguage": "Bamba",
        "location": {
          "lat": 13.633,
          "lng": -15.283
        },
        "keyAccentLanguage": "bamba"
      },
      {
        "code": 0,
        "type": "City",
        "enNameLanguage": "Buntung",
        "location": {
          "lat": 13.733,
          "lng": -15.2
        },
        "keyAccentLanguage": "buntung"
      },
      {
        "code": 0,
        "type": "City",
        "enNameLanguage": "Dobang Kunda",
        "location": {
          "lat": 13.417,
          "lng": -14.633
        },
        "keyAccentLanguage": "dobang_kunda"
      },
      {
        "code": 0,
        "type": "City",
        "enNameLanguage": "Bati Jama Gen",
        "location": {
          "lat": 13.717,
          "lng": -15.2
        },
        "keyAccentLanguage": "bati_jama_gen"
      },
      {
        "code": 0,
        "type": "City",
        "enNameLanguage": "Bantango Koto",
        "location": {
          "lat": 13.55,
          "lng": -14.55
        },
        "keyAccentLanguage": "bantango_koto"
      },
      {
        "code": 0,
        "type": "City",
        "enNameLanguage": "Baintengkay",
        "location": {
          "lat": 13.667,
          "lng": -15.4
        },
        "keyAccentLanguage": "baintengkay"
      },
      {
        "code": 0,
        "type": "City",
        "enNameLanguage": "Bangherr",
        "location": {
          "lat": 13.7,
          "lng": -15.267
        },
        "keyAccentLanguage": "bangherr"
      },
      {
        "code": 0,
        "type": "City",
        "enNameLanguage": "Darusalem",
        "location": {
          "lat": 13.733,
          "lng": -15.133
        },
        "keyAccentLanguage": "darusalem"
      },
      {
        "code": 0,
        "type": "City",
        "enNameLanguage": "Alhaji Dembo",
        "location": {
          "lat": 13.467,
          "lng": -14.883
        },
        "keyAccentLanguage": "alhaji_dembo"
      },
      {
        "code": 0,
        "type": "City",
        "enNameLanguage": "Bai Ba",
        "location": {
          "lat": 13.5,
          "lng": -14.5
        },
        "keyAccentLanguage": "bai_ba"
      },
      {
        "code": 0,
        "type": "City",
        "enNameLanguage": "Bai N'Ding",
        "location": {
          "lat": 13.5,
          "lng": -14.5
        },
        "keyAccentLanguage": "bai_n'ding"
      },
      {
        "code": 0,
        "type": "City",
        "enNameLanguage": "Manna",
        "location": {
          "lat": 13.593,
          "lng": -14.832
        },
        "keyAccentLanguage": "manna"
      },
      {
        "code": 0,
        "type": "City",
        "enNameLanguage": "Bati",
        "location": {
          "lat": 13.583,
          "lng": -15.133
        },
        "keyAccentLanguage": "bati"
      },
      {
        "code": 0,
        "type": "City",
        "enNameLanguage": "Belal",
        "location": {
          "lat": 13.333,
          "lng": -14.65
        },
        "keyAccentLanguage": "belal"
      },
      {
        "code": 0,
        "type": "City",
        "enNameLanguage": "Demba Cheesay",
        "location": {
          "lat": 13.717,
          "lng": -15.283
        },
        "keyAccentLanguage": "demba_cheesay"
      },
      {
        "code": 0,
        "type": "City",
        "enNameLanguage": "Charen",
        "location": {
          "lat": 13.35,
          "lng": -14.667
        },
        "keyAccentLanguage": "charen"
      },
      {
        "code": 0,
        "type": "City",
        "enNameLanguage": "Demba Darboe",
        "location": {
          "lat": 13.55,
          "lng": -15.317
        },
        "keyAccentLanguage": "demba_darboe"
      },
      {
        "code": 0,
        "type": "City",
        "enNameLanguage": "Bowe",
        "location": {
          "lat": 13.483,
          "lng": -14.917
        },
        "keyAccentLanguage": "bowe"
      },
      {
        "code": 0,
        "type": "City",
        "enNameLanguage": "Bantan Yima",
        "location": {
          "lat": 13.467,
          "lng": -14.9
        },
        "keyAccentLanguage": "bantan_yima"
      },
      {
        "code": 0,
        "type": "City",
        "enNameLanguage": "Demfai Karim",
        "location": {
          "lat": 13.633,
          "lng": -14.65
        },
        "keyAccentLanguage": "demfai_karim"
      },
      {
        "code": 0,
        "type": "City",
        "enNameLanguage": "Darusalameh",
        "location": {
          "lat": 13.7,
          "lng": -14.9
        },
        "keyAccentLanguage": "darusalameh"
      },
      {
        "code": 0,
        "type": "City",
        "enNameLanguage": "Changai",
        "location": {
          "lat": 13.583,
          "lng": -14.667
        },
        "keyAccentLanguage": "changai"
      },
      {
        "code": 0,
        "type": "City",
        "enNameLanguage": "Bukari Kunda",
        "location": {
          "lat": 13.5,
          "lng": -14.717
        },
        "keyAccentLanguage": "bukari_kunda"
      },
      {
        "code": 0,
        "type": "City",
        "enNameLanguage": "Chalen",
        "location": {
          "lat": 13.783333,
          "lng": -15
        },
        "keyAccentLanguage": "chalen"
      },
      {
        "code": 0,
        "type": "City",
        "enNameLanguage": "Chalen Ker Bakari Salla",
        "location": {
          "lat": 13.783,
          "lng": -15
        },
        "keyAccentLanguage": "chalen_ker_bakari_salla"
      },
      {
        "code": 0,
        "type": "City",
        "enNameLanguage": "Alhaji Abdoulie Liegh",
        "location": {
          "lat": 13.7,
          "lng": -15.283
        },
        "keyAccentLanguage": "alhaji_abdoulie_liegh"
      },
      {
        "code": 0,
        "type": "City",
        "enNameLanguage": "Charno Musa",
        "location": {
          "lat": 13.417,
          "lng": -14.65
        },
        "keyAccentLanguage": "charno_musa"
      }
    ],
    "enNameLanguage": "Central River",
    "keyAccentLanguage": "central_river"
  },
  {
    "code": 0,
    "type": "State",
    "location": {
      "lat": 13.3553306,
      "lng": -15.92299
    },
    "districtList": [
      {
        "code": 0,
        "type": "City",
        "enNameLanguage": "Kuli Kunda",
        "location": {
          "lat": 13.3378788,
          "lng": -15.9222558
        },
        "keyAccentLanguage": "kuli_kunda"
      },
      {
        "code": 0,
        "type": "City",
        "enNameLanguage": "Jenoi",
        "location": {
          "lat": 13.480711,
          "lng": -15.5606271
        },
        "keyAccentLanguage": "jenoi"
      },
      {
        "code": 0,
        "type": "City",
        "enNameLanguage": "Bankulling",
        "location": {
          "lat": 13.2964897,
          "lng": -16.0709985
        },
        "keyAccentLanguage": "bankulling"
      },
      {
        "code": 0,
        "type": "City",
        "enNameLanguage": "Bambako",
        "location": {
          "lat": 13.404381,
          "lng": -15.766164
        },
        "keyAccentLanguage": "bambako"
      },
      {
        "code": 0,
        "type": "City",
        "enNameLanguage": "Kwinella",
        "location": {
          "lat": 13.3955228,
          "lng": -15.7982094
        },
        "keyAccentLanguage": "kwinella"
      },
      {
        "code": 0,
        "type": "City",
        "enNameLanguage": "Diganteh",
        "location": {
          "lat": 13.3767329,
          "lng": -15.4397577
        },
        "keyAccentLanguage": "diganteh"
      },
      {
        "code": 0,
        "type": "City",
        "enNameLanguage": "Faro Ya",
        "location": {
          "lat": 37.0164626,
          "lng": -7.9351983
        },
        "keyAccentLanguage": "faro_ya"
      },
      {
        "code": 0,
        "type": "City",
        "enNameLanguage": "Jabisa",
        "location": {
          "lat": 13.4666767,
          "lng": -15.4657559
        },
        "keyAccentLanguage": "jabisa"
      },
      {
        "code": 0,
        "type": "City",
        "enNameLanguage": "Buiba Mandinka",
        "location": {
          "lat": 13.4379261,
          "lng": -15.4485454
        },
        "keyAccentLanguage": "buiba_mandinka"
      },
      {
        "code": 0,
        "type": "City",
        "enNameLanguage": "Dabatu",
        "location": {
          "lat": 18.1698201,
          "lng": 73.338533
        },
        "keyAccentLanguage": "dabatu"
      },
      {
        "code": 0,
        "type": "City",
        "enNameLanguage": "Jatta Kunda",
        "location": {
          "lat": 13.3942944,
          "lng": -15.6962454
        },
        "keyAccentLanguage": "jatta_kunda"
      },
      {
        "code": 0,
        "type": "City",
        "enNameLanguage": "Kani Kunda",
        "location": {
          "lat": 13.4515814,
          "lng": -15.5217933
        },
        "keyAccentLanguage": "kani_kunda"
      },
      {
        "code": 0,
        "type": "City",
        "enNameLanguage": "Munku Talla",
        "location": {
          "lat": 13.3776423,
          "lng": -15.5991029
        },
        "keyAccentLanguage": "munku_talla"
      },
      {
        "code": 0,
        "type": "City",
        "enNameLanguage": "Madina",
        "location": {
          "lat": 24.4672132,
          "lng": 39.6024496
        },
        "keyAccentLanguage": "madina"
      },
      {
        "code": 0,
        "type": "City",
        "enNameLanguage": "Jarjangfara",
        "location": {
          "lat": 13.266667,
          "lng": -15.9
        },
        "keyAccentLanguage": "jarjangfara"
      },
      {
        "code": 0,
        "type": "City",
        "enNameLanguage": "Misira",
        "location": {
          "lat": 13.382106,
          "lng": -15.5335158
        },
        "keyAccentLanguage": "misira"
      },
      {
        "code": 0,
        "type": "City",
        "enNameLanguage": "Jula Kunda",
        "location": {
          "lat": 13.3313556,
          "lng": -16.1750027
        },
        "keyAccentLanguage": "jula_kunda"
      },
      {
        "code": 0,
        "type": "City",
        "enNameLanguage": "Badume",
        "location": {
          "lat": 12.1909344,
          "lng": 8.314953899999999
        },
        "keyAccentLanguage": "badume"
      },
      {
        "code": 0,
        "type": "City",
        "enNameLanguage": "Dongoro Ba",
        "location": {
          "lat": 13.3813996,
          "lng": -15.2962891
        },
        "keyAccentLanguage": "dongoro_ba"
      },
      {
        "code": 0,
        "type": "City",
        "enNameLanguage": "Karantaba",
        "location": {
          "lat": 13.3523703,
          "lng": -16.1529477
        },
        "keyAccentLanguage": "karantaba"
      },
      {
        "code": 0,
        "type": "City",
        "enNameLanguage": "Bureng",
        "location": {
          "lat": 13.4198217,
          "lng": -15.2765351
        },
        "keyAccentLanguage": "bureng"
      },
      {
        "code": 0,
        "type": "City",
        "enNameLanguage": "Batelling",
        "location": {
          "lat": 13.4087756,
          "lng": -15.842974
        },
        "keyAccentLanguage": "batelling"
      },
      {
        "code": 0,
        "type": "City",
        "enNameLanguage": "Baro Kunda Tenda",
        "location": {
          "lat": 13.487225,
          "lng": -15.294353
        },
        "keyAccentLanguage": "baro_kunda_tenda"
      },
      {
        "code": 0,
        "type": "City",
        "enNameLanguage": "Jiroff Tenda",
        "location": {
          "lat": 13.436733,
          "lng": -15.724048
        },
        "keyAccentLanguage": "jiroff_tenda"
      },
      {
        "code": 0,
        "type": "City",
        "enNameLanguage": "Jasobo",
        "location": {
          "lat": 13.4625724,
          "lng": -15.6753462
        },
        "keyAccentLanguage": "jasobo"
      },
      {
        "code": 0,
        "type": "City",
        "enNameLanguage": "Genieri",
        "location": {
          "lat": 13.4146289,
          "lng": -15.6185272
        },
        "keyAccentLanguage": "genieri"
      },
      {
        "code": 0,
        "type": "City",
        "enNameLanguage": "Brikama",
        "location": {
          "lat": 13.2747943,
          "lng": -16.6409198
        },
        "keyAccentLanguage": "brikama"
      },
      {
        "code": 0,
        "type": "City",
        "enNameLanguage": "Buiba Musa Njadoh",
        "location": {
          "lat": 13.437581,
          "lng": -15.450341
        },
        "keyAccentLanguage": "buiba_musa_njadoh"
      },
      {
        "code": 0,
        "type": "City",
        "enNameLanguage": "Keneba",
        "location": {
          "lat": 13.3315676,
          "lng": -16.0096511
        },
        "keyAccentLanguage": "keneba"
      },
      {
        "code": 0,
        "type": "City",
        "enNameLanguage": "Buiba Jalo Kunda",
        "location": {
          "lat": 13.437581,
          "lng": -15.450341
        },
        "keyAccentLanguage": "buiba_jalo_kunda"
      },
      {
        "code": 0,
        "type": "City",
        "enNameLanguage": "Pakuba",
        "location": {
          "lat": 2.333333,
          "lng": 31.466667
        },
        "keyAccentLanguage": "pakuba"
      },
      {
        "code": 0,
        "type": "City",
        "enNameLanguage": "Janneh Kunda",
        "location": {
          "lat": 13.3772043,
          "lng": -16.1367757
        },
        "keyAccentLanguage": "janneh_kunda"
      },
      {
        "code": 0,
        "type": "City",
        "enNameLanguage": "Dumbutu",
        "location": {
          "lat": 13.3491994,
          "lng": -15.8326992
        },
        "keyAccentLanguage": "dumbutu"
      },
      {
        "code": 0,
        "type": "City",
        "enNameLanguage": "Buiba Musa Sallah",
        "location": {
          "lat": 13.4434488,
          "lng": -15.4500101
        },
        "keyAccentLanguage": "buiba_musa_sallah"
      },
      {
        "code": 0,
        "type": "City",
        "enNameLanguage": "Keno Koto",
        "location": {
          "lat": 13.2903021,
          "lng": -16.0815618
        },
        "keyAccentLanguage": "keno_koto"
      },
      {
        "code": 0,
        "type": "City",
        "enNameLanguage": "Burrong",
        "location": {
          "lat": 13.3269693,
          "lng": -16.1779435
        },
        "keyAccentLanguage": "burrong"
      },
      {
        "code": 0,
        "type": "City",
        "enNameLanguage": "Mansa Konko",
        "location": {
          "lat": 13.4595508,
          "lng": -15.5401101
        },
        "keyAccentLanguage": "mansa_konko"
      },
      {
        "code": 0,
        "type": "City",
        "enNameLanguage": "Jifarong",
        "location": {
          "lat": 13.3014073,
          "lng": -15.8686635
        },
        "keyAccentLanguage": "jifarong"
      },
      {
        "code": 0,
        "type": "City",
        "enNameLanguage": "Missira Tenda",
        "location": {
          "lat": 13.303001,
          "lng": -16.1863987
        },
        "keyAccentLanguage": "missira_tenda"
      },
      {
        "code": 0,
        "type": "City",
        "enNameLanguage": "Hamdalai",
        "location": {
          "lat": 13.3848491,
          "lng": -15.3767924
        },
        "keyAccentLanguage": "hamdalai"
      },
      {
        "code": 0,
        "type": "City",
        "enNameLanguage": "Pakali Nding",
        "location": {
          "lat": 13.4618036,
          "lng": -15.5489028
        },
        "keyAccentLanguage": "pakali_nding"
      },
      {
        "code": 0,
        "type": "City",
        "enNameLanguage": "Nioro",
        "location": {
          "lat": 13.3532993,
          "lng": -15.74612
        },
        "keyAccentLanguage": "nioro"
      },
      {
        "code": 0,
        "type": "City",
        "enNameLanguage": "Jassong",
        "location": {
          "lat": 13.4046326,
          "lng": -15.3065329
        },
        "keyAccentLanguage": "jassong"
      },
      {
        "code": 0,
        "type": "City",
        "enNameLanguage": "Kansala",
        "location": {
          "lat": 13.249128,
          "lng": -16.099416
        },
        "keyAccentLanguage": "kansala"
      },
      {
        "code": 0,
        "type": "City",
        "enNameLanguage": "Biranoya",
        "location": {
          "lat": 13.416667,
          "lng": -15.533333
        },
        "keyAccentLanguage": "biranoya"
      },
      {
        "code": 0,
        "type": "City",
        "enNameLanguage": "Jomarr",
        "location": {
          "lat": 13.4326528,
          "lng": -15.6716799
        },
        "keyAccentLanguage": "jomarr"
      },
      {
        "code": 0,
        "type": "City",
        "enNameLanguage": "Jappeni",
        "location": {
          "lat": 13.4249704,
          "lng": -15.4199871
        },
        "keyAccentLanguage": "jappeni"
      },
      {
        "code": 0,
        "type": "City",
        "enNameLanguage": "Pakali Ba",
        "location": {
          "lat": 13.520153,
          "lng": -15.2443482
        },
        "keyAccentLanguage": "pakali_ba"
      },
      {
        "code": 0,
        "type": "City",
        "enNameLanguage": "Jobe Kunda",
        "location": {
          "lat": 13.4082926,
          "lng": -15.4060758
        },
        "keyAccentLanguage": "jobe_kunda"
      },
      {
        "code": 0,
        "type": "City",
        "enNameLanguage": "Nema Kuta",
        "location": {
          "lat": 13.4182185,
          "lng": -15.6947787
        },
        "keyAccentLanguage": "nema_kuta"
      },
      {
        "code": 0,
        "type": "City",
        "enNameLanguage": "Jiroff",
        "location": {
          "lat": 13.4257926,
          "lng": -15.7079794
        },
        "keyAccentLanguage": "jiroff"
      },
      {
        "code": 0,
        "type": "City",
        "enNameLanguage": "Massembe",
        "location": {
          "lat": 13.4187569,
          "lng": -15.6419858
        },
        "keyAccentLanguage": "massembe"
      },
      {
        "code": 0,
        "type": "City",
        "enNameLanguage": "Manduar",
        "location": {
          "lat": 13.2446963,
          "lng": -16.6320777
        },
        "keyAccentLanguage": "manduar"
      },
      {
        "code": 0,
        "type": "City",
        "enNameLanguage": "Kolior",
        "location": {
          "lat": 13.422346,
          "lng": -15.671685
        },
        "keyAccentLanguage": "kolior"
      },
      {
        "code": 0,
        "type": "City",
        "enNameLanguage": "Njolfen",
        "location": {
          "lat": 13.3634341,
          "lng": -15.6522499
        },
        "keyAccentLanguage": "njolfen"
      },
      {
        "code": 0,
        "type": "City",
        "enNameLanguage": "Juoli",
        "location": {
          "lat": 13.4008734,
          "lng": -16.0956164
        },
        "keyAccentLanguage": "juoli"
      },
      {
        "code": 0,
        "type": "City",
        "enNameLanguage": "Kantong Kunda",
        "location": {
          "lat": 13.3342196,
          "lng": -15.9575028
        },
        "keyAccentLanguage": "kantong_kunda"
      },
      {
        "code": 0,
        "type": "City",
        "enNameLanguage": "Nioro Jattaba",
        "location": {
          "lat": 13.2739715,
          "lng": -15.8268282
        },
        "keyAccentLanguage": "nioro_jattaba"
      },
      {
        "code": 0,
        "type": "City",
        "enNameLanguage": "Bantanjang",
        "location": {
          "lat": 13.2792282,
          "lng": -15.9586044
        },
        "keyAccentLanguage": "bantanjang"
      },
      {
        "code": 0,
        "type": "City",
        "enNameLanguage": "Njoba Kunda",
        "location": {
          "lat": 13.508728,
          "lng": -15.247274
        },
        "keyAccentLanguage": "njoba_kunda"
      },
      {
        "code": 0,
        "type": "City",
        "enNameLanguage": "Naneko",
        "location": {
          "lat": 13.3934506,
          "lng": -15.3738644
        },
        "keyAccentLanguage": "naneko"
      },
      {
        "code": 0,
        "type": "City",
        "enNameLanguage": "Jattaba",
        "location": {
          "lat": 13.2739715,
          "lng": -15.8268282
        },
        "keyAccentLanguage": "jattaba"
      },
      {
        "code": 0,
        "type": "City",
        "enNameLanguage": "Jalangbereh",
        "location": {
          "lat": 1.307226,
          "lng": 103.8575198
        },
        "keyAccentLanguage": "jalangbereh"
      },
      {
        "code": 0,
        "type": "City",
        "enNameLanguage": "Kunong Fula Kunda",
        "location": {
          "lat": 13.4170579,
          "lng": -15.7296159
        },
        "keyAccentLanguage": "kunong_fula_kunda"
      },
      {
        "code": 0,
        "type": "City",
        "enNameLanguage": "Baro Kunda",
        "location": {
          "lat": 13.487968,
          "lng": -15.2648301
        },
        "keyAccentLanguage": "baro_kunda"
      },
      {
        "code": 0,
        "type": "City",
        "enNameLanguage": "Kaiaf",
        "location": {
          "lat": 13.4082642,
          "lng": -15.6082651
        },
        "keyAccentLanguage": "kaiaf"
      },
      {
        "code": 0,
        "type": "City",
        "enNameLanguage": "Fonkoi Kunda",
        "location": {
          "lat": 13.4057893,
          "lng": -15.5584287
        },
        "keyAccentLanguage": "fonkoi_kunda"
      },
      {
        "code": 0,
        "type": "City",
        "enNameLanguage": "Kunong Numu Kunda",
        "location": {
          "lat": 13.422435,
          "lng": -15.718206
        },
        "keyAccentLanguage": "kunong_numu_kunda"
      },
      {
        "code": 0,
        "type": "City",
        "enNameLanguage": "Felleng Kotor",
        "location": {
          "lat": 13.467,
          "lng": -15.233
        },
        "keyAccentLanguage": "felleng_kotor"
      },
      {
        "code": 0,
        "type": "City",
        "enNameLanguage": "Gissay",
        "location": {
          "lat": 13.311,
          "lng": -16.088
        },
        "keyAccentLanguage": "gissay"
      },
      {
        "code": 0,
        "type": "City",
        "enNameLanguage": "Bajon Koto",
        "location": {
          "lat": 13.367,
          "lng": -15.617
        },
        "keyAccentLanguage": "bajon_koto"
      },
      {
        "code": 0,
        "type": "City",
        "enNameLanguage": "Forlolor",
        "location": {
          "lat": 13.4,
          "lng": -15.4
        },
        "keyAccentLanguage": "forlolor"
      },
      {
        "code": 0,
        "type": "City",
        "enNameLanguage": "Jangmarr",
        "location": {
          "lat": 13.3,
          "lng": -15.933
        },
        "keyAccentLanguage": "jangmarr"
      },
      {
        "code": 0,
        "type": "City",
        "enNameLanguage": "Kohel",
        "location": {
          "lat": 13.4,
          "lng": -15.55
        },
        "keyAccentLanguage": "kohel"
      },
      {
        "code": 0,
        "type": "City",
        "enNameLanguage": "Jallow Kunda",
        "location": {
          "lat": 13.35,
          "lng": -15.383
        },
        "keyAccentLanguage": "jallow_kunda"
      },
      {
        "code": 0,
        "type": "City",
        "enNameLanguage": "Kuyang",
        "location": {
          "lat": 13.334,
          "lng": -16.103
        },
        "keyAccentLanguage": "kuyang"
      },
      {
        "code": 0,
        "type": "City",
        "enNameLanguage": "Jalaba",
        "location": {
          "lat": 13.383,
          "lng": -15.367
        },
        "keyAccentLanguage": "jalaba"
      },
      {
        "code": 0,
        "type": "City",
        "enNameLanguage": "Bajana",
        "location": {
          "lat": 13.317,
          "lng": -15.883
        },
        "keyAccentLanguage": "bajana"
      },
      {
        "code": 0,
        "type": "City",
        "enNameLanguage": "Jali",
        "location": {
          "lat": 13.35,
          "lng": -15.967
        },
        "keyAccentLanguage": "jali"
      },
      {
        "code": 0,
        "type": "City",
        "enNameLanguage": "Bantasu",
        "location": {
          "lat": 13.321,
          "lng": -16.1
        },
        "keyAccentLanguage": "bantasu"
      },
      {
        "code": 0,
        "type": "City",
        "enNameLanguage": "Kunong Mansasansang",
        "location": {
          "lat": 13.417,
          "lng": -15.733
        },
        "keyAccentLanguage": "kunong_mansasansang"
      },
      {
        "code": 0,
        "type": "City",
        "enNameLanguage": "Jumaru",
        "location": {
          "lat": 13.3,
          "lng": -15.933
        },
        "keyAccentLanguage": "jumaru"
      },
      {
        "code": 0,
        "type": "City",
        "enNameLanguage": "Jiffin",
        "location": {
          "lat": 13.417,
          "lng": -15.583
        },
        "keyAccentLanguage": "jiffin"
      },
      {
        "code": 0,
        "type": "City",
        "enNameLanguage": "Nganingkoi",
        "location": {
          "lat": 13.383,
          "lng": -15.883
        },
        "keyAccentLanguage": "nganingkoi"
      },
      {
        "code": 0,
        "type": "City",
        "enNameLanguage": "Kemoto",
        "location": {
          "lat": 13.432,
          "lng": -16.147
        },
        "keyAccentLanguage": "kemoto"
      },
      {
        "code": 0,
        "type": "City",
        "enNameLanguage": "Kurang Kotor",
        "location": {
          "lat": 13.317,
          "lng": -16.1
        },
        "keyAccentLanguage": "kurang_kotor"
      },
      {
        "code": 0,
        "type": "City",
        "enNameLanguage": "Bai Tenda",
        "location": {
          "lat": 13.45,
          "lng": -15.417
        },
        "keyAccentLanguage": "bai_tenda"
      },
      {
        "code": 0,
        "type": "City",
        "enNameLanguage": "Nema",
        "location": {
          "lat": 13.417,
          "lng": -15.4
        },
        "keyAccentLanguage": "nema"
      },
      {
        "code": 0,
        "type": "City",
        "enNameLanguage": "Soma",
        "location": {
          "lat": 13.435,
          "lng": -15.543
        },
        "keyAccentLanguage": "soma"
      },
      {
        "code": 0,
        "type": "City",
        "enNameLanguage": "Jaidina",
        "location": {
          "lat": 13.4,
          "lng": -15.517
        },
        "keyAccentLanguage": "jaidina"
      },
      {
        "code": 0,
        "type": "City",
        "enNameLanguage": "Daru Fatiho",
        "location": {
          "lat": 13.4,
          "lng": -15.383
        },
        "keyAccentLanguage": "daru_fatiho"
      },
      {
        "code": 0,
        "type": "City",
        "enNameLanguage": "Manar",
        "location": {
          "lat": 13.359,
          "lng": -16.152
        },
        "keyAccentLanguage": "manar"
      },
      {
        "code": 0,
        "type": "City",
        "enNameLanguage": "Kanuma",
        "location": {
          "lat": 13.417,
          "lng": -15.4
        },
        "keyAccentLanguage": "kanuma"
      },
      {
        "code": 0,
        "type": "City",
        "enNameLanguage": "Minjang",
        "location": {
          "lat": 13.383,
          "lng": -15.9
        },
        "keyAccentLanguage": "minjang"
      },
      {
        "code": 0,
        "type": "City",
        "enNameLanguage": "Bumari",
        "location": {
          "lat": 13.4,
          "lng": -15.783
        },
        "keyAccentLanguage": "bumari"
      },
      {
        "code": 0,
        "type": "City",
        "enNameLanguage": "Mandina",
        "location": {
          "lat": 13.433,
          "lng": -15.7
        },
        "keyAccentLanguage": "mandina"
      },
      {
        "code": 0,
        "type": "City",
        "enNameLanguage": "Macca",
        "location": {
          "lat": 13.4,
          "lng": -16.133
        },
        "keyAccentLanguage": "macca"
      },
      {
        "code": 0,
        "type": "City",
        "enNameLanguage": "Dabaly",
        "location": {
          "lat": 13.517,
          "lng": -15.233
        },
        "keyAccentLanguage": "dabaly"
      },
      {
        "code": 0,
        "type": "City",
        "enNameLanguage": "Bulufula",
        "location": {
          "lat": 13.283,
          "lng": -15.917
        },
        "keyAccentLanguage": "bulufula"
      },
      {
        "code": 0,
        "type": "City",
        "enNameLanguage": "Madina",
        "location": {
          "lat": 24.4672132,
          "lng": 39.6024496
        },
        "keyAccentLanguage": "madina"
      }
    ],
    "enNameLanguage": "Lower River",
    "keyAccentLanguage": "lower_river"
  },
  {
    "code": 0,
    "type": "State",
    "location": {
      "lat": 7.759166199999998,
      "lng": 8.5336525
    },
    "districtList": [
      {
        "code": 0,
        "type": "City",
        "enNameLanguage": "Alicali Kunda",
        "location": {
          "lat": 13.5392121,
          "lng": -15.7329166
        },
        "keyAccentLanguage": "alicali_kunda"
      },
      {
        "code": 0,
        "type": "City",
        "enNameLanguage": "Bali",
        "location": {
          "lat": -8.4095178,
          "lng": 115.188916
        },
        "keyAccentLanguage": "bali"
      },
      {
        "code": 0,
        "type": "City",
        "enNameLanguage": "Alaji Yoro",
        "location": {
          "lat": 13.521301,
          "lng": -16.285639
        },
        "keyAccentLanguage": "alaji_yoro"
      },
      {
        "code": 0,
        "type": "City",
        "enNameLanguage": "Bantang Killing",
        "location": {
          "lat": 13.583333,
          "lng": -15.7
        },
        "keyAccentLanguage": "bantang_killing"
      },
      {
        "code": 0,
        "type": "City",
        "enNameLanguage": "India",
        "location": {
          "lat": 20.593684,
          "lng": 78.96288
        },
        "keyAccentLanguage": "india"
      },
      {
        "code": 0,
        "type": "City",
        "enNameLanguage": "Albadarr",
        "location": {
          "lat": 13.3377866,
          "lng": -16.3861179
        },
        "keyAccentLanguage": "albadarr"
      },
      {
        "code": 0,
        "type": "City",
        "enNameLanguage": "Bambali",
        "location": {
          "lat": 13.4776279,
          "lng": -15.3409272
        },
        "keyAccentLanguage": "bambali"
      },
      {
        "code": 0,
        "type": "City",
        "enNameLanguage": "Bassik",
        "location": {
          "lat": 13.5317629,
          "lng": -15.4968856
        },
        "keyAccentLanguage": "bassik"
      },
      {
        "code": 0,
        "type": "City",
        "enNameLanguage": "Berending",
        "location": {
          "lat": 13.4898088,
          "lng": -16.4648821
        },
        "keyAccentLanguage": "berending"
      },
      {
        "code": 0,
        "type": "City",
        "enNameLanguage": "Darusalam",
        "location": {
          "lat": 13.5279611,
          "lng": -16.0794491
        },
        "keyAccentLanguage": "darusalam"
      },
      {
        "code": 0,
        "type": "City",
        "enNameLanguage": "Chamen",
        "location": {
          "lat": 13.5714649,
          "lng": -15.9446516
        },
        "keyAccentLanguage": "chamen"
      },
      {
        "code": 0,
        "type": "City",
        "enNameLanguage": "Dasilami",
        "location": {
          "lat": 13.5305483,
          "lng": -16.1360406
        },
        "keyAccentLanguage": "dasilami"
      },
      {
        "code": 0,
        "type": "City",
        "enNameLanguage": "Chamen Sosseh",
        "location": {
          "lat": 13.5087934,
          "lng": -16.2481691
        },
        "keyAccentLanguage": "chamen_sosseh"
      },
      {
        "code": 0,
        "type": "City",
        "enNameLanguage": "Farafenni",
        "location": {
          "lat": 13.5722578,
          "lng": -15.6002024
        },
        "keyAccentLanguage": "farafenni"
      },
      {
        "code": 0,
        "type": "City",
        "enNameLanguage": "Bakendik",
        "location": {
          "lat": 13.4590845,
          "lng": -16.4538386
        },
        "keyAccentLanguage": "bakendik"
      },
      {
        "code": 0,
        "type": "City",
        "enNameLanguage": "Amdallai",
        "location": {
          "lat": 13.5871725,
          "lng": -16.4214477
        },
        "keyAccentLanguage": "amdallai"
      },
      {
        "code": 0,
        "type": "City",
        "enNameLanguage": "Aljamdu Kanteh Kunda",
        "location": {
          "lat": 13.4010222,
          "lng": -16.4545748
        },
        "keyAccentLanguage": "aljamdu_kanteh_kunda"
      },
      {
        "code": 0,
        "type": "City",
        "enNameLanguage": "Aljamdu",
        "location": {
          "lat": 13.4010222,
          "lng": -16.4545748
        },
        "keyAccentLanguage": "aljamdu"
      },
      {
        "code": 0,
        "type": "City",
        "enNameLanguage": "No Kunda",
        "location": {
          "lat": 13.5616918,
          "lng": -15.8304975
        },
        "keyAccentLanguage": "no_kunda"
      },
      {
        "code": 0,
        "type": "City",
        "enNameLanguage": "Bafulotor",
        "location": {
          "lat": 13.3173651,
          "lng": -16.6250779
        },
        "keyAccentLanguage": "bafulotor"
      },
      {
        "code": 0,
        "type": "City",
        "enNameLanguage": "Gunjur",
        "location": {
          "lat": 13.5229191,
          "lng": -16.0280165
        },
        "keyAccentLanguage": "gunjur"
      },
      {
        "code": 0,
        "type": "City",
        "enNameLanguage": "Bakalarr",
        "location": {
          "lat": 13.4217055,
          "lng": -16.4273366
        },
        "keyAccentLanguage": "bakalarr"
      },
      {
        "code": 0,
        "type": "City",
        "enNameLanguage": "Inoman",
        "location": {
          "lat": 13.429212,
          "lng": -16.351162
        },
        "keyAccentLanguage": "inoman"
      },
      {
        "code": 0,
        "type": "City",
        "enNameLanguage": "Dipa Kunda Wollof",
        "location": {
          "lat": 13.557876,
          "lng": -15.476451
        },
        "keyAccentLanguage": "dipa_kunda_wollof"
      },
      {
        "code": 0,
        "type": "City",
        "enNameLanguage": "Dobo",
        "location": {
          "lat": 13.5419786,
          "lng": -15.9721911
        },
        "keyAccentLanguage": "dobo"
      },
      {
        "code": 0,
        "type": "City",
        "enNameLanguage": "Chisay",
        "location": {
          "lat": 13.499933,
          "lng": -16.2937109
        },
        "keyAccentLanguage": "chisay"
      },
      {
        "code": 0,
        "type": "City",
        "enNameLanguage": "Alpha Hamjatu",
        "location": {
          "lat": 13.466667,
          "lng": -16.316667
        },
        "keyAccentLanguage": "alpha_hamjatu"
      },
      {
        "code": 0,
        "type": "City",
        "enNameLanguage": "Bambatenda",
        "location": {
          "lat": 13.5210019,
          "lng": -15.5727186
        },
        "keyAccentLanguage": "bambatenda"
      },
      {
        "code": 0,
        "type": "City",
        "enNameLanguage": "Jurunku",
        "location": {
          "lat": 13.4183703,
          "lng": -16.2558918
        },
        "keyAccentLanguage": "jurunku"
      },
      {
        "code": 0,
        "type": "City",
        "enNameLanguage": "Balingho",
        "location": {
          "lat": 13.4924329,
          "lng": -15.6082651
        },
        "keyAccentLanguage": "balingho"
      },
      {
        "code": 0,
        "type": "City",
        "enNameLanguage": "Essau",
        "location": {
          "lat": 13.4786086,
          "lng": -16.5171626
        },
        "keyAccentLanguage": "essau"
      },
      {
        "code": 0,
        "type": "City",
        "enNameLanguage": "Daru Rilwan",
        "location": {
          "lat": 13.5468199,
          "lng": -15.9839424
        },
        "keyAccentLanguage": "daru_rilwan"
      },
      {
        "code": 0,
        "type": "City",
        "enNameLanguage": "Nja Kunda",
        "location": {
          "lat": 13.5556154,
          "lng": -15.913445
        },
        "keyAccentLanguage": "nja_kunda"
      },
      {
        "code": 0,
        "type": "City",
        "enNameLanguage": "Bantanding Toranka",
        "location": {
          "lat": 13.5893495,
          "lng": -16.2529498
        },
        "keyAccentLanguage": "bantanding_toranka"
      },
      {
        "code": 0,
        "type": "City",
        "enNameLanguage": "Kuntair",
        "location": {
          "lat": 13.5333231,
          "lng": -16.2213261
        },
        "keyAccentLanguage": "kuntair"
      },
      {
        "code": 0,
        "type": "City",
        "enNameLanguage": "Hamdalai",
        "location": {
          "lat": 13.5625478,
          "lng": -16.0221394
        },
        "keyAccentLanguage": "hamdalai"
      },
      {
        "code": 0,
        "type": "City",
        "enNameLanguage": "Salikene",
        "location": {
          "lat": 13.4856447,
          "lng": -15.9655812
        },
        "keyAccentLanguage": "salikene"
      },
      {
        "code": 0,
        "type": "City",
        "enNameLanguage": "India Baddibu",
        "location": {
          "lat": 13.5676443,
          "lng": -15.7490542
        },
        "keyAccentLanguage": "india_baddibu"
      },
      {
        "code": 0,
        "type": "City",
        "enNameLanguage": "N'Dungu Kebbe",
        "location": {
          "lat": 13.5393781,
          "lng": -16.3198908
        },
        "keyAccentLanguage": "n'dungu_kebbe"
      },
      {
        "code": 0,
        "type": "City",
        "enNameLanguage": "Buniadu",
        "location": {
          "lat": 13.5516172,
          "lng": -15.3372679
        },
        "keyAccentLanguage": "buniadu"
      },
      {
        "code": 0,
        "type": "City",
        "enNameLanguage": "N'Geyen Sanjal",
        "location": {
          "lat": 13.5922159,
          "lng": -15.44049
        },
        "keyAccentLanguage": "n'geyen_sanjal"
      },
      {
        "code": 0,
        "type": "City",
        "enNameLanguage": "Kerewan",
        "location": {
          "lat": 13.4929172,
          "lng": -16.0904721
        },
        "keyAccentLanguage": "kerewan"
      },
      {
        "code": 0,
        "type": "City",
        "enNameLanguage": "Fass Omar Sahor",
        "location": {
          "lat": 13.4611972,
          "lng": -16.3802302
        },
        "keyAccentLanguage": "fass_omar_sahor"
      },
      {
        "code": 0,
        "type": "City",
        "enNameLanguage": "Illiassa",
        "location": {
          "lat": 13.5611878,
          "lng": -15.7512549
        },
        "keyAccentLanguage": "illiassa"
      },
      {
        "code": 0,
        "type": "City",
        "enNameLanguage": "Duniajoe",
        "location": {
          "lat": 13.5731983,
          "lng": -16.4626734
        },
        "keyAccentLanguage": "duniajoe"
      },
      {
        "code": 0,
        "type": "City",
        "enNameLanguage": "Drame Joka",
        "location": {
          "lat": 13.565649,
          "lng": -16.157168
        },
        "keyAccentLanguage": "drame_joka"
      },
      {
        "code": 0,
        "type": "City",
        "enNameLanguage": "Ginak Kajata",
        "location": {
          "lat": 13.5793647,
          "lng": -16.5267365
        },
        "keyAccentLanguage": "ginak_kajata"
      },
      {
        "code": 0,
        "type": "City",
        "enNameLanguage": "Dekordeh Bah",
        "location": {
          "lat": 13.45,
          "lng": -16.383333
        },
        "keyAccentLanguage": "dekordeh_bah"
      },
      {
        "code": 0,
        "type": "City",
        "enNameLanguage": "Birong Kunda",
        "location": {
          "lat": 13.5880191,
          "lng": -15.7813337
        },
        "keyAccentLanguage": "birong_kunda"
      },
      {
        "code": 0,
        "type": "City",
        "enNameLanguage": "Burang Ya",
        "location": {
          "lat": 13.5660269,
          "lng": -15.8448089
        },
        "keyAccentLanguage": "burang_ya"
      },
      {
        "code": 0,
        "type": "City",
        "enNameLanguage": "Aljamdu Kamara Kunda",
        "location": {
          "lat": 13.5285436,
          "lng": -16.0169971
        },
        "keyAccentLanguage": "aljamdu_kamara_kunda"
      },
      {
        "code": 0,
        "type": "City",
        "enNameLanguage": "Dutabulu",
        "location": {
          "lat": 13.5587812,
          "lng": -15.6188937
        },
        "keyAccentLanguage": "dutabulu"
      },
      {
        "code": 0,
        "type": "City",
        "enNameLanguage": "Gallo Ya",
        "location": {
          "lat": 13.583,
          "lng": -15.8
        },
        "keyAccentLanguage": "gallo_ya"
      },
      {
        "code": 0,
        "type": "City",
        "enNameLanguage": "Bangali",
        "location": {
          "lat": 13.506,
          "lng": -16.412
        },
        "keyAccentLanguage": "bangali"
      },
      {
        "code": 0,
        "type": "City",
        "enNameLanguage": "Bahen",
        "location": {
          "lat": 13.583,
          "lng": -15.417
        },
        "keyAccentLanguage": "bahen"
      },
      {
        "code": 0,
        "type": "City",
        "enNameLanguage": "Cheedy Wollof",
        "location": {
          "lat": 13.583,
          "lng": -15.85
        },
        "keyAccentLanguage": "cheedy_wollof"
      },
      {
        "code": 0,
        "type": "City",
        "enNameLanguage": "Balo Omar",
        "location": {
          "lat": 13.583,
          "lng": -15.433
        },
        "keyAccentLanguage": "balo_omar"
      },
      {
        "code": 0,
        "type": "City",
        "enNameLanguage": "Baria",
        "location": {
          "lat": 13.333,
          "lng": -16.4
        },
        "keyAccentLanguage": "baria"
      },
      {
        "code": 0,
        "type": "City",
        "enNameLanguage": "Biram Giddo Ya",
        "location": {
          "lat": 13.583,
          "lng": -15.85
        },
        "keyAccentLanguage": "biram_giddo_ya"
      },
      {
        "code": 0,
        "type": "City",
        "enNameLanguage": "Bahoom",
        "location": {
          "lat": 13.571,
          "lng": -16.329
        },
        "keyAccentLanguage": "bahoom"
      },
      {
        "code": 0,
        "type": "City",
        "enNameLanguage": "Alpha N'Ding",
        "location": {
          "lat": 13.467,
          "lng": -16.35
        },
        "keyAccentLanguage": "alpha_n'ding"
      },
      {
        "code": 0,
        "type": "City",
        "enNameLanguage": "Fafanding",
        "location": {
          "lat": 13.565,
          "lng": -16.379
        },
        "keyAccentLanguage": "fafanding"
      },
      {
        "code": 0,
        "type": "City",
        "enNameLanguage": "Dai Mandinka",
        "location": {
          "lat": 13.55,
          "lng": -15.817
        },
        "keyAccentLanguage": "dai_mandinka"
      },
      {
        "code": 0,
        "type": "City",
        "enNameLanguage": "Baiti",
        "location": {
          "lat": 13.583,
          "lng": -16.233
        },
        "keyAccentLanguage": "baiti"
      },
      {
        "code": 0,
        "type": "City",
        "enNameLanguage": "Fass",
        "location": {
          "lat": 13.564,
          "lng": -16.425
        },
        "keyAccentLanguage": "fass"
      },
      {
        "code": 0,
        "type": "City",
        "enNameLanguage": "Baien",
        "location": {
          "lat": 13.567,
          "lng": -16.05
        },
        "keyAccentLanguage": "baien"
      },
      {
        "code": 0,
        "type": "City",
        "enNameLanguage": "Banni",
        "location": {
          "lat": 13.521,
          "lng": -16.007
        },
        "keyAccentLanguage": "banni"
      },
      {
        "code": 0,
        "type": "City",
        "enNameLanguage": "Alhaji Bajonkoto",
        "location": {
          "lat": 13.533,
          "lng": -15.817
        },
        "keyAccentLanguage": "alhaji_bajonkoto"
      },
      {
        "code": 0,
        "type": "City",
        "enNameLanguage": "Banta Su",
        "location": {
          "lat": 13.55,
          "lng": -15.517
        },
        "keyAccentLanguage": "banta_su"
      },
      {
        "code": 0,
        "type": "City",
        "enNameLanguage": "Bijiba",
        "location": {
          "lat": 13.517,
          "lng": -16.317
        },
        "keyAccentLanguage": "bijiba"
      },
      {
        "code": 0,
        "type": "City",
        "enNameLanguage": "Bakang",
        "location": {
          "lat": 13.504,
          "lng": -16.144
        },
        "keyAccentLanguage": "bakang"
      },
      {
        "code": 0,
        "type": "City",
        "enNameLanguage": "Jago",
        "location": {
          "lat": 13.533,
          "lng": -16.2
        },
        "keyAccentLanguage": "jago"
      },
      {
        "code": 0,
        "type": "City",
        "enNameLanguage": "Daru",
        "location": {
          "lat": 13.552,
          "lng": -16.252
        },
        "keyAccentLanguage": "daru"
      },
      {
        "code": 0,
        "type": "City",
        "enNameLanguage": "Bangaly",
        "location": {
          "lat": 13.483,
          "lng": -16.45
        },
        "keyAccentLanguage": "bangaly"
      },
      {
        "code": 0,
        "type": "City",
        "enNameLanguage": "Herabeh Konoh",
        "location": {
          "lat": 13.483,
          "lng": -16.433
        },
        "keyAccentLanguage": "herabeh_konoh"
      },
      {
        "code": 0,
        "type": "City",
        "enNameLanguage": "Jali Kunda",
        "location": {
          "lat": 13.567,
          "lng": -15.85
        },
        "keyAccentLanguage": "jali_kunda"
      },
      {
        "code": 0,
        "type": "City",
        "enNameLanguage": "Dafa",
        "location": {
          "lat": 13.6,
          "lng": -15.4
        },
        "keyAccentLanguage": "dafa"
      },
      {
        "code": 0,
        "type": "City",
        "enNameLanguage": "Lamin",
        "location": {
          "lat": 13.36,
          "lng": -16.468
        },
        "keyAccentLanguage": "lamin"
      },
      {
        "code": 0,
        "type": "City",
        "enNameLanguage": "Chilla",
        "location": {
          "lat": 13.55,
          "lng": -16.283
        },
        "keyAccentLanguage": "chilla"
      },
      {
        "code": 0,
        "type": "City",
        "enNameLanguage": "Darule Barakatu",
        "location": {
          "lat": 13.55,
          "lng": -15.717
        },
        "keyAccentLanguage": "darule_barakatu"
      },
      {
        "code": 0,
        "type": "City",
        "enNameLanguage": "Demba Hainey",
        "location": {
          "lat": 13.467,
          "lng": -16.383
        },
        "keyAccentLanguage": "demba_hainey"
      },
      {
        "code": 0,
        "type": "City",
        "enNameLanguage": "Biram Kardo Ya",
        "location": {
          "lat": 13.583,
          "lng": -15.85
        },
        "keyAccentLanguage": "biram_kardo_ya"
      },
      {
        "code": 0,
        "type": "City",
        "enNameLanguage": "Ba Duma",
        "location": {
          "lat": 13.35,
          "lng": -16.333
        },
        "keyAccentLanguage": "ba_duma"
      },
      {
        "code": 0,
        "type": "City",
        "enNameLanguage": "Sika",
        "location": {
          "lat": 13.352,
          "lng": -16.343
        },
        "keyAccentLanguage": "sika"
      },
      {
        "code": 0,
        "type": "City",
        "enNameLanguage": "Demba Chippo",
        "location": {
          "lat": 13.517,
          "lng": -16.3
        },
        "keyAccentLanguage": "demba_chippo"
      },
      {
        "code": 0,
        "type": "City",
        "enNameLanguage": "Barra",
        "location": {
          "lat": 13.487,
          "lng": -16.55
        },
        "keyAccentLanguage": "barra"
      },
      {
        "code": 0,
        "type": "City",
        "enNameLanguage": "Bantanding Sancha",
        "location": {
          "lat": 13.583,
          "lng": -16.283
        },
        "keyAccentLanguage": "bantanding_sancha"
      },
      {
        "code": 0,
        "type": "City",
        "enNameLanguage": "Alpha",
        "location": {
          "lat": 13.467,
          "lng": -16.35
        },
        "keyAccentLanguage": "alpha"
      },
      {
        "code": 0,
        "type": "City",
        "enNameLanguage": "Famori",
        "location": {
          "lat": 13.55,
          "lng": -16.083
        },
        "keyAccentLanguage": "famori"
      },
      {
        "code": 0,
        "type": "City",
        "enNameLanguage": "Jabbi Kunda",
        "location": {
          "lat": 13.5,
          "lng": -15.617
        },
        "keyAccentLanguage": "jabbi_kunda"
      },
      {
        "code": 0,
        "type": "City",
        "enNameLanguage": "Balo Ibra",
        "location": {
          "lat": 13.583,
          "lng": -15.417
        },
        "keyAccentLanguage": "balo_ibra"
      },
      {
        "code": 0,
        "type": "City",
        "enNameLanguage": "Cheedi Laibe Ya",
        "location": {
          "lat": 13.583,
          "lng": -15.85
        },
        "keyAccentLanguage": "cheedi_laibe_ya"
      },
      {
        "code": 0,
        "type": "City",
        "enNameLanguage": "Checken",
        "location": {
          "lat": 13.583,
          "lng": -15.45
        },
        "keyAccentLanguage": "checken"
      },
      {
        "code": 0,
        "type": "City",
        "enNameLanguage": "Beretto",
        "location": {
          "lat": 13.55,
          "lng": -15.583
        },
        "keyAccentLanguage": "beretto"
      },
      {
        "code": 0,
        "type": "City",
        "enNameLanguage": "Jahajari",
        "location": {
          "lat": 13.583,
          "lng": -15.75
        },
        "keyAccentLanguage": "jahajari"
      },
      {
        "code": 0,
        "type": "City",
        "enNameLanguage": "Ginak Niji",
        "location": {
          "lat": 13.574,
          "lng": -16.525
        },
        "keyAccentLanguage": "ginak_niji"
      },
      {
        "code": 0,
        "type": "City",
        "enNameLanguage": "Chamen",
        "location": {
          "lat": 13.5714649,
          "lng": -15.9446516
        },
        "keyAccentLanguage": "chamen"
      },
      {
        "code": 0,
        "type": "City",
        "enNameLanguage": "Bantang Killing",
        "location": {
          "lat": 13.583333,
          "lng": -15.7
        },
        "keyAccentLanguage": "bantang_killing"
      },
      {
        "code": 0,
        "type": "City",
        "enNameLanguage": "Darusalam",
        "location": {
          "lat": 13.5279611,
          "lng": -16.0794491
        },
        "keyAccentLanguage": "darusalam"
      },
      {
        "code": 0,
        "type": "City",
        "enNameLanguage": "Hamdalai",
        "location": {
          "lat": 13.5625478,
          "lng": -16.0221394
        },
        "keyAccentLanguage": "hamdalai"
      }
    ],
    "enNameLanguage": "North Bank",
    "keyAccentLanguage": "north_bank"
  },
  {
    "code": 0,
    "type": "State",
    "location": {
      "lat": 13.4257366,
      "lng": -14.0072348
    },
    "districtList": [
      {
        "code": 0,
        "type": "City",
        "enNameLanguage": "Banatenda",
        "location": {
          "lat": 13.385142,
          "lng": -14.480648
        },
        "keyAccentLanguage": "banatenda"
      },
      {
        "code": 0,
        "type": "City",
        "enNameLanguage": "Bajankoto",
        "location": {
          "lat": 53.964375,
          "lng": -1.0838654
        },
        "keyAccentLanguage": "bajankoto"
      },
      {
        "code": 0,
        "type": "City",
        "enNameLanguage": "Badja Kunda",
        "location": {
          "lat": 13.470581,
          "lng": -14.0500472
        },
        "keyAccentLanguage": "badja_kunda"
      },
      {
        "code": 0,
        "type": "City",
        "enNameLanguage": "Bani",
        "location": {
          "lat": 53.964375,
          "lng": -1.0838654
        },
        "keyAccentLanguage": "bani"
      },
      {
        "code": 0,
        "type": "City",
        "enNameLanguage": "Findefeto",
        "location": {
          "lat": 53.964375,
          "lng": -1.0838654
        },
        "keyAccentLanguage": "findefeto"
      },
      {
        "code": 0,
        "type": "City",
        "enNameLanguage": "Bakadagy",
        "location": {
          "lat": 13.3041159,
          "lng": -14.3864656
        },
        "keyAccentLanguage": "bakadagy"
      },
      {
        "code": 0,
        "type": "City",
        "enNameLanguage": "Banu Kunda",
        "location": {
          "lat": 13.377603,
          "lng": -14.013987
        },
        "keyAccentLanguage": "banu_kunda"
      },
      {
        "code": 0,
        "type": "City",
        "enNameLanguage": "Baniko",
        "location": {
          "lat": 13.4257366,
          "lng": -14.0072348
        },
        "keyAccentLanguage": "baniko"
      },
      {
        "code": 0,
        "type": "City",
        "enNameLanguage": "Dandugu",
        "location": {
          "lat": 53.964375,
          "lng": -1.0838654
        },
        "keyAccentLanguage": "dandugu"
      },
      {
        "code": 0,
        "type": "City",
        "enNameLanguage": "Brifu",
        "location": {
          "lat": 13.507366,
          "lng": -13.9361518
        },
        "keyAccentLanguage": "brifu"
      },
      {
        "code": 0,
        "type": "City",
        "enNameLanguage": "Base Nding",
        "location": {
          "lat": 53.964375,
          "lng": -1.0838654
        },
        "keyAccentLanguage": "base_nding"
      },
      {
        "code": 0,
        "type": "City",
        "enNameLanguage": "Boro Modi Bane",
        "location": {
          "lat": 13.4391985,
          "lng": -14.0311791
        },
        "keyAccentLanguage": "boro_modi_bane"
      },
      {
        "code": 0,
        "type": "City",
        "enNameLanguage": "Alohungari Banta",
        "location": {
          "lat": 13.4257366,
          "lng": -14.0072348
        },
        "keyAccentLanguage": "alohungari_banta"
      },
      {
        "code": 0,
        "type": "City",
        "enNameLanguage": "Jaha Madina",
        "location": {
          "lat": 24.4672132,
          "lng": 39.6024496
        },
        "keyAccentLanguage": "jaha_madina"
      },
      {
        "code": 0,
        "type": "City",
        "enNameLanguage": "Basse Santa Su",
        "location": {
          "lat": 13.3094412,
          "lng": -14.2192475
        },
        "keyAccentLanguage": "basse_santa_su"
      },
      {
        "code": 0,
        "type": "City",
        "enNameLanguage": "Jau Kunda",
        "location": {
          "lat": 13.424316,
          "lng": -13.863545
        },
        "keyAccentLanguage": "jau_kunda"
      },
      {
        "code": 0,
        "type": "City",
        "enNameLanguage": "Alohungari",
        "location": {
          "lat": 13.4257366,
          "lng": -14.0072348
        },
        "keyAccentLanguage": "alohungari"
      },
      {
        "code": 0,
        "type": "City",
        "enNameLanguage": "Sabi",
        "location": {
          "lat": 13.2375414,
          "lng": -14.1959978
        },
        "keyAccentLanguage": "sabi"
      },
      {
        "code": 0,
        "type": "City",
        "enNameLanguage": "Alimaka",
        "location": {
          "lat": 13.466667,
          "lng": -14.483333
        },
        "keyAccentLanguage": "alimaka"
      },
      {
        "code": 0,
        "type": "City",
        "enNameLanguage": "Bisandugu",
        "location": {
          "lat": 13.3032489,
          "lng": -14.075725
        },
        "keyAccentLanguage": "bisandugu"
      },
      {
        "code": 0,
        "type": "City",
        "enNameLanguage": "Demba Wendu",
        "location": {
          "lat": 13.4257366,
          "lng": -14.0072348
        },
        "keyAccentLanguage": "demba_wendu"
      },
      {
        "code": 0,
        "type": "City",
        "enNameLanguage": "Giroba Kunda",
        "location": {
          "lat": 13.4257366,
          "lng": -14.0072348
        },
        "keyAccentLanguage": "giroba_kunda"
      },
      {
        "code": 0,
        "type": "City",
        "enNameLanguage": "Diabugu",
        "location": {
          "lat": 13.3835,
          "lng": -14.40639
        },
        "keyAccentLanguage": "diabugu"
      },
      {
        "code": 0,
        "type": "City",
        "enNameLanguage": "Boro Kandakase",
        "location": {
          "lat": 13.4221,
          "lng": -14.031849
        },
        "keyAccentLanguage": "boro_kandakase"
      },
      {
        "code": 0,
        "type": "City",
        "enNameLanguage": "Chewal Bessell",
        "location": {
          "lat": 13.366667,
          "lng": -14.466667
        },
        "keyAccentLanguage": "chewal_bessell"
      },
      {
        "code": 0,
        "type": "City",
        "enNameLanguage": "Darsilame Key Koro",
        "location": {
          "lat": 13.4063945,
          "lng": -14.273027
        },
        "keyAccentLanguage": "darsilame_key_koro"
      },
      {
        "code": 0,
        "type": "City",
        "enNameLanguage": "Gunjur Kuta",
        "location": {
          "lat": 13.5313606,
          "lng": -14.1102971
        },
        "keyAccentLanguage": "gunjur_kuta"
      },
      {
        "code": 0,
        "type": "City",
        "enNameLanguage": "Changally Lankadi",
        "location": {
          "lat": 13.347914,
          "lng": -14.331977
        },
        "keyAccentLanguage": "changally_lankadi"
      },
      {
        "code": 0,
        "type": "City",
        "enNameLanguage": "Fadiya Kunda",
        "location": {
          "lat": 13.4837927,
          "lng": -14.1956345
        },
        "keyAccentLanguage": "fadiya_kunda"
      },
      {
        "code": 0,
        "type": "City",
        "enNameLanguage": "Darsilami",
        "location": {
          "lat": 13.4063945,
          "lng": -14.273027
        },
        "keyAccentLanguage": "darsilami"
      },
      {
        "code": 0,
        "type": "City",
        "enNameLanguage": "Banto Nding",
        "location": {
          "lat": 13.4756577,
          "lng": -14.0848874
        },
        "keyAccentLanguage": "banto_nding"
      },
      {
        "code": 0,
        "type": "City",
        "enNameLanguage": "Fattatenda",
        "location": {
          "lat": 13.457986,
          "lng": -14.062071
        },
        "keyAccentLanguage": "fattatenda"
      },
      {
        "code": 0,
        "type": "City",
        "enNameLanguage": "Kamunakore",
        "location": {
          "lat": 53.964375,
          "lng": -1.0838654
        },
        "keyAccentLanguage": "kamunakore"
      },
      {
        "code": 0,
        "type": "City",
        "enNameLanguage": "Darsilami Tenda",
        "location": {
          "lat": 13.4063945,
          "lng": -14.273027
        },
        "keyAccentLanguage": "darsilami_tenda"
      },
      {
        "code": 0,
        "type": "City",
        "enNameLanguage": "Hela Kunda",
        "location": {
          "lat": 13.2804468,
          "lng": -14.3697351
        },
        "keyAccentLanguage": "hela_kunda"
      },
      {
        "code": 0,
        "type": "City",
        "enNameLanguage": "Damfa Kunda",
        "location": {
          "lat": 13.3329602,
          "lng": -14.1771101
        },
        "keyAccentLanguage": "damfa_kunda"
      },
      {
        "code": 0,
        "type": "City",
        "enNameLanguage": "Chamoi",
        "location": {
          "lat": 13.3188674,
          "lng": -14.1647618
        },
        "keyAccentLanguage": "chamoi"
      },
      {
        "code": 0,
        "type": "City",
        "enNameLanguage": "Dembel Jawor",
        "location": {
          "lat": 51.0545282,
          "lng": 16.1863231
        },
        "keyAccentLanguage": "dembel_jawor"
      },
      {
        "code": 0,
        "type": "City",
        "enNameLanguage": "Dumfoya",
        "location": {
          "lat": 13.4187177,
          "lng": -14.2172771
        },
        "keyAccentLanguage": "dumfoya"
      },
      {
        "code": 0,
        "type": "City",
        "enNameLanguage": "Jahatuje",
        "location": {
          "lat": 53.964375,
          "lng": -1.0838654
        },
        "keyAccentLanguage": "jahatuje"
      },
      {
        "code": 0,
        "type": "City",
        "enNameLanguage": "Gambissara Bondoh",
        "location": {
          "lat": 13.2408899,
          "lng": -14.3108301
        },
        "keyAccentLanguage": "gambissara_bondoh"
      },
      {
        "code": 0,
        "type": "City",
        "enNameLanguage": "Garawol",
        "location": {
          "lat": 13.411226,
          "lng": -13.9390524
        },
        "keyAccentLanguage": "garawol"
      },
      {
        "code": 0,
        "type": "City",
        "enNameLanguage": "Gambissara Jawor",
        "location": {
          "lat": 13.2408899,
          "lng": -14.3108301
        },
        "keyAccentLanguage": "gambissara_jawor"
      },
      {
        "code": 0,
        "type": "City",
        "enNameLanguage": "Kanube",
        "location": {
          "lat": 13.325283,
          "lng": -14.293278
        },
        "keyAccentLanguage": "kanube"
      },
      {
        "code": 0,
        "type": "City",
        "enNameLanguage": "Kanube Tenda",
        "location": {
          "lat": 13.325283,
          "lng": -14.293278
        },
        "keyAccentLanguage": "kanube_tenda"
      },
      {
        "code": 0,
        "type": "City",
        "enNameLanguage": "Gambissar",
        "location": {
          "lat": 13.316667,
          "lng": -13.95
        },
        "keyAccentLanguage": "gambissar"
      },
      {
        "code": 0,
        "type": "City",
        "enNameLanguage": "Kantale Kunda",
        "location": {
          "lat": 8.351263399999999,
          "lng": 81.00699279999999
        },
        "keyAccentLanguage": "kantale_kunda"
      },
      {
        "code": 0,
        "type": "City",
        "enNameLanguage": "Diabugu Tenda",
        "location": {
          "lat": 13.3763057,
          "lng": -14.4162942
        },
        "keyAccentLanguage": "diabugu_tenda"
      },
      {
        "code": 0,
        "type": "City",
        "enNameLanguage": "Heramakono",
        "location": {
          "lat": 13.426512,
          "lng": -13.837443
        },
        "keyAccentLanguage": "heramakono"
      },
      {
        "code": 0,
        "type": "City",
        "enNameLanguage": "Kabakama",
        "location": {
          "lat": 13.3046132,
          "lng": -14.2067472
        },
        "keyAccentLanguage": "kabakama"
      },
      {
        "code": 0,
        "type": "City",
        "enNameLanguage": "Changally Chewdu",
        "location": {
          "lat": 13.366667,
          "lng": -14.333333
        },
        "keyAccentLanguage": "changally_chewdu"
      },
      {
        "code": 0,
        "type": "City",
        "enNameLanguage": "Darsilami Jimara",
        "location": {
          "lat": 13.4063945,
          "lng": -14.273027
        },
        "keyAccentLanguage": "darsilami_jimara"
      },
      {
        "code": 0,
        "type": "City",
        "enNameLanguage": "Demba Kumbale",
        "location": {
          "lat": 13.466667,
          "lng": -13.85
        },
        "keyAccentLanguage": "demba_kumbale"
      },
      {
        "code": 0,
        "type": "City",
        "enNameLanguage": "Diabugu Basilla",
        "location": {
          "lat": 13.3315958,
          "lng": -13.9506556
        },
        "keyAccentLanguage": "diabugu_basilla"
      },
      {
        "code": 0,
        "type": "City",
        "enNameLanguage": "Kulari",
        "location": {
          "lat": 13.39602,
          "lng": -14.08373
        },
        "keyAccentLanguage": "kulari"
      },
      {
        "code": 0,
        "type": "City",
        "enNameLanguage": "Daba Kunda",
        "location": {
          "lat": 13.3187631,
          "lng": -14.2980651
        },
        "keyAccentLanguage": "daba_kunda"
      },
      {
        "code": 0,
        "type": "City",
        "enNameLanguage": "Fatoto",
        "location": {
          "lat": 13.4026933,
          "lng": -13.8897501
        },
        "keyAccentLanguage": "fatoto"
      },
      {
        "code": 0,
        "type": "City",
        "enNameLanguage": "Jababa",
        "location": {
          "lat": 13.3732024,
          "lng": -14.3602796
        },
        "keyAccentLanguage": "jababa"
      },
      {
        "code": 0,
        "type": "City",
        "enNameLanguage": "Sutukoba",
        "location": {
          "lat": 13.5001159,
          "lng": -14.0144902
        },
        "keyAccentLanguage": "sutukoba"
      },
      {
        "code": 0,
        "type": "City",
        "enNameLanguage": "Baraji Kunda",
        "location": {
          "lat": 13.4056382,
          "lng": -13.9883725
        },
        "keyAccentLanguage": "baraji_kunda"
      },
      {
        "code": 0,
        "type": "City",
        "enNameLanguage": "Jum Mankama",
        "location": {
          "lat": 13.33073,
          "lng": -14.444311
        },
        "keyAccentLanguage": "jum_mankama"
      },
      {
        "code": 0,
        "type": "City",
        "enNameLanguage": "Berry Narbeh",
        "location": {
          "lat": 13.45,
          "lng": -14.383333
        },
        "keyAccentLanguage": "berry_narbeh"
      },
      {
        "code": 0,
        "type": "City",
        "enNameLanguage": "Jum Bakary",
        "location": {
          "lat": 13.319081,
          "lng": -14.456478
        },
        "keyAccentLanguage": "jum_bakary"
      },
      {
        "code": 0,
        "type": "City",
        "enNameLanguage": "Bangasiya Fali",
        "location": {
          "lat": 13.267,
          "lng": -14.133
        },
        "keyAccentLanguage": "bangasiya_fali"
      },
      {
        "code": 0,
        "type": "City",
        "enNameLanguage": "Banja",
        "location": {
          "lat": 13.267,
          "lng": -14.283
        },
        "keyAccentLanguage": "banja"
      },
      {
        "code": 0,
        "type": "City",
        "enNameLanguage": "Bankuwule",
        "location": {
          "lat": 13.483333,
          "lng": -14.133333
        },
        "keyAccentLanguage": "bankuwule"
      },
      {
        "code": 0,
        "type": "City",
        "enNameLanguage": "Birom",
        "location": {
          "lat": 13.267,
          "lng": -14.433
        },
        "keyAccentLanguage": "birom"
      },
      {
        "code": 0,
        "type": "City",
        "enNameLanguage": "Demba Kunda",
        "location": {
          "lat": 13.25019,
          "lng": -14.26912
        },
        "keyAccentLanguage": "demba_kunda"
      },
      {
        "code": 0,
        "type": "City",
        "enNameLanguage": "Jekka",
        "location": {
          "lat": 13.533,
          "lng": -14.117
        },
        "keyAccentLanguage": "jekka"
      },
      {
        "code": 0,
        "type": "City",
        "enNameLanguage": "Fantumbu",
        "location": {
          "lat": 13.4,
          "lng": -13.867
        },
        "keyAccentLanguage": "fantumbu"
      },
      {
        "code": 0,
        "type": "City",
        "enNameLanguage": "Kambele",
        "location": {
          "lat": 13.517,
          "lng": -13.917
        },
        "keyAccentLanguage": "kambele"
      },
      {
        "code": 0,
        "type": "City",
        "enNameLanguage": "Fula More Boche",
        "location": {
          "lat": 13.3,
          "lng": -14.35
        },
        "keyAccentLanguage": "fula_more_boche"
      },
      {
        "code": 0,
        "type": "City",
        "enNameLanguage": "Kundam Kunda",
        "location": {
          "lat": 13.3303999,
          "lng": -14.11546
        },
        "keyAccentLanguage": "kundam_kunda"
      },
      {
        "code": 0,
        "type": "City",
        "enNameLanguage": "Boro Sambakabaya",
        "location": {
          "lat": 13.417,
          "lng": -14.033
        },
        "keyAccentLanguage": "boro_sambakabaya"
      },
      {
        "code": 0,
        "type": "City",
        "enNameLanguage": "Hamadalie",
        "location": {
          "lat": 13.383,
          "lng": -14.267
        },
        "keyAccentLanguage": "hamadalie"
      },
      {
        "code": 0,
        "type": "City",
        "enNameLanguage": "Badari",
        "location": {
          "lat": 13.333,
          "lng": -14.1
        },
        "keyAccentLanguage": "badari"
      },
      {
        "code": 0,
        "type": "City",
        "enNameLanguage": "Baro Kunda",
        "location": {
          "lat": 13.483,
          "lng": -14.117
        },
        "keyAccentLanguage": "baro_kunda"
      },
      {
        "code": 0,
        "type": "City",
        "enNameLanguage": "Jawbeh Modeh",
        "location": {
          "lat": 13.35,
          "lng": -14.417
        },
        "keyAccentLanguage": "jawbeh_modeh"
      },
      {
        "code": 0,
        "type": "City",
        "enNameLanguage": "Fatako",
        "location": {
          "lat": 13.35,
          "lng": -14.4
        },
        "keyAccentLanguage": "fatako"
      },
      {
        "code": 0,
        "type": "City",
        "enNameLanguage": "Bantang Kotor",
        "location": {
          "lat": 13.317,
          "lng": -14.217
        },
        "keyAccentLanguage": "bantang_kotor"
      },
      {
        "code": 0,
        "type": "City",
        "enNameLanguage": "Busura",
        "location": {
          "lat": 13.317,
          "lng": -14.5
        },
        "keyAccentLanguage": "busura"
      },
      {
        "code": 0,
        "type": "City",
        "enNameLanguage": "Juburruya",
        "location": {
          "lat": 13.3,
          "lng": -14.35
        },
        "keyAccentLanguage": "juburruya"
      },
      {
        "code": 0,
        "type": "City",
        "enNameLanguage": "Brefet",
        "location": {
          "lat": 13.333,
          "lng": -14.267
        },
        "keyAccentLanguage": "brefet"
      },
      {
        "code": 0,
        "type": "City",
        "enNameLanguage": "Demba Wanda",
        "location": {
          "lat": 13.5,
          "lng": -14.467
        },
        "keyAccentLanguage": "demba_wanda"
      },
      {
        "code": 0,
        "type": "City",
        "enNameLanguage": "Bia Hamady",
        "location": {
          "lat": 13.467,
          "lng": -14.433
        },
        "keyAccentLanguage": "bia_hamady"
      },
      {
        "code": 0,
        "type": "City",
        "enNameLanguage": "Gadafaro",
        "location": {
          "lat": 13.4,
          "lng": -13.9
        },
        "keyAccentLanguage": "gadafaro"
      },
      {
        "code": 0,
        "type": "City",
        "enNameLanguage": "Gayo",
        "location": {
          "lat": 13.533,
          "lng": -14.1
        },
        "keyAccentLanguage": "gayo"
      },
      {
        "code": 0,
        "type": "City",
        "enNameLanguage": "Jawla",
        "location": {
          "lat": 13.417,
          "lng": -14.183
        },
        "keyAccentLanguage": "jawla"
      },
      {
        "code": 0,
        "type": "City",
        "enNameLanguage": "Fode Kunda",
        "location": {
          "lat": 13.5,
          "lng": -13.933
        },
        "keyAccentLanguage": "fode_kunda"
      },
      {
        "code": 0,
        "type": "City",
        "enNameLanguage": "Jambaruya",
        "location": {
          "lat": 13.5,
          "lng": -14.183
        },
        "keyAccentLanguage": "jambaruya"
      },
      {
        "code": 0,
        "type": "City",
        "enNameLanguage": "Jendeh",
        "location": {
          "lat": 13.4,
          "lng": -14.283
        },
        "keyAccentLanguage": "jendeh"
      },
      {
        "code": 0,
        "type": "City",
        "enNameLanguage": "Dasilami",
        "location": {
          "lat": 13.483,
          "lng": -13.933
        },
        "keyAccentLanguage": "dasilami"
      },
      {
        "code": 0,
        "type": "City",
        "enNameLanguage": "Jurro Kunda",
        "location": {
          "lat": 13.283,
          "lng": -14.383
        },
        "keyAccentLanguage": "jurro_kunda"
      },
      {
        "code": 0,
        "type": "City",
        "enNameLanguage": "Jimara",
        "location": {
          "lat": 13.267,
          "lng": -14.433
        },
        "keyAccentLanguage": "jimara"
      },
      {
        "code": 0,
        "type": "City",
        "enNameLanguage": "Gillangel",
        "location": {
          "lat": 13.333,
          "lng": -14.45
        },
        "keyAccentLanguage": "gillangel"
      },
      {
        "code": 0,
        "type": "City",
        "enNameLanguage": "Jala Kunda",
        "location": {
          "lat": 13.233,
          "lng": -14.333
        },
        "keyAccentLanguage": "jala_kunda"
      },
      {
        "code": 0,
        "type": "City",
        "enNameLanguage": "Jamwelly",
        "location": {
          "lat": 13.467,
          "lng": -14.45
        },
        "keyAccentLanguage": "jamwelly"
      },
      {
        "code": 0,
        "type": "City",
        "enNameLanguage": "Boro Majang Kunda",
        "location": {
          "lat": 13.417,
          "lng": -14.033
        },
        "keyAccentLanguage": "boro_majang_kunda"
      },
      {
        "code": 0,
        "type": "City",
        "enNameLanguage": "Banenko Simaila",
        "location": {
          "lat": 13.283,
          "lng": -14.133
        },
        "keyAccentLanguage": "banenko_simaila"
      },
      {
        "code": 0,
        "type": "City",
        "enNameLanguage": "Kumba Chori",
        "location": {
          "lat": 13.292,
          "lng": -14.066
        },
        "keyAccentLanguage": "kumba_chori"
      }
    ],
    "enNameLanguage": "Upper River",
    "keyAccentLanguage": "upper_river"
  },
  {
    "code": 0,
    "type": "State",
    "location": {
      "lat": 37.03543,
      "lng": -95.6412965
    },
    "districtList": [
      {
        "code": 0,
        "type": "City",
        "enNameLanguage": "Amdalai",
        "location": {
          "lat": 13.5871725,
          "lng": -16.4214477
        },
        "keyAccentLanguage": "amdalai"
      },
      {
        "code": 0,
        "type": "City",
        "enNameLanguage": "Bajagar Dumbutu",
        "location": {
          "lat": 13.3491994,
          "lng": -15.8326992
        },
        "keyAccentLanguage": "bajagar_dumbutu"
      },
      {
        "code": 0,
        "type": "City",
        "enNameLanguage": "Alakounda",
        "location": {
          "lat": 20.0237419,
          "lng": 86.06443039999999
        },
        "keyAccentLanguage": "alakounda"
      }
    ],
    "enNameLanguage": "Western",
    "keyAccentLanguage": "western"
  }
]