[
  {
    "code": 0,
    "type": "State",
    "location": {
      "lat": -9.104225699999999,
      "lng": 13.7289167
    },
    "districtList": [
      {
        "code": 0,
        "type": "City",
        "enNameLanguage": "Cacumba",
        "location": {
          "lat": -9.633333,
          "lng": 13.566667
        },
        "keyAccentLanguage": "cacumba"
      },
      {
        "code": 0,
        "type": "City",
        "enNameLanguage": "Calomboloca",
        "location": {
          "lat": -9.156561,
          "lng": 13.8397697
        },
        "keyAccentLanguage": "calomboloca"
      },
      {
        "code": 0,
        "type": "City",
        "enNameLanguage": "Capulo",
        "location": {
          "lat": -7.9469679,
          "lng": 13.159617
        },
        "keyAccentLanguage": "capulo"
      },
      {
        "code": 0,
        "type": "City",
        "enNameLanguage": "Caculo",
        "location": {
          "lat": -9.733333,
          "lng": 13.533333
        },
        "keyAccentLanguage": "caculo"
      },
      {
        "code": 0,
        "type": "City",
        "enNameLanguage": "Quizambilo",
        "location": {
          "lat": -9.104225699999999,
          "lng": 13.7289167
        },
        "keyAccentLanguage": "quizambilo"
      },
      {
        "code": 0,
        "type": "City",
        "enNameLanguage": "Cangunza",
        "location": {
          "lat": -9.983333,
          "lng": 18.533333
        },
        "keyAccentLanguage": "cangunza"
      },
      {
        "code": 0,
        "type": "City",
        "enNameLanguage": "Nambuangongo",
        "location": {
          "lat": -7.9736195,
          "lng": 14.1930918
        },
        "keyAccentLanguage": "nambuangongo"
      },
      {
        "code": 0,
        "type": "City",
        "enNameLanguage": "Muxima",
        "location": {
          "lat": -9.5206071,
          "lng": 13.9589386
        },
        "keyAccentLanguage": "muxima"
      },
      {
        "code": 0,
        "type": "City",
        "enNameLanguage": "Mumbondo",
        "location": {
          "lat": -10.18176,
          "lng": 14.12963
        },
        "keyAccentLanguage": "mumbondo"
      },
      {
        "code": 0,
        "type": "City",
        "enNameLanguage": "Tabi",
        "location": {
          "lat": -8.1792397,
          "lng": 13.356863
        },
        "keyAccentLanguage": "tabi"
      },
      {
        "code": 0,
        "type": "City",
        "enNameLanguage": "Camelembo",
        "location": {
          "lat": -8.527092999999999,
          "lng": 13.98595
        },
        "keyAccentLanguage": "camelembo"
      },
      {
        "code": 0,
        "type": "City",
        "enNameLanguage": "Canzongo",
        "location": {
          "lat": -9.549999999999999,
          "lng": 14.116667
        },
        "keyAccentLanguage": "canzongo"
      },
      {
        "code": 0,
        "type": "City",
        "enNameLanguage": "Tentativa",
        "location": {
          "lat": -8.5990722,
          "lng": 13.5972063
        },
        "keyAccentLanguage": "tentativa"
      },
      {
        "code": 0,
        "type": "City",
        "enNameLanguage": "Ucua",
        "location": {
          "lat": -8.644295,
          "lng": 14.16441
        },
        "keyAccentLanguage": "ucua"
      },
      {
        "code": 0,
        "type": "City",
        "enNameLanguage": "Cacamba",
        "location": {
          "lat": -9.104225699999999,
          "lng": 13.7289167
        },
        "keyAccentLanguage": "cacamba"
      },
      {
        "code": 0,
        "type": "City",
        "enNameLanguage": "Baquenze",
        "location": {
          "lat": -9.9,
          "lng": 13.683333
        },
        "keyAccentLanguage": "baquenze"
      },
      {
        "code": 0,
        "type": "City",
        "enNameLanguage": "Anza",
        "location": {
          "lat": 33.5552692,
          "lng": -116.6741822
        },
        "keyAccentLanguage": "anza"
      },
      {
        "code": 0,
        "type": "City",
        "enNameLanguage": "Beira Baixa",
        "location": {
          "lat": -9.104225699999999,
          "lng": 13.7289167
        },
        "keyAccentLanguage": "beira_baixa"
      },
      {
        "code": 0,
        "type": "City",
        "enNameLanguage": "Bula",
        "location": {
          "lat": -9.104225699999999,
          "lng": 13.7289167
        },
        "keyAccentLanguage": "bula"
      },
      {
        "code": 0,
        "type": "City",
        "enNameLanguage": "Ambriz",
        "location": {
          "lat": -7.863083999999999,
          "lng": 13.1192563
        },
        "keyAccentLanguage": "ambriz"
      },
      {
        "code": 0,
        "type": "City",
        "enNameLanguage": "Bucula",
        "location": {
          "lat": -9.104225699999999,
          "lng": 13.7289167
        },
        "keyAccentLanguage": "bucula"
      },
      {
        "code": 0,
        "type": "City",
        "enNameLanguage": "Barraca",
        "location": {
          "lat": -9.183333,
          "lng": 13.966667
        },
        "keyAccentLanguage": "barraca"
      },
      {
        "code": 0,
        "type": "City",
        "enNameLanguage": "Balacende",
        "location": {
          "lat": -8.266667,
          "lng": 13.966667
        },
        "keyAccentLanguage": "balacende"
      },
      {
        "code": 0,
        "type": "City",
        "enNameLanguage": "Bemba",
        "location": {
          "lat": -8.15,
          "lng": 14.15
        },
        "keyAccentLanguage": "bemba"
      },
      {
        "code": 0,
        "type": "City",
        "enNameLanguage": "Bongue",
        "location": {
          "lat": -10.233333,
          "lng": 13.6
        },
        "keyAccentLanguage": "bongue"
      },
      {
        "code": 0,
        "type": "City",
        "enNameLanguage": "Barra do Dande",
        "location": {
          "lat": -8.472612999999999,
          "lng": 13.36302
        },
        "keyAccentLanguage": "barra_do_dande"
      },
      {
        "code": 0,
        "type": "City",
        "enNameLanguage": "Alto Lifune",
        "location": {
          "lat": -8.28155534755326,
          "lng": 13.90333405333293
        },
        "keyAccentLanguage": "alto_lifune"
      },
      {
        "code": 0,
        "type": "City",
        "enNameLanguage": "Calumbunze",
        "location": {
          "lat": -9.066666999999999,
          "lng": 13.716667
        },
        "keyAccentLanguage": "calumbunze"
      },
      {
        "code": 0,
        "type": "City",
        "enNameLanguage": "Banza",
        "location": {
          "lat": -9.283332999999999,
          "lng": 14.083333
        },
        "keyAccentLanguage": "banza"
      },
      {
        "code": 0,
        "type": "City",
        "enNameLanguage": "Calunga-Samba",
        "location": {
          "lat": -8.083333,
          "lng": 14.533333
        },
        "keyAccentLanguage": "calunga-samba"
      },
      {
        "code": 0,
        "type": "City",
        "enNameLanguage": "Botomona",
        "location": {
          "lat": -9.133333,
          "lng": 13.8
        },
        "keyAccentLanguage": "botomona"
      },
      {
        "code": 0,
        "type": "City",
        "enNameLanguage": "Bela Vista",
        "location": {
          "lat": -7.810419,
          "lng": 13.83225
        },
        "keyAccentLanguage": "bela_vista"
      },
      {
        "code": 0,
        "type": "City",
        "enNameLanguage": "Cabo Ledo",
        "location": {
          "lat": -9.651103599999999,
          "lng": 13.2576906
        },
        "keyAccentLanguage": "cabo_ledo"
      },
      {
        "code": 0,
        "type": "City",
        "enNameLanguage": "Banza Quitele",
        "location": {
          "lat": -9.283332999999999,
          "lng": 14.083333
        },
        "keyAccentLanguage": "banza_quitele"
      },
      {
        "code": 0,
        "type": "City",
        "enNameLanguage": "Calamba",
        "location": {
          "lat": -10.2,
          "lng": 13.55
        },
        "keyAccentLanguage": "calamba"
      },
      {
        "code": 0,
        "type": "City",
        "enNameLanguage": "Calumba",
        "location": {
          "lat": -9.933333,
          "lng": 14.183333
        },
        "keyAccentLanguage": "calumba"
      },
      {
        "code": 0,
        "type": "City",
        "enNameLanguage": "Bombi",
        "location": {
          "lat": -7.699999999999999,
          "lng": 13.85
        },
        "keyAccentLanguage": "bombi"
      },
      {
        "code": 0,
        "type": "City",
        "enNameLanguage": "Fazenda Lalama",
        "location": {
          "lat": -8.966667000000001,
          "lng": 13.716667
        },
        "keyAccentLanguage": "fazenda_lalama"
      },
      {
        "code": 0,
        "type": "City",
        "enNameLanguage": "Cacefo",
        "location": {
          "lat": -9.283332999999999,
          "lng": 13.783333
        },
        "keyAccentLanguage": "cacefo"
      },
      {
        "code": 0,
        "type": "City",
        "enNameLanguage": "Cabiri",
        "location": {
          "lat": -8.919528999999999,
          "lng": 13.66024
        },
        "keyAccentLanguage": "cabiri"
      },
      {
        "code": 0,
        "type": "City",
        "enNameLanguage": "Buainda",
        "location": {
          "lat": -9.104225699999999,
          "lng": 13.7289167
        },
        "keyAccentLanguage": "buainda"
      },
      {
        "code": 0,
        "type": "City",
        "enNameLanguage": "Anduri",
        "location": {
          "lat": -9.200000000000001,
          "lng": 14.033333
        },
        "keyAccentLanguage": "anduri"
      },
      {
        "code": 0,
        "type": "City",
        "enNameLanguage": "Bala Cassungo",
        "location": {
          "lat": -8.299999999999999,
          "lng": 14.566667
        },
        "keyAccentLanguage": "bala_cassungo"
      },
      {
        "code": 0,
        "type": "City",
        "enNameLanguage": "Cangungula",
        "location": {
          "lat": -10.1,
          "lng": 13.6
        },
        "keyAccentLanguage": "cangungula"
      },
      {
        "code": 0,
        "type": "City",
        "enNameLanguage": "Cabanga",
        "location": {
          "lat": -8.0798317,
          "lng": -34.8941405
        },
        "keyAccentLanguage": "cabanga"
      },
      {
        "code": 0,
        "type": "City",
        "enNameLanguage": "Bonze Velha",
        "location": {
          "lat": -9.104225699999999,
          "lng": 13.7289167
        },
        "keyAccentLanguage": "bonze_velha"
      },
      {
        "code": 0,
        "type": "City",
        "enNameLanguage": "Cachari",
        "location": {
          "lat": -36.3797013,
          "lng": -59.50296
        },
        "keyAccentLanguage": "cachari"
      },
      {
        "code": 0,
        "type": "City",
        "enNameLanguage": "Bom Jesus",
        "location": {
          "lat": -9.166667,
          "lng": 13.566667
        },
        "keyAccentLanguage": "bom_jesus"
      },
      {
        "code": 0,
        "type": "City",
        "enNameLanguage": "Caxito",
        "location": {
          "lat": -8.582194699999999,
          "lng": 13.6565321
        },
        "keyAccentLanguage": "caxito"
      },
      {
        "code": 0,
        "type": "City",
        "enNameLanguage": "Calunda",
        "location": {
          "lat": -12.13008,
          "lng": 23.46373
        },
        "keyAccentLanguage": "calunda"
      },
      {
        "code": 0,
        "type": "City",
        "enNameLanguage": "Cambingo",
        "location": {
          "lat": -9.8173208,
          "lng": 14.5433149
        },
        "keyAccentLanguage": "cambingo"
      },
      {
        "code": 0,
        "type": "City",
        "enNameLanguage": "Bulo",
        "location": {
          "lat": -9.833333,
          "lng": 14.233333
        },
        "keyAccentLanguage": "bulo"
      },
      {
        "code": 0,
        "type": "City",
        "enNameLanguage": "Chio",
        "location": {
          "lat": -9.846580999999999,
          "lng": 14.04119
        },
        "keyAccentLanguage": "chio"
      },
      {
        "code": 0,
        "type": "City",
        "enNameLanguage": "Camizunzo",
        "location": {
          "lat": -9.049999999999999,
          "lng": 13.65
        },
        "keyAccentLanguage": "camizunzo"
      },
      {
        "code": 0,
        "type": "City",
        "enNameLanguage": "Mabubas",
        "location": {
          "lat": -8.525919,
          "lng": 13.68627
        },
        "keyAccentLanguage": "mabubas"
      },
      {
        "code": 0,
        "type": "City",
        "enNameLanguage": "Cacharandanda",
        "location": {
          "lat": -10.2,
          "lng": 13.833333
        },
        "keyAccentLanguage": "cacharandanda"
      },
      {
        "code": 0,
        "type": "City",
        "enNameLanguage": "Cage",
        "location": {
          "lat": -8.316666999999999,
          "lng": 14.35
        },
        "keyAccentLanguage": "cage"
      },
      {
        "code": 0,
        "type": "City",
        "enNameLanguage": "Cacula",
        "location": {
          "lat": -9.733333,
          "lng": 13.533333
        },
        "keyAccentLanguage": "cacula"
      },
      {
        "code": 0,
        "type": "City",
        "enNameLanguage": "Cabianda",
        "location": {
          "lat": 45.6590679,
          "lng": 10.6226981
        },
        "keyAccentLanguage": "cabianda"
      },
      {
        "code": 0,
        "type": "City",
        "enNameLanguage": "Cambo",
        "location": {
          "lat": -10.1,
          "lng": 13.983333
        },
        "keyAccentLanguage": "cambo"
      },
      {
        "code": 0,
        "type": "City",
        "enNameLanguage": "Candumbo",
        "location": {
          "lat": -10.266667,
          "lng": 14.1
        },
        "keyAccentLanguage": "candumbo"
      },
      {
        "code": 0,
        "type": "City",
        "enNameLanguage": "Acucareira",
        "location": {
          "lat": -8.5959753,
          "lng": 13.60878
        },
        "keyAccentLanguage": "acucareira"
      },
      {
        "code": 0,
        "type": "City",
        "enNameLanguage": "Mucondo",
        "location": {
          "lat": -7.566667,
          "lng": 15.016667
        },
        "keyAccentLanguage": "mucondo"
      },
      {
        "code": 0,
        "type": "City",
        "enNameLanguage": "Canacassala",
        "location": {
          "lat": -8.162709999999999,
          "lng": 14.1168533
        },
        "keyAccentLanguage": "canacassala"
      },
      {
        "code": 0,
        "type": "City",
        "enNameLanguage": "Barra do Cuanza",
        "location": {
          "lat": -9.104225699999999,
          "lng": 13.7289167
        },
        "keyAccentLanguage": "barra_do_cuanza"
      },
      {
        "code": 0,
        "type": "City",
        "enNameLanguage": "Catete",
        "location": {
          "lat": -9.111171299999999,
          "lng": 13.6883765
        },
        "keyAccentLanguage": "catete"
      },
      {
        "code": 0,
        "type": "City",
        "enNameLanguage": "Caculo Caango",
        "location": {
          "lat": -9.733333,
          "lng": 13.533333
        },
        "keyAccentLanguage": "caculo_caango"
      },
      {
        "code": 0,
        "type": "City",
        "enNameLanguage": "Quixinge",
        "location": {
          "lat": -9.9608005,
          "lng": 14.4238385
        },
        "keyAccentLanguage": "quixinge"
      },
      {
        "code": 0,
        "type": "City",
        "enNameLanguage": "Muxaluando",
        "location": {
          "lat": -7.9847643,
          "lng": 14.2477871
        },
        "keyAccentLanguage": "muxaluando"
      },
      {
        "code": 0,
        "type": "City",
        "enNameLanguage": "Quicabo",
        "location": {
          "lat": -8.317952,
          "lng": 13.83311
        },
        "keyAccentLanguage": "quicabo"
      },
      {
        "code": 0,
        "type": "City",
        "enNameLanguage": "Assoxa",
        "location": {
          "lat": -9.95,
          "lng": 14.283333
        },
        "keyAccentLanguage": "assoxa"
      },
      {
        "code": 0,
        "type": "City",
        "enNameLanguage": "Cambambi",
        "location": {
          "lat": -9.7490652,
          "lng": 14.5130967
        },
        "keyAccentLanguage": "cambambi"
      },
      {
        "code": 0,
        "type": "City",
        "enNameLanguage": "Quimbumbe",
        "location": {
          "lat": -7.873593,
          "lng": 14.05444
        },
        "keyAccentLanguage": "quimbumbe"
      },
      {
        "code": 0,
        "type": "City",
        "enNameLanguage": "Boa Vista",
        "location": {
          "lat": 2.8206339,
          "lng": -60.6737553
        },
        "keyAccentLanguage": "boa_vista"
      },
      {
        "code": 0,
        "type": "City",
        "enNameLanguage": "Calanda",
        "location": {
          "lat": 40.9407849,
          "lng": -0.2315018
        },
        "keyAccentLanguage": "calanda"
      },
      {
        "code": 0,
        "type": "City",
        "enNameLanguage": "Cando",
        "location": {
          "lat": -9.867,
          "lng": 14.333
        },
        "keyAccentLanguage": "cando"
      },
      {
        "code": 0,
        "type": "City",
        "enNameLanguage": "Sta. Filomena",
        "location": {
          "lat": -8.575,
          "lng": 14.307
        },
        "keyAccentLanguage": "sta._filomena"
      },
      {
        "code": 0,
        "type": "City",
        "enNameLanguage": "Caitete",
        "location": {
          "lat": -9.867,
          "lng": 13.733
        },
        "keyAccentLanguage": "caitete"
      },
      {
        "code": 0,
        "type": "City",
        "enNameLanguage": "Canhonga",
        "location": {
          "lat": -8.75,
          "lng": 13.833
        },
        "keyAccentLanguage": "canhonga"
      },
      {
        "code": 0,
        "type": "City",
        "enNameLanguage": "Calengue",
        "location": {
          "lat": -8.931,
          "lng": 13.689
        },
        "keyAccentLanguage": "calengue"
      },
      {
        "code": 0,
        "type": "City",
        "enNameLanguage": "Cambale",
        "location": {
          "lat": -9.433,
          "lng": 13.65
        },
        "keyAccentLanguage": "cambale"
      },
      {
        "code": 0,
        "type": "City",
        "enNameLanguage": "Cachamba",
        "location": {
          "lat": -9.233,
          "lng": 14.05
        },
        "keyAccentLanguage": "cachamba"
      },
      {
        "code": 0,
        "type": "City",
        "enNameLanguage": "Bumba",
        "location": {
          "lat": -9.417,
          "lng": 13.9
        },
        "keyAccentLanguage": "bumba"
      },
      {
        "code": 0,
        "type": "City",
        "enNameLanguage": "Cabumba",
        "location": {
          "lat": -9.667,
          "lng": 14.267
        },
        "keyAccentLanguage": "cabumba"
      },
      {
        "code": 0,
        "type": "City",
        "enNameLanguage": "Dondo",
        "location": {
          "lat": -9.696,
          "lng": 14.427
        },
        "keyAccentLanguage": "dondo"
      },
      {
        "code": 0,
        "type": "City",
        "enNameLanguage": "Cabungo",
        "location": {
          "lat": -8.574,
          "lng": 13.543
        },
        "keyAccentLanguage": "cabungo"
      },
      {
        "code": 0,
        "type": "City",
        "enNameLanguage": "Bambe",
        "location": {
          "lat": -9.25,
          "lng": 13.433
        },
        "keyAccentLanguage": "bambe"
      },
      {
        "code": 0,
        "type": "City",
        "enNameLanguage": "Ilha",
        "location": {
          "lat": -9.043,
          "lng": 13.574
        },
        "keyAccentLanguage": "ilha"
      },
      {
        "code": 0,
        "type": "City",
        "enNameLanguage": "Quimanoxe",
        "location": {
          "lat": -8.25,
          "lng": 14.328
        },
        "keyAccentLanguage": "quimanoxe"
      },
      {
        "code": 0,
        "type": "City",
        "enNameLanguage": "Cacoba",
        "location": {
          "lat": -9.282,
          "lng": 13.743
        },
        "keyAccentLanguage": "cacoba"
      },
      {
        "code": 0,
        "type": "City",
        "enNameLanguage": "Cananga",
        "location": {
          "lat": -8.89,
          "lng": 13.571
        },
        "keyAccentLanguage": "cananga"
      },
      {
        "code": 0,
        "type": "City",
        "enNameLanguage": "Tari",
        "location": {
          "lat": -8.583,
          "lng": 13.916
        },
        "keyAccentLanguage": "tari"
      },
      {
        "code": 0,
        "type": "City",
        "enNameLanguage": "Bispo",
        "location": {
          "lat": -8.591,
          "lng": 13.646
        },
        "keyAccentLanguage": "bispo"
      },
      {
        "code": 0,
        "type": "City",
        "enNameLanguage": "Baia",
        "location": {
          "lat": -8.967,
          "lng": 13.65
        },
        "keyAccentLanguage": "baia"
      },
      {
        "code": 0,
        "type": "City",
        "enNameLanguage": "Cabocha",
        "location": {
          "lat": -8.584,
          "lng": 13.673
        },
        "keyAccentLanguage": "cabocha"
      },
      {
        "code": 0,
        "type": "City",
        "enNameLanguage": "Candange",
        "location": {
          "lat": -9.7,
          "lng": 14.417
        },
        "keyAccentLanguage": "candange"
      },
      {
        "code": 0,
        "type": "City",
        "enNameLanguage": "Mucolo",
        "location": {
          "lat": -9.559,
          "lng": 13.682
        },
        "keyAccentLanguage": "mucolo"
      },
      {
        "code": 0,
        "type": "City",
        "enNameLanguage": "Candemba",
        "location": {
          "lat": -9.883,
          "lng": 14.533
        },
        "keyAccentLanguage": "candemba"
      },
      {
        "code": 0,
        "type": "City",
        "enNameLanguage": "Caiengue",
        "location": {
          "lat": -8.133,
          "lng": 14.167
        },
        "keyAccentLanguage": "caiengue"
      },
      {
        "code": 0,
        "type": "City",
        "enNameLanguage": "Cainge",
        "location": {
          "lat": -9.267,
          "lng": 13.9
        },
        "keyAccentLanguage": "cainge"
      }
    ],
    "enNameLanguage": "Bengo",
    "keyAccentLanguage": "bengo"
  },
  {
    "code": 0,
    "type": "State",
    "location": {
      "lat": -12.5905158,
      "lng": 13.416501
    },
    "districtList": [
      {
        "code": 0,
        "type": "City",
        "enNameLanguage": "Benguela",
        "location": {
          "lat": -12.5905158,
          "lng": 13.416501
        },
        "keyAccentLanguage": "benguela"
      },
      {
        "code": 0,
        "type": "City",
        "enNameLanguage": "Santa Maria",
        "location": {
          "lat": -12.5905158,
          "lng": 13.416501
        },
        "keyAccentLanguage": "santa_maria"
      },
      {
        "code": 0,
        "type": "City",
        "enNameLanguage": "Saco",
        "location": {
          "lat": -12.5905158,
          "lng": 13.416501
        },
        "keyAccentLanguage": "saco"
      },
      {
        "code": 0,
        "type": "City",
        "enNameLanguage": "Acumba",
        "location": {
          "lat": -12.5905158,
          "lng": 13.416501
        },
        "keyAccentLanguage": "acumba"
      },
      {
        "code": 0,
        "type": "City",
        "enNameLanguage": "Buta",
        "location": {
          "lat": -12.5905158,
          "lng": 13.416501
        },
        "keyAccentLanguage": "buta"
      },
      {
        "code": 0,
        "type": "City",
        "enNameLanguage": "Anganga",
        "location": {
          "lat": -12.5905158,
          "lng": 13.416501
        },
        "keyAccentLanguage": "anganga"
      },
      {
        "code": 0,
        "type": "City",
        "enNameLanguage": "Armando",
        "location": {
          "lat": -12.183333,
          "lng": 14.8
        },
        "keyAccentLanguage": "armando"
      },
      {
        "code": 0,
        "type": "City",
        "enNameLanguage": "Alto Catumbela",
        "location": {
          "lat": -12.4211276,
          "lng": 13.5494757
        },
        "keyAccentLanguage": "alto_catumbela"
      },
      {
        "code": 0,
        "type": "City",
        "enNameLanguage": "Barata",
        "location": {
          "lat": -12.5905158,
          "lng": 13.416501
        },
        "keyAccentLanguage": "barata"
      },
      {
        "code": 0,
        "type": "City",
        "enNameLanguage": "1.0 de Maio",
        "location": {
          "lat": -12.5905158,
          "lng": 13.416501
        },
        "keyAccentLanguage": "1.0_de_maio"
      },
      {
        "code": 0,
        "type": "City",
        "enNameLanguage": "Bungo",
        "location": {
          "lat": -12.5905158,
          "lng": 13.416501
        },
        "keyAccentLanguage": "bungo"
      },
      {
        "code": 0,
        "type": "City",
        "enNameLanguage": "Bambi",
        "location": {
          "lat": -12.5905158,
          "lng": 13.416501
        },
        "keyAccentLanguage": "bambi"
      },
      {
        "code": 0,
        "type": "City",
        "enNameLanguage": "Bicando",
        "location": {
          "lat": -12.5905158,
          "lng": 13.416501
        },
        "keyAccentLanguage": "bicando"
      },
      {
        "code": 0,
        "type": "City",
        "enNameLanguage": "Antonio",
        "location": {
          "lat": -12.5905158,
          "lng": 13.416501
        },
        "keyAccentLanguage": "antonio"
      },
      {
        "code": 0,
        "type": "City",
        "enNameLanguage": "Anhanga",
        "location": {
          "lat": -12.5905158,
          "lng": 13.416501
        },
        "keyAccentLanguage": "anhanga"
      },
      {
        "code": 0,
        "type": "City",
        "enNameLanguage": "Bumba",
        "location": {
          "lat": -12.066667,
          "lng": 14.266667
        },
        "keyAccentLanguage": "bumba"
      },
      {
        "code": 0,
        "type": "City",
        "enNameLanguage": "Cacau",
        "location": {
          "lat": -12.5905158,
          "lng": 13.416501
        },
        "keyAccentLanguage": "cacau"
      },
      {
        "code": 0,
        "type": "City",
        "enNameLanguage": "Amendoa",
        "location": {
          "lat": -12.5905158,
          "lng": 13.416501
        },
        "keyAccentLanguage": "amendoa"
      },
      {
        "code": 0,
        "type": "City",
        "enNameLanguage": "Balombo",
        "location": {
          "lat": -12.3536727,
          "lng": 14.7725134
        },
        "keyAccentLanguage": "balombo"
      },
      {
        "code": 0,
        "type": "City",
        "enNameLanguage": "Amera",
        "location": {
          "lat": -12.5905158,
          "lng": 13.416501
        },
        "keyAccentLanguage": "amera"
      },
      {
        "code": 0,
        "type": "City",
        "enNameLanguage": "Cacombo",
        "location": {
          "lat": -12.5905158,
          "lng": 13.416501
        },
        "keyAccentLanguage": "cacombo"
      },
      {
        "code": 0,
        "type": "City",
        "enNameLanguage": "Baia Azul",
        "location": {
          "lat": -12.6282975,
          "lng": 13.234155
        },
        "keyAccentLanguage": "baia_azul"
      },
      {
        "code": 0,
        "type": "City",
        "enNameLanguage": "Balabaia",
        "location": {
          "lat": -12.5905158,
          "lng": 13.416501
        },
        "keyAccentLanguage": "balabaia"
      },
      {
        "code": 0,
        "type": "City",
        "enNameLanguage": "Aguerguei",
        "location": {
          "lat": -12.5905158,
          "lng": 13.416501
        },
        "keyAccentLanguage": "aguerguei"
      },
      {
        "code": 0,
        "type": "City",
        "enNameLanguage": "Baia Farta",
        "location": {
          "lat": -12.6101319,
          "lng": 13.1942224
        },
        "keyAccentLanguage": "baia_farta"
      },
      {
        "code": 0,
        "type": "City",
        "enNameLanguage": "Banja",
        "location": {
          "lat": -12.5905158,
          "lng": 13.416501
        },
        "keyAccentLanguage": "banja"
      },
      {
        "code": 0,
        "type": "City",
        "enNameLanguage": "Cabinchia",
        "location": {
          "lat": -12.5905158,
          "lng": 13.416501
        },
        "keyAccentLanguage": "cabinchia"
      },
      {
        "code": 0,
        "type": "City",
        "enNameLanguage": "Ampara",
        "location": {
          "lat": -12.5905158,
          "lng": 13.416501
        },
        "keyAccentLanguage": "ampara"
      },
      {
        "code": 0,
        "type": "City",
        "enNameLanguage": "Binge Novo",
        "location": {
          "lat": -12.5905158,
          "lng": 13.416501
        },
        "keyAccentLanguage": "binge_novo"
      },
      {
        "code": 0,
        "type": "City",
        "enNameLanguage": "Bolonguera",
        "location": {
          "lat": -13.55,
          "lng": 13.583333
        },
        "keyAccentLanguage": "bolonguera"
      },
      {
        "code": 0,
        "type": "City",
        "enNameLanguage": "Aldeia do Biopio",
        "location": {
          "lat": -12.46374,
          "lng": 13.73313
        },
        "keyAccentLanguage": "aldeia_do_biopio"
      },
      {
        "code": 0,
        "type": "City",
        "enNameLanguage": "Cacandala",
        "location": {
          "lat": -12.5905158,
          "lng": 13.416501
        },
        "keyAccentLanguage": "cacandala"
      },
      {
        "code": 0,
        "type": "City",
        "enNameLanguage": "Asseque",
        "location": {
          "lat": -12.5963999,
          "lng": 13.4597
        },
        "keyAccentLanguage": "asseque"
      },
      {
        "code": 0,
        "type": "City",
        "enNameLanguage": "Lua",
        "location": {
          "lat": -12.5905158,
          "lng": 13.416501
        },
        "keyAccentLanguage": "lua"
      },
      {
        "code": 0,
        "type": "City",
        "enNameLanguage": "Bandua",
        "location": {
          "lat": -12.45,
          "lng": 14.8
        },
        "keyAccentLanguage": "bandua"
      },
      {
        "code": 0,
        "type": "City",
        "enNameLanguage": "Tapado",
        "location": {
          "lat": -12.5905158,
          "lng": 13.416501
        },
        "keyAccentLanguage": "tapado"
      },
      {
        "code": 0,
        "type": "City",
        "enNameLanguage": "Bandoca",
        "location": {
          "lat": -12.75,
          "lng": 14.45
        },
        "keyAccentLanguage": "bandoca"
      },
      {
        "code": 0,
        "type": "City",
        "enNameLanguage": "Alto Capaca",
        "location": {
          "lat": -12.95,
          "lng": 14.45
        },
        "keyAccentLanguage": "alto_capaca"
      },
      {
        "code": 0,
        "type": "City",
        "enNameLanguage": "Binga",
        "location": {
          "lat": -13.34841,
          "lng": 12.65591
        },
        "keyAccentLanguage": "binga"
      },
      {
        "code": 0,
        "type": "City",
        "enNameLanguage": "Catumbela",
        "location": {
          "lat": -12.4211276,
          "lng": 13.5494757
        },
        "keyAccentLanguage": "catumbela"
      },
      {
        "code": 0,
        "type": "City",
        "enNameLanguage": "Caata",
        "location": {
          "lat": -12.5905158,
          "lng": 13.416501
        },
        "keyAccentLanguage": "caata"
      },
      {
        "code": 0,
        "type": "City",
        "enNameLanguage": "Himba",
        "location": {
          "lat": -12.5905158,
          "lng": 13.416501
        },
        "keyAccentLanguage": "himba"
      },
      {
        "code": 0,
        "type": "City",
        "enNameLanguage": "Aula",
        "location": {
          "lat": -12.5905158,
          "lng": 13.416501
        },
        "keyAccentLanguage": "aula"
      },
      {
        "code": 0,
        "type": "City",
        "enNameLanguage": "Bulo-Bulo",
        "location": {
          "lat": -12.5905158,
          "lng": 13.416501
        },
        "keyAccentLanguage": "bulo-bulo"
      },
      {
        "code": 0,
        "type": "City",
        "enNameLanguage": "Cabio",
        "location": {
          "lat": -12.5905158,
          "lng": 13.416501
        },
        "keyAccentLanguage": "cabio"
      },
      {
        "code": 0,
        "type": "City",
        "enNameLanguage": "Cambondongolo",
        "location": {
          "lat": -12.5905158,
          "lng": 13.416501
        },
        "keyAccentLanguage": "cambondongolo"
      },
      {
        "code": 0,
        "type": "City",
        "enNameLanguage": "Cabiche-Chilele",
        "location": {
          "lat": -12.5905158,
          "lng": 13.416501
        },
        "keyAccentLanguage": "cabiche-chilele"
      },
      {
        "code": 0,
        "type": "City",
        "enNameLanguage": "Cacala",
        "location": {
          "lat": -12.5905158,
          "lng": 13.416501
        },
        "keyAccentLanguage": "cacala"
      },
      {
        "code": 0,
        "type": "City",
        "enNameLanguage": "Londengo",
        "location": {
          "lat": -12.3939294,
          "lng": 13.8990132
        },
        "keyAccentLanguage": "londengo"
      },
      {
        "code": 0,
        "type": "City",
        "enNameLanguage": "S. Jorge",
        "location": {
          "lat": -12.5905158,
          "lng": 13.416501
        },
        "keyAccentLanguage": "s._jorge"
      },
      {
        "code": 0,
        "type": "City",
        "enNameLanguage": "Chipupe",
        "location": {
          "lat": -12.5905158,
          "lng": 13.416501
        },
        "keyAccentLanguage": "chipupe"
      },
      {
        "code": 0,
        "type": "City",
        "enNameLanguage": "Choundo",
        "location": {
          "lat": -12.5905158,
          "lng": 13.416501
        },
        "keyAccentLanguage": "choundo"
      },
      {
        "code": 0,
        "type": "City",
        "enNameLanguage": "Babaera",
        "location": {
          "lat": -12.8997553,
          "lng": 14.8016887
        },
        "keyAccentLanguage": "babaera"
      },
      {
        "code": 0,
        "type": "City",
        "enNameLanguage": "Calaange",
        "location": {
          "lat": -13.22198,
          "lng": 13.49156
        },
        "keyAccentLanguage": "calaange"
      },
      {
        "code": 0,
        "type": "City",
        "enNameLanguage": "Caala",
        "location": {
          "lat": -12.5905158,
          "lng": 13.416501
        },
        "keyAccentLanguage": "caala"
      },
      {
        "code": 0,
        "type": "City",
        "enNameLanguage": "Caiandula",
        "location": {
          "lat": -12.5905158,
          "lng": 13.416501
        },
        "keyAccentLanguage": "caiandula"
      },
      {
        "code": 0,
        "type": "City",
        "enNameLanguage": "Catengue",
        "location": {
          "lat": -13.02608,
          "lng": 13.74093
        },
        "keyAccentLanguage": "catengue"
      },
      {
        "code": 0,
        "type": "City",
        "enNameLanguage": "Cabindondo",
        "location": {
          "lat": -13.066667,
          "lng": 13.183333
        },
        "keyAccentLanguage": "cabindondo"
      },
      {
        "code": 0,
        "type": "City",
        "enNameLanguage": "Dende",
        "location": {
          "lat": -12.5905158,
          "lng": 13.416501
        },
        "keyAccentLanguage": "dende"
      },
      {
        "code": 0,
        "type": "City",
        "enNameLanguage": "Capala",
        "location": {
          "lat": -13.61475,
          "lng": 14.71552
        },
        "keyAccentLanguage": "capala"
      },
      {
        "code": 0,
        "type": "City",
        "enNameLanguage": "St. Antonio",
        "location": {
          "lat": -12.5905158,
          "lng": 13.416501
        },
        "keyAccentLanguage": "st._antonio"
      },
      {
        "code": 0,
        "type": "City",
        "enNameLanguage": "Hanja",
        "location": {
          "lat": -12.5905158,
          "lng": 13.416501
        },
        "keyAccentLanguage": "hanja"
      },
      {
        "code": 0,
        "type": "City",
        "enNameLanguage": "Calucula",
        "location": {
          "lat": -12.9,
          "lng": 14.083333
        },
        "keyAccentLanguage": "calucula"
      },
      {
        "code": 0,
        "type": "City",
        "enNameLanguage": "Capaco",
        "location": {
          "lat": -12.5905158,
          "lng": 13.416501
        },
        "keyAccentLanguage": "capaco"
      },
      {
        "code": 0,
        "type": "City",
        "enNameLanguage": "Apupo",
        "location": {
          "lat": -12.633333,
          "lng": 14.066667
        },
        "keyAccentLanguage": "apupo"
      },
      {
        "code": 0,
        "type": "City",
        "enNameLanguage": "Branca",
        "location": {
          "lat": -12.5905158,
          "lng": 13.416501
        },
        "keyAccentLanguage": "branca"
      },
      {
        "code": 0,
        "type": "City",
        "enNameLanguage": "Luvango",
        "location": {
          "lat": -12.5905158,
          "lng": 13.416501
        },
        "keyAccentLanguage": "luvango"
      },
      {
        "code": 0,
        "type": "City",
        "enNameLanguage": "Chiculo",
        "location": {
          "lat": -12.3250675,
          "lng": 14.9728177
        },
        "keyAccentLanguage": "chiculo"
      },
      {
        "code": 0,
        "type": "City",
        "enNameLanguage": "Bamba do Bissonde",
        "location": {
          "lat": -12.45,
          "lng": 13.65
        },
        "keyAccentLanguage": "bamba_do_bissonde"
      },
      {
        "code": 0,
        "type": "City",
        "enNameLanguage": "Bulocochina",
        "location": {
          "lat": -12.733333,
          "lng": 14.183333
        },
        "keyAccentLanguage": "bulocochina"
      },
      {
        "code": 0,
        "type": "City",
        "enNameLanguage": "Chicuma",
        "location": {
          "lat": -13.42936,
          "lng": 14.87187
        },
        "keyAccentLanguage": "chicuma"
      },
      {
        "code": 0,
        "type": "City",
        "enNameLanguage": "S. Cristovia",
        "location": {
          "lat": -12.5905158,
          "lng": 13.416501
        },
        "keyAccentLanguage": "s._cristovia"
      },
      {
        "code": 0,
        "type": "City",
        "enNameLanguage": "Bocoio",
        "location": {
          "lat": -12.46388,
          "lng": 14.16529
        },
        "keyAccentLanguage": "bocoio"
      },
      {
        "code": 0,
        "type": "City",
        "enNameLanguage": "Bimbas",
        "location": {
          "lat": -12.5848738,
          "lng": 13.4025126
        },
        "keyAccentLanguage": "bimbas"
      },
      {
        "code": 0,
        "type": "City",
        "enNameLanguage": "Bipaco",
        "location": {
          "lat": -12.4,
          "lng": 13.966667
        },
        "keyAccentLanguage": "bipaco"
      },
      {
        "code": 0,
        "type": "City",
        "enNameLanguage": "Caota",
        "location": {
          "lat": -12.59791,
          "lng": 13.2753599
        },
        "keyAccentLanguage": "caota"
      },
      {
        "code": 0,
        "type": "City",
        "enNameLanguage": "Coruteva",
        "location": {
          "lat": -12.5905158,
          "lng": 13.416501
        },
        "keyAccentLanguage": "coruteva"
      },
      {
        "code": 0,
        "type": "City",
        "enNameLanguage": "Chila",
        "location": {
          "lat": -12.07171,
          "lng": 14.49103
        },
        "keyAccentLanguage": "chila"
      },
      {
        "code": 0,
        "type": "City",
        "enNameLanguage": "Cubal",
        "location": {
          "lat": -13.0403695,
          "lng": 14.2512221
        },
        "keyAccentLanguage": "cubal"
      },
      {
        "code": 0,
        "type": "City",
        "enNameLanguage": "Malongo",
        "location": {
          "lat": -12.5905158,
          "lng": 13.416501
        },
        "keyAccentLanguage": "malongo"
      },
      {
        "code": 0,
        "type": "City",
        "enNameLanguage": "Chimelundo",
        "location": {
          "lat": -12.68525,
          "lng": 13.63795
        },
        "keyAccentLanguage": "chimelundo"
      },
      {
        "code": 0,
        "type": "City",
        "enNameLanguage": "Chiqueque",
        "location": {
          "lat": -12.5905158,
          "lng": 13.416501
        },
        "keyAccentLanguage": "chiqueque"
      },
      {
        "code": 0,
        "type": "City",
        "enNameLanguage": "Ebanga",
        "location": {
          "lat": -12.73517,
          "lng": 14.73604
        },
        "keyAccentLanguage": "ebanga"
      },
      {
        "code": 0,
        "type": "City",
        "enNameLanguage": "Venus",
        "location": {
          "lat": -12.5905158,
          "lng": 13.416501
        },
        "keyAccentLanguage": "venus"
      },
      {
        "code": 0,
        "type": "City",
        "enNameLanguage": "Ualaula",
        "location": {
          "lat": -12.5905158,
          "lng": 13.416501
        },
        "keyAccentLanguage": "ualaula"
      },
      {
        "code": 0,
        "type": "City",
        "enNameLanguage": "Chongoroi",
        "location": {
          "lat": -13.5776563,
          "lng": 13.9419531
        },
        "keyAccentLanguage": "chongoroi"
      },
      {
        "code": 0,
        "type": "City",
        "enNameLanguage": "St. Andre",
        "location": {
          "lat": -12.5905158,
          "lng": 13.416501
        },
        "keyAccentLanguage": "st._andre"
      },
      {
        "code": 0,
        "type": "City",
        "enNameLanguage": "Dombe Grande",
        "location": {
          "lat": -12.9498166,
          "lng": 13.0990809
        },
        "keyAccentLanguage": "dombe_grande"
      },
      {
        "code": 0,
        "type": "City",
        "enNameLanguage": "Ganda",
        "location": {
          "lat": -13.0245773,
          "lng": 14.6296338
        },
        "keyAccentLanguage": "ganda"
      },
      {
        "code": 0,
        "type": "City",
        "enNameLanguage": "Chingongo",
        "location": {
          "lat": -12.3195592,
          "lng": 14.5119158
        },
        "keyAccentLanguage": "chingongo"
      },
      {
        "code": 0,
        "type": "City",
        "enNameLanguage": "Passe",
        "location": {
          "lat": -12.5715915,
          "lng": 13.9572545
        },
        "keyAccentLanguage": "passe"
      },
      {
        "code": 0,
        "type": "City",
        "enNameLanguage": "Cimo",
        "location": {
          "lat": -13.331,
          "lng": 12.9362
        },
        "keyAccentLanguage": "cimo"
      },
      {
        "code": 0,
        "type": "City",
        "enNameLanguage": "Lobito",
        "location": {
          "lat": -12.3757287,
          "lng": 13.5610451
        },
        "keyAccentLanguage": "lobito"
      },
      {
        "code": 0,
        "type": "City",
        "enNameLanguage": "Cateque Saieiro",
        "location": {
          "lat": -12.47635,
          "lng": 14.04006
        },
        "keyAccentLanguage": "cateque_saieiro"
      },
      {
        "code": 0,
        "type": "City",
        "enNameLanguage": "Chicuma",
        "location": {
          "lat": -13.42936,
          "lng": 14.87187
        },
        "keyAccentLanguage": "chicuma"
      },
      {
        "code": 0,
        "type": "City",
        "enNameLanguage": "Coporolo",
        "location": {
          "lat": -13.02698438227434,
          "lng": 13.19158541430592
        },
        "keyAccentLanguage": "coporolo"
      },
      {
        "code": 0,
        "type": "City",
        "enNameLanguage": "Equimina",
        "location": {
          "lat": -13.19941,
          "lng": 12.79224
        },
        "keyAccentLanguage": "equimina"
      },
      {
        "code": 0,
        "type": "City",
        "enNameLanguage": "Monte Belo",
        "location": {
          "lat": -12.4183659,
          "lng": 14.3946927
        },
        "keyAccentLanguage": "monte_belo"
      },
      {
        "code": 0,
        "type": "City",
        "enNameLanguage": "Nhime",
        "location": {
          "lat": -13.1,
          "lng": 12.883333
        },
        "keyAccentLanguage": "nhime"
      },
      {
        "code": 0,
        "type": "City",
        "enNameLanguage": "Egito Praia",
        "location": {
          "lat": -11.9616826,
          "lng": 13.7641903
        },
        "keyAccentLanguage": "egito_praia"
      }
    ],
    "enNameLanguage": "Benguela",
    "keyAccentLanguage": "benguela"
  },
  {
    "code": 0,
    "type": "State",
    "location": {
      "lat": -12.4012884,
      "lng": 16.9329375
    },
    "districtList": [
      {
        "code": 0,
        "type": "City",
        "enNameLanguage": "Quisseia",
        "location": {
          "lat": -13.133333,
          "lng": 16.9
        },
        "keyAccentLanguage": "quisseia"
      },
      {
        "code": 0,
        "type": "City",
        "enNameLanguage": "Dando",
        "location": {
          "lat": -12.5727907,
          "lng": 17.668887
        },
        "keyAccentLanguage": "dando"
      },
      {
        "code": 0,
        "type": "City",
        "enNameLanguage": "Caiei",
        "location": {
          "lat": -23.362065,
          "lng": -46.7466172
        },
        "keyAccentLanguage": "caiei"
      },
      {
        "code": 0,
        "type": "City",
        "enNameLanguage": "Belo Horizonte",
        "location": {
          "lat": -11.91496,
          "lng": 16.899111
        },
        "keyAccentLanguage": "belo_horizonte"
      },
      {
        "code": 0,
        "type": "City",
        "enNameLanguage": "Calucinga",
        "location": {
          "lat": -11.3225542,
          "lng": 16.2022072
        },
        "keyAccentLanguage": "calucinga"
      },
      {
        "code": 0,
        "type": "City",
        "enNameLanguage": "Caar",
        "location": {
          "lat": -12.05,
          "lng": 18.283333
        },
        "keyAccentLanguage": "caar"
      },
      {
        "code": 0,
        "type": "City",
        "enNameLanguage": "Cachingues",
        "location": {
          "lat": -13.07215,
          "lng": 16.74255
        },
        "keyAccentLanguage": "cachingues"
      },
      {
        "code": 0,
        "type": "City",
        "enNameLanguage": "Chiculungo",
        "location": {
          "lat": -11.66867,
          "lng": 17.25065
        },
        "keyAccentLanguage": "chiculungo"
      },
      {
        "code": 0,
        "type": "City",
        "enNameLanguage": "Cassoco",
        "location": {
          "lat": -12.4833333,
          "lng": 15.5833333
        },
        "keyAccentLanguage": "cassoco"
      },
      {
        "code": 0,
        "type": "City",
        "enNameLanguage": "Cangengo",
        "location": {
          "lat": -11.93333,
          "lng": 17.05562
        },
        "keyAccentLanguage": "cangengo"
      },
      {
        "code": 0,
        "type": "City",
        "enNameLanguage": "Chivaulo",
        "location": {
          "lat": -11.6348965,
          "lng": 16.4714356
        },
        "keyAccentLanguage": "chivaulo"
      },
      {
        "code": 0,
        "type": "City",
        "enNameLanguage": "Buanga",
        "location": {
          "lat": -11.52265,
          "lng": 16.441031
        },
        "keyAccentLanguage": "buanga"
      },
      {
        "code": 0,
        "type": "City",
        "enNameLanguage": "Andulo",
        "location": {
          "lat": -11.48374,
          "lng": 16.6939803
        },
        "keyAccentLanguage": "andulo"
      },
      {
        "code": 0,
        "type": "City",
        "enNameLanguage": "Chinguar",
        "location": {
          "lat": -12.5623571,
          "lng": 16.3375493
        },
        "keyAccentLanguage": "chinguar"
      },
      {
        "code": 0,
        "type": "City",
        "enNameLanguage": "N'harea",
        "location": {
          "lat": -11.467734,
          "lng": 16.9653756
        },
        "keyAccentLanguage": "n'harea"
      },
      {
        "code": 0,
        "type": "City",
        "enNameLanguage": "Munhango",
        "location": {
          "lat": -12.1574002,
          "lng": 18.5552215
        },
        "keyAccentLanguage": "munhango"
      },
      {
        "code": 0,
        "type": "City",
        "enNameLanguage": "Capeio",
        "location": {
          "lat": -12.333333,
          "lng": 16.716667
        },
        "keyAccentLanguage": "capeio"
      },
      {
        "code": 0,
        "type": "City",
        "enNameLanguage": "Camacupa",
        "location": {
          "lat": -12.0181443,
          "lng": 17.4736016
        },
        "keyAccentLanguage": "camacupa"
      },
      {
        "code": 0,
        "type": "City",
        "enNameLanguage": "Kuito",
        "location": {
          "lat": -12.3940412,
          "lng": 16.9417632
        },
        "keyAccentLanguage": "kuito"
      },
      {
        "code": 0,
        "type": "City",
        "enNameLanguage": "Cangote",
        "location": {
          "lat": -12.730405,
          "lng": 16.6349715
        },
        "keyAccentLanguage": "cangote"
      },
      {
        "code": 0,
        "type": "City",
        "enNameLanguage": "Chitau",
        "location": {
          "lat": -11.41635,
          "lng": 17.155001
        },
        "keyAccentLanguage": "chitau"
      },
      {
        "code": 0,
        "type": "City",
        "enNameLanguage": "Dumba-Langala",
        "location": {
          "lat": -12.5727907,
          "lng": 17.668887
        },
        "keyAccentLanguage": "dumba-langala"
      },
      {
        "code": 0,
        "type": "City",
        "enNameLanguage": "Chiteque",
        "location": {
          "lat": -12.28155,
          "lng": 17.77709
        },
        "keyAccentLanguage": "chiteque"
      },
      {
        "code": 0,
        "type": "City",
        "enNameLanguage": "Chicala",
        "location": {
          "lat": -12.80601,
          "lng": 17.06181
        },
        "keyAccentLanguage": "chicala"
      },
      {
        "code": 0,
        "type": "City",
        "enNameLanguage": "Cauende",
        "location": {
          "lat": -13.13252,
          "lng": 16.614679
        },
        "keyAccentLanguage": "cauende"
      },
      {
        "code": 0,
        "type": "City",
        "enNameLanguage": "Camunda",
        "location": {
          "lat": -11.4525,
          "lng": 17.430861
        },
        "keyAccentLanguage": "camunda"
      },
      {
        "code": 0,
        "type": "City",
        "enNameLanguage": "Cavango",
        "location": {
          "lat": -12.74904,
          "lng": 17.433861
        },
        "keyAccentLanguage": "cavango"
      },
      {
        "code": 0,
        "type": "City",
        "enNameLanguage": "Caluimbe",
        "location": {
          "lat": -11.82234,
          "lng": 17.68693
        },
        "keyAccentLanguage": "caluimbe"
      },
      {
        "code": 0,
        "type": "City",
        "enNameLanguage": "Catota",
        "location": {
          "lat": -13.96001,
          "lng": 17.3871189
        },
        "keyAccentLanguage": "catota"
      },
      {
        "code": 0,
        "type": "City",
        "enNameLanguage": "Catabola",
        "location": {
          "lat": -12.1432701,
          "lng": 17.281417
        },
        "keyAccentLanguage": "catabola"
      },
      {
        "code": 0,
        "type": "City",
        "enNameLanguage": "Lubia",
        "location": {
          "lat": -11.01496,
          "lng": 17.09103
        },
        "keyAccentLanguage": "lubia"
      },
      {
        "code": 0,
        "type": "City",
        "enNameLanguage": "Mingungo",
        "location": {
          "lat": -11.8342641,
          "lng": 17.3504533
        },
        "keyAccentLanguage": "mingungo"
      },
      {
        "code": 0,
        "type": "City",
        "enNameLanguage": "Cassumbe",
        "location": {
          "lat": -11.14217,
          "lng": 16.58333
        },
        "keyAccentLanguage": "cassumbe"
      },
      {
        "code": 0,
        "type": "City",
        "enNameLanguage": "Catenga",
        "location": {
          "lat": -12.1784,
          "lng": 17.5294
        },
        "keyAccentLanguage": "catenga"
      },
      {
        "code": 0,
        "type": "City",
        "enNameLanguage": "Luando",
        "location": {
          "lat": -11.63398,
          "lng": 18.466221
        },
        "keyAccentLanguage": "luando"
      },
      {
        "code": 0,
        "type": "City",
        "enNameLanguage": "Gandavira",
        "location": {
          "lat": -13.16586,
          "lng": 15.8456
        },
        "keyAccentLanguage": "gandavira"
      },
      {
        "code": 0,
        "type": "City",
        "enNameLanguage": "Chivinga",
        "location": {
          "lat": -11.683333,
          "lng": 16.6
        },
        "keyAccentLanguage": "chivinga"
      },
      {
        "code": 0,
        "type": "City",
        "enNameLanguage": "Chitembo",
        "location": {
          "lat": -13.5185249,
          "lng": 16.7529514
        },
        "keyAccentLanguage": "chitembo"
      },
      {
        "code": 0,
        "type": "City",
        "enNameLanguage": "Nhama",
        "location": {
          "lat": -13.866667,
          "lng": 17.433333
        },
        "keyAccentLanguage": "nhama"
      },
      {
        "code": 0,
        "type": "City",
        "enNameLanguage": "Chipeta",
        "location": {
          "lat": -12.2829,
          "lng": 17.13447
        },
        "keyAccentLanguage": "chipeta"
      },
      {
        "code": 0,
        "type": "City",
        "enNameLanguage": "Malengue",
        "location": {
          "lat": -13.91711,
          "lng": 16.814159
        },
        "keyAccentLanguage": "malengue"
      },
      {
        "code": 0,
        "type": "City",
        "enNameLanguage": "Cuemba",
        "location": {
          "lat": -12.1454654,
          "lng": 18.0865424
        },
        "keyAccentLanguage": "cuemba"
      },
      {
        "code": 0,
        "type": "City",
        "enNameLanguage": "Cuanza",
        "location": {
          "lat": -11.98832,
          "lng": 17.64106
        },
        "keyAccentLanguage": "cuanza"
      },
      {
        "code": 0,
        "type": "City",
        "enNameLanguage": "Caninguir",
        "location": {
          "lat": -12.8495899,
          "lng": 17.206671
        },
        "keyAccentLanguage": "caninguir"
      },
      {
        "code": 0,
        "type": "City",
        "enNameLanguage": "Dondeiro",
        "location": {
          "lat": -11.983333,
          "lng": 17
        },
        "keyAccentLanguage": "dondeiro"
      },
      {
        "code": 0,
        "type": "City",
        "enNameLanguage": "Chicundo",
        "location": {
          "lat": -12.66089,
          "lng": 17.561979
        },
        "keyAccentLanguage": "chicundo"
      },
      {
        "code": 0,
        "type": "City",
        "enNameLanguage": "Mumbue",
        "location": {
          "lat": -13.89252,
          "lng": 17.295811
        },
        "keyAccentLanguage": "mumbue"
      },
      {
        "code": 0,
        "type": "City",
        "enNameLanguage": "Sachinemuna",
        "location": {
          "lat": -11.6494133,
          "lng": 17.9757349
        },
        "keyAccentLanguage": "sachinemuna"
      },
      {
        "code": 0,
        "type": "City",
        "enNameLanguage": "Muengo",
        "location": {
          "lat": -12.86185,
          "lng": 16.846781
        },
        "keyAccentLanguage": "muengo"
      },
      {
        "code": 0,
        "type": "City",
        "enNameLanguage": "Cangala",
        "location": {
          "lat": -12.566667,
          "lng": 16.55
        },
        "keyAccentLanguage": "cangala"
      },
      {
        "code": 0,
        "type": "City",
        "enNameLanguage": "Caria",
        "location": {
          "lat": -12.716667,
          "lng": 16.833333
        },
        "keyAccentLanguage": "caria"
      },
      {
        "code": 0,
        "type": "City",
        "enNameLanguage": "Cambandua",
        "location": {
          "lat": -12.51399,
          "lng": 17.329809
        },
        "keyAccentLanguage": "cambandua"
      },
      {
        "code": 0,
        "type": "City",
        "enNameLanguage": "Mutumbo",
        "location": {
          "lat": -13.17353,
          "lng": 17.392599
        },
        "keyAccentLanguage": "mutumbo"
      },
      {
        "code": 0,
        "type": "City",
        "enNameLanguage": "Ringoma",
        "location": {
          "lat": -12.38235,
          "lng": 17.40053
        },
        "keyAccentLanguage": "ringoma"
      },
      {
        "code": 0,
        "type": "City",
        "enNameLanguage": "Candembe",
        "location": {
          "lat": -11.202692,
          "lng": 17.873887
        },
        "keyAccentLanguage": "candembe"
      },
      {
        "code": 0,
        "type": "City",
        "enNameLanguage": "Mundengo",
        "location": {
          "lat": -11.4797222,
          "lng": 17.8791667
        },
        "keyAccentLanguage": "mundengo"
      },
      {
        "code": 0,
        "type": "City",
        "enNameLanguage": "Sussua",
        "location": {
          "lat": -11.48902,
          "lng": 17.244381
        },
        "keyAccentLanguage": "sussua"
      },
      {
        "code": 0,
        "type": "City",
        "enNameLanguage": "Tunda Chissococua",
        "location": {
          "lat": -11.81524,
          "lng": 16.676229
        },
        "keyAccentLanguage": "tunda_chissococua"
      },
      {
        "code": 0,
        "type": "City",
        "enNameLanguage": "Cutato",
        "location": {
          "lat": -11.43048,
          "lng": 16.33217
        },
        "keyAccentLanguage": "cutato"
      },
      {
        "code": 0,
        "type": "City",
        "enNameLanguage": "Chiuca",
        "location": {
          "lat": -11.49865,
          "lng": 18.539471
        },
        "keyAccentLanguage": "chiuca"
      },
      {
        "code": 0,
        "type": "City",
        "enNameLanguage": "Mocunha",
        "location": {
          "lat": -13.0387,
          "lng": 17.33145
        },
        "keyAccentLanguage": "mocunha"
      },
      {
        "code": 0,
        "type": "City",
        "enNameLanguage": "Jamba",
        "location": {
          "lat": -13.59591,
          "lng": 16.600479
        },
        "keyAccentLanguage": "jamba"
      },
      {
        "code": 0,
        "type": "City",
        "enNameLanguage": "Hosse",
        "location": {
          "lat": -12.615,
          "lng": 17.296
        },
        "keyAccentLanguage": "hosse"
      },
      {
        "code": 0,
        "type": "City",
        "enNameLanguage": "Cavoco",
        "location": {
          "lat": -12.142,
          "lng": 17.706
        },
        "keyAccentLanguage": "cavoco"
      },
      {
        "code": 0,
        "type": "City",
        "enNameLanguage": "Chicanda",
        "location": {
          "lat": -11.938,
          "lng": 17.407
        },
        "keyAccentLanguage": "chicanda"
      },
      {
        "code": 0,
        "type": "City",
        "enNameLanguage": "Chindumba",
        "location": {
          "lat": -12,
          "lng": 18.033
        },
        "keyAccentLanguage": "chindumba"
      },
      {
        "code": 0,
        "type": "City",
        "enNameLanguage": "Sambungo",
        "location": {
          "lat": -11.281,
          "lng": 17.012
        },
        "keyAccentLanguage": "sambungo"
      },
      {
        "code": 0,
        "type": "City",
        "enNameLanguage": "Muajimbo",
        "location": {
          "lat": -11.945,
          "lng": 18.473
        },
        "keyAccentLanguage": "muajimbo"
      },
      {
        "code": 0,
        "type": "City",
        "enNameLanguage": "Chicumbe",
        "location": {
          "lat": -11.485,
          "lng": 16.569
        },
        "keyAccentLanguage": "chicumbe"
      },
      {
        "code": 0,
        "type": "City",
        "enNameLanguage": "Tumba",
        "location": {
          "lat": -11.223,
          "lng": 16.358
        },
        "keyAccentLanguage": "tumba"
      },
      {
        "code": 0,
        "type": "City",
        "enNameLanguage": "Cangorongolo",
        "location": {
          "lat": -11.543,
          "lng": 16.854
        },
        "keyAccentLanguage": "cangorongolo"
      },
      {
        "code": 0,
        "type": "City",
        "enNameLanguage": "Cativa",
        "location": {
          "lat": -13.172,
          "lng": 17.144
        },
        "keyAccentLanguage": "cativa"
      },
      {
        "code": 0,
        "type": "City",
        "enNameLanguage": "Lumbungulo",
        "location": {
          "lat": -11.499,
          "lng": 18.539
        },
        "keyAccentLanguage": "lumbungulo"
      },
      {
        "code": 0,
        "type": "City",
        "enNameLanguage": "Nhongo",
        "location": {
          "lat": -11.495,
          "lng": 16.229
        },
        "keyAccentLanguage": "nhongo"
      },
      {
        "code": 0,
        "type": "City",
        "enNameLanguage": "Cambonga",
        "location": {
          "lat": -11.238,
          "lng": 16.171
        },
        "keyAccentLanguage": "cambonga"
      },
      {
        "code": 0,
        "type": "City",
        "enNameLanguage": "Cuquema",
        "location": {
          "lat": -12.463,
          "lng": 16.824
        },
        "keyAccentLanguage": "cuquema"
      },
      {
        "code": 0,
        "type": "City",
        "enNameLanguage": "Sarieza",
        "location": {
          "lat": -11.409,
          "lng": 18.699
        },
        "keyAccentLanguage": "sarieza"
      },
      {
        "code": 0,
        "type": "City",
        "enNameLanguage": "Samba Gunze",
        "location": {
          "lat": -12.385,
          "lng": 17.615
        },
        "keyAccentLanguage": "samba_gunze"
      },
      {
        "code": 0,
        "type": "City",
        "enNameLanguage": "Nhungo",
        "location": {
          "lat": -11.043,
          "lng": 16.076
        },
        "keyAccentLanguage": "nhungo"
      },
      {
        "code": 0,
        "type": "City",
        "enNameLanguage": "Chiuco",
        "location": {
          "lat": -11.12,
          "lng": 15.929
        },
        "keyAccentLanguage": "chiuco"
      },
      {
        "code": 0,
        "type": "City",
        "enNameLanguage": "Luvalo",
        "location": {
          "lat": -10.867,
          "lng": 16.553
        },
        "keyAccentLanguage": "luvalo"
      },
      {
        "code": 0,
        "type": "City",
        "enNameLanguage": "Tombe",
        "location": {
          "lat": -12.713,
          "lng": 17.832
        },
        "keyAccentLanguage": "tombe"
      },
      {
        "code": 0,
        "type": "City",
        "enNameLanguage": "Chissiro",
        "location": {
          "lat": -12.952,
          "lng": 16.902
        },
        "keyAccentLanguage": "chissiro"
      },
      {
        "code": 0,
        "type": "City",
        "enNameLanguage": "Caueli",
        "location": {
          "lat": -12.69,
          "lng": 16.436
        },
        "keyAccentLanguage": "caueli"
      },
      {
        "code": 0,
        "type": "City",
        "enNameLanguage": "Satico",
        "location": {
          "lat": -11.562,
          "lng": 17.395
        },
        "keyAccentLanguage": "satico"
      },
      {
        "code": 0,
        "type": "City",
        "enNameLanguage": "Sauchipuira",
        "location": {
          "lat": -13.001,
          "lng": 18.125
        },
        "keyAccentLanguage": "sauchipuira"
      },
      {
        "code": 0,
        "type": "City",
        "enNameLanguage": "Chiombo",
        "location": {
          "lat": -11.327,
          "lng": 16.637
        },
        "keyAccentLanguage": "chiombo"
      },
      {
        "code": 0,
        "type": "City",
        "enNameLanguage": "Machato",
        "location": {
          "lat": -11.792,
          "lng": 18.004
        },
        "keyAccentLanguage": "machato"
      },
      {
        "code": 0,
        "type": "City",
        "enNameLanguage": "Chitengue",
        "location": {
          "lat": -12.58,
          "lng": 17.468
        },
        "keyAccentLanguage": "chitengue"
      },
      {
        "code": 0,
        "type": "City",
        "enNameLanguage": "Tanga",
        "location": {
          "lat": -12.789,
          "lng": 18.044
        },
        "keyAccentLanguage": "tanga"
      },
      {
        "code": 0,
        "type": "City",
        "enNameLanguage": "Dendi",
        "location": {
          "lat": -12.491,
          "lng": 17.135
        },
        "keyAccentLanguage": "dendi"
      },
      {
        "code": 0,
        "type": "City",
        "enNameLanguage": "Chingueia",
        "location": {
          "lat": -13.628,
          "lng": 16.956
        },
        "keyAccentLanguage": "chingueia"
      },
      {
        "code": 0,
        "type": "City",
        "enNameLanguage": "Tchiengo",
        "location": {
          "lat": -12.055,
          "lng": 18.514
        },
        "keyAccentLanguage": "tchiengo"
      },
      {
        "code": 0,
        "type": "City",
        "enNameLanguage": "Bunja",
        "location": {
          "lat": -11.43,
          "lng": 16.332
        },
        "keyAccentLanguage": "bunja"
      },
      {
        "code": 0,
        "type": "City",
        "enNameLanguage": "Ndumba Tembo",
        "location": {
          "lat": -11.464,
          "lng": 18.844
        },
        "keyAccentLanguage": "ndumba_tembo"
      },
      {
        "code": 0,
        "type": "City",
        "enNameLanguage": "Muacanhica",
        "location": {
          "lat": -11.906,
          "lng": 18.255
        },
        "keyAccentLanguage": "muacanhica"
      },
      {
        "code": 0,
        "type": "City",
        "enNameLanguage": "Cambuta",
        "location": {
          "lat": -11.666,
          "lng": 19.058
        },
        "keyAccentLanguage": "cambuta"
      },
      {
        "code": 0,
        "type": "City",
        "enNameLanguage": "Salola",
        "location": {
          "lat": -11.991,
          "lng": 18.122
        },
        "keyAccentLanguage": "salola"
      },
      {
        "code": 0,
        "type": "City",
        "enNameLanguage": "Camera",
        "location": {
          "lat": -11.666,
          "lng": 16.846
        },
        "keyAccentLanguage": "camera"
      },
      {
        "code": 0,
        "type": "City",
        "enNameLanguage": "Gango",
        "location": {
          "lat": -11.177,
          "lng": 16.011
        },
        "keyAccentLanguage": "gango"
      }
    ],
    "enNameLanguage": "Bie",
    "keyAccentLanguage": "bie"
  },
  {
    "code": 0,
    "type": "State",
    "location": {
      "lat": -5.024874899999999,
      "lng": 12.3463875
    },
    "districtList": [
      {
        "code": 0,
        "type": "City",
        "enNameLanguage": "Chindende",
        "location": {
          "lat": -5.183333,
          "lng": 12.45
        },
        "keyAccentLanguage": "chindende"
      },
      {
        "code": 0,
        "type": "City",
        "enNameLanguage": "Baca",
        "location": {
          "lat": -5.570573899999999,
          "lng": 12.197583
        },
        "keyAccentLanguage": "baca"
      },
      {
        "code": 0,
        "type": "City",
        "enNameLanguage": "Bongo Mamanha",
        "location": {
          "lat": -5.570573899999999,
          "lng": 12.197583
        },
        "keyAccentLanguage": "bongo_mamanha"
      },
      {
        "code": 0,
        "type": "City",
        "enNameLanguage": "Mazi",
        "location": {
          "lat": -5.570573899999999,
          "lng": 12.197583
        },
        "keyAccentLanguage": "mazi"
      },
      {
        "code": 0,
        "type": "City",
        "enNameLanguage": "Buco Longo",
        "location": {
          "lat": -5.570573899999999,
          "lng": 12.197583
        },
        "keyAccentLanguage": "buco_longo"
      },
      {
        "code": 0,
        "type": "City",
        "enNameLanguage": "Bamba",
        "location": {
          "lat": -5.570573899999999,
          "lng": 12.197583
        },
        "keyAccentLanguage": "bamba"
      },
      {
        "code": 0,
        "type": "City",
        "enNameLanguage": "Chiadede",
        "location": {
          "lat": -5.570573899999999,
          "lng": 12.197583
        },
        "keyAccentLanguage": "chiadede"
      },
      {
        "code": 0,
        "type": "City",
        "enNameLanguage": "Bondo",
        "location": {
          "lat": -5.570573899999999,
          "lng": 12.197583
        },
        "keyAccentLanguage": "bondo"
      },
      {
        "code": 0,
        "type": "City",
        "enNameLanguage": "Fubo",
        "location": {
          "lat": -5.570573899999999,
          "lng": 12.197583
        },
        "keyAccentLanguage": "fubo"
      },
      {
        "code": 0,
        "type": "City",
        "enNameLanguage": "Bamba Quipongui",
        "location": {
          "lat": -4.666666999999999,
          "lng": 13.033333
        },
        "keyAccentLanguage": "bamba_quipongui"
      },
      {
        "code": 0,
        "type": "City",
        "enNameLanguage": "Chimputo",
        "location": {
          "lat": -5.570573899999999,
          "lng": 12.197583
        },
        "keyAccentLanguage": "chimputo"
      },
      {
        "code": 0,
        "type": "City",
        "enNameLanguage": "Bonde",
        "location": {
          "lat": -5.570573899999999,
          "lng": 12.197583
        },
        "keyAccentLanguage": "bonde"
      },
      {
        "code": 0,
        "type": "City",
        "enNameLanguage": "Chipita",
        "location": {
          "lat": -5.570573899999999,
          "lng": 12.197583
        },
        "keyAccentLanguage": "chipita"
      },
      {
        "code": 0,
        "type": "City",
        "enNameLanguage": "Iabe",
        "location": {
          "lat": -5.570573899999999,
          "lng": 12.197583
        },
        "keyAccentLanguage": "iabe"
      },
      {
        "code": 0,
        "type": "City",
        "enNameLanguage": "Grande Chauzo",
        "location": {
          "lat": -5.570573899999999,
          "lng": 12.197583
        },
        "keyAccentLanguage": "grande_chauzo"
      },
      {
        "code": 0,
        "type": "City",
        "enNameLanguage": "Luzala",
        "location": {
          "lat": -5.570573899999999,
          "lng": 12.197583
        },
        "keyAccentLanguage": "luzala"
      },
      {
        "code": 0,
        "type": "City",
        "enNameLanguage": "Camba",
        "location": {
          "lat": -5.616667,
          "lng": 12.3
        },
        "keyAccentLanguage": "camba"
      },
      {
        "code": 0,
        "type": "City",
        "enNameLanguage": "Belize",
        "location": {
          "lat": -4.5694874,
          "lng": 12.8514837
        },
        "keyAccentLanguage": "belize"
      },
      {
        "code": 0,
        "type": "City",
        "enNameLanguage": "Futila",
        "location": {
          "lat": -5.431933100000001,
          "lng": 12.2111911
        },
        "keyAccentLanguage": "futila"
      },
      {
        "code": 0,
        "type": "City",
        "enNameLanguage": "Machenzila",
        "location": {
          "lat": -5.570573899999999,
          "lng": 12.197583
        },
        "keyAccentLanguage": "machenzila"
      },
      {
        "code": 0,
        "type": "City",
        "enNameLanguage": "Cabinda",
        "location": {
          "lat": -5.570573899999999,
          "lng": 12.197583
        },
        "keyAccentLanguage": "cabinda"
      },
      {
        "code": 0,
        "type": "City",
        "enNameLanguage": "Lela",
        "location": {
          "lat": -5.570573899999999,
          "lng": 12.197583
        },
        "keyAccentLanguage": "lela"
      },
      {
        "code": 0,
        "type": "City",
        "enNameLanguage": "Deserto",
        "location": {
          "lat": -5.570573899999999,
          "lng": 12.197583
        },
        "keyAccentLanguage": "deserto"
      },
      {
        "code": 0,
        "type": "City",
        "enNameLanguage": "Chimbange",
        "location": {
          "lat": -5.570573899999999,
          "lng": 12.197583
        },
        "keyAccentLanguage": "chimbange"
      },
      {
        "code": 0,
        "type": "City",
        "enNameLanguage": "Malembo",
        "location": {
          "lat": -5.3383875,
          "lng": 12.1875745
        },
        "keyAccentLanguage": "malembo"
      },
      {
        "code": 0,
        "type": "City",
        "enNameLanguage": "Conde",
        "location": {
          "lat": -5.570573899999999,
          "lng": 12.197583
        },
        "keyAccentLanguage": "conde"
      },
      {
        "code": 0,
        "type": "City",
        "enNameLanguage": "Cabelombo",
        "location": {
          "lat": -5.7,
          "lng": 12.2
        },
        "keyAccentLanguage": "cabelombo"
      },
      {
        "code": 0,
        "type": "City",
        "enNameLanguage": "Lico",
        "location": {
          "lat": -5.570573899999999,
          "lng": 12.197583
        },
        "keyAccentLanguage": "lico"
      },
      {
        "code": 0,
        "type": "City",
        "enNameLanguage": "Ganzi",
        "location": {
          "lat": -5.570573899999999,
          "lng": 12.197583
        },
        "keyAccentLanguage": "ganzi"
      },
      {
        "code": 0,
        "type": "City",
        "enNameLanguage": "Bucomazi",
        "location": {
          "lat": -5.5160383,
          "lng": 12.3463875
        },
        "keyAccentLanguage": "bucomazi"
      },
      {
        "code": 0,
        "type": "City",
        "enNameLanguage": "Kindamba",
        "location": {
          "lat": -4.716667,
          "lng": 12.866667
        },
        "keyAccentLanguage": "kindamba"
      },
      {
        "code": 0,
        "type": "City",
        "enNameLanguage": "Chiela",
        "location": {
          "lat": -5.383332999999999,
          "lng": 12.283333
        },
        "keyAccentLanguage": "chiela"
      },
      {
        "code": 0,
        "type": "City",
        "enNameLanguage": "Simulambuco",
        "location": {
          "lat": -5.555538299999999,
          "lng": 12.2246987
        },
        "keyAccentLanguage": "simulambuco"
      },
      {
        "code": 0,
        "type": "City",
        "enNameLanguage": "Coba",
        "location": {
          "lat": -5.0317679,
          "lng": 12.25431
        },
        "keyAccentLanguage": "coba"
      },
      {
        "code": 0,
        "type": "City",
        "enNameLanguage": "Dibounkou",
        "location": {
          "lat": -5.570573899999999,
          "lng": 12.197583
        },
        "keyAccentLanguage": "dibounkou"
      },
      {
        "code": 0,
        "type": "City",
        "enNameLanguage": "Caio",
        "location": {
          "lat": -5.483333,
          "lng": 12.233333
        },
        "keyAccentLanguage": "caio"
      },
      {
        "code": 0,
        "type": "City",
        "enNameLanguage": "Chimbuande",
        "location": {
          "lat": -5.575843,
          "lng": 12.5099
        },
        "keyAccentLanguage": "chimbuande"
      },
      {
        "code": 0,
        "type": "City",
        "enNameLanguage": "Landana",
        "location": {
          "lat": -5.2380661,
          "lng": 12.1461203
        },
        "keyAccentLanguage": "landana"
      },
      {
        "code": 0,
        "type": "City",
        "enNameLanguage": "N'To",
        "location": {
          "lat": -5.570573899999999,
          "lng": 12.197583
        },
        "keyAccentLanguage": "n'to"
      },
      {
        "code": 0,
        "type": "City",
        "enNameLanguage": "Caio Guembo",
        "location": {
          "lat": -5.483333,
          "lng": 12.233333
        },
        "keyAccentLanguage": "caio_guembo"
      },
      {
        "code": 0,
        "type": "City",
        "enNameLanguage": "Kingumbi",
        "location": {
          "lat": -5.570573899999999,
          "lng": 12.197583
        },
        "keyAccentLanguage": "kingumbi"
      },
      {
        "code": 0,
        "type": "City",
        "enNameLanguage": "Boca-Cosse",
        "location": {
          "lat": -5.233333,
          "lng": 12.516667
        },
        "keyAccentLanguage": "boca-cosse"
      },
      {
        "code": 0,
        "type": "City",
        "enNameLanguage": "Chinga",
        "location": {
          "lat": -5.5265336,
          "lng": 12.2416911
        },
        "keyAccentLanguage": "chinga"
      },
      {
        "code": 0,
        "type": "City",
        "enNameLanguage": "Pangamongo",
        "location": {
          "lat": -5.570573899999999,
          "lng": 12.197583
        },
        "keyAccentLanguage": "pangamongo"
      },
      {
        "code": 0,
        "type": "City",
        "enNameLanguage": "Sindo",
        "location": {
          "lat": -5.570573899999999,
          "lng": 12.197583
        },
        "keyAccentLanguage": "sindo"
      },
      {
        "code": 0,
        "type": "City",
        "enNameLanguage": "Luali",
        "location": {
          "lat": -4.583333,
          "lng": 12.716667
        },
        "keyAccentLanguage": "luali"
      },
      {
        "code": 0,
        "type": "City",
        "enNameLanguage": "Foz do Chiloango",
        "location": {
          "lat": -5.5514164,
          "lng": 12.1918523
        },
        "keyAccentLanguage": "foz_do_chiloango"
      },
      {
        "code": 0,
        "type": "City",
        "enNameLanguage": "Bitina",
        "location": {
          "lat": -4.583333,
          "lng": 12.983333
        },
        "keyAccentLanguage": "bitina"
      },
      {
        "code": 0,
        "type": "City",
        "enNameLanguage": "Quicumba Congo",
        "location": {
          "lat": -5.570573899999999,
          "lng": 12.197583
        },
        "keyAccentLanguage": "quicumba_congo"
      },
      {
        "code": 0,
        "type": "City",
        "enNameLanguage": "Buco Zau",
        "location": {
          "lat": -4.772887,
          "lng": 12.55669
        },
        "keyAccentLanguage": "buco_zau"
      },
      {
        "code": 0,
        "type": "City",
        "enNameLanguage": "Chimbete",
        "location": {
          "lat": -4.633332999999999,
          "lng": 12.566667
        },
        "keyAccentLanguage": "chimbete"
      },
      {
        "code": 0,
        "type": "City",
        "enNameLanguage": "Chingundo",
        "location": {
          "lat": -5.483333,
          "lng": 12.516667
        },
        "keyAccentLanguage": "chingundo"
      },
      {
        "code": 0,
        "type": "City",
        "enNameLanguage": "Dinge",
        "location": {
          "lat": -5,
          "lng": 12.333333
        },
        "keyAccentLanguage": "dinge"
      },
      {
        "code": 0,
        "type": "City",
        "enNameLanguage": "Malundo",
        "location": {
          "lat": -4.899999999999999,
          "lng": 12.7
        },
        "keyAccentLanguage": "malundo"
      },
      {
        "code": 0,
        "type": "City",
        "enNameLanguage": "N'Calicanta",
        "location": {
          "lat": -5.616667,
          "lng": 12.45
        },
        "keyAccentLanguage": "n'calicanta"
      },
      {
        "code": 0,
        "type": "City",
        "enNameLanguage": "Miconje",
        "location": {
          "lat": -4.5141643,
          "lng": 12.8788502
        },
        "keyAccentLanguage": "miconje"
      },
      {
        "code": 0,
        "type": "City",
        "enNameLanguage": "N'Calo",
        "location": {
          "lat": -5.570573899999999,
          "lng": 12.197583
        },
        "keyAccentLanguage": "n'calo"
      },
      {
        "code": 0,
        "type": "City",
        "enNameLanguage": "Chiloango",
        "location": {
          "lat": -5.5514164,
          "lng": 12.1918523
        },
        "keyAccentLanguage": "chiloango"
      },
      {
        "code": 0,
        "type": "City",
        "enNameLanguage": "Mongo Bulo",
        "location": {
          "lat": -5.570573899999999,
          "lng": 12.197583
        },
        "keyAccentLanguage": "mongo_bulo"
      },
      {
        "code": 0,
        "type": "City",
        "enNameLanguage": "Tchibedeca",
        "location": {
          "lat": -5.570573899999999,
          "lng": 12.197583
        },
        "keyAccentLanguage": "tchibedeca"
      },
      {
        "code": 0,
        "type": "City",
        "enNameLanguage": "Iema",
        "location": {
          "lat": -5.733333,
          "lng": 12.283333
        },
        "keyAccentLanguage": "iema"
      },
      {
        "code": 0,
        "type": "City",
        "enNameLanguage": "Tchibuti",
        "location": {
          "lat": -4.933333,
          "lng": 12.133333
        },
        "keyAccentLanguage": "tchibuti"
      },
      {
        "code": 0,
        "type": "City",
        "enNameLanguage": "Conde Bamba",
        "location": {
          "lat": -4.833333,
          "lng": 12.533333
        },
        "keyAccentLanguage": "conde_bamba"
      },
      {
        "code": 0,
        "type": "City",
        "enNameLanguage": "Ntimbo",
        "location": {
          "lat": -5.570573899999999,
          "lng": 12.197583
        },
        "keyAccentLanguage": "ntimbo"
      },
      {
        "code": 0,
        "type": "City",
        "enNameLanguage": "Nganzi",
        "location": {
          "lat": -5.533333,
          "lng": 12.35
        },
        "keyAccentLanguage": "nganzi"
      },
      {
        "code": 0,
        "type": "City",
        "enNameLanguage": "Chimongo",
        "location": {
          "lat": -4.683333,
          "lng": 12.433333
        },
        "keyAccentLanguage": "chimongo"
      },
      {
        "code": 0,
        "type": "City",
        "enNameLanguage": "Tchinzaze",
        "location": {
          "lat": -5.570573899999999,
          "lng": 12.197583
        },
        "keyAccentLanguage": "tchinzaze"
      },
      {
        "code": 0,
        "type": "City",
        "enNameLanguage": "Sassa Zau",
        "location": {
          "lat": -5.300000000000001,
          "lng": 12.233333
        },
        "keyAccentLanguage": "sassa_zau"
      },
      {
        "code": 0,
        "type": "City",
        "enNameLanguage": "Tamba",
        "location": {
          "lat": -5.266667,
          "lng": 12.433333
        },
        "keyAccentLanguage": "tamba"
      },
      {
        "code": 0,
        "type": "City",
        "enNameLanguage": "N'Pela",
        "location": {
          "lat": -4.866667,
          "lng": 12.266667
        },
        "keyAccentLanguage": "n'pela"
      },
      {
        "code": 0,
        "type": "City",
        "enNameLanguage": "Chicamba",
        "location": {
          "lat": -4.971157,
          "lng": 12.087113
        },
        "keyAccentLanguage": "chicamba"
      },
      {
        "code": 0,
        "type": "City",
        "enNameLanguage": "Indioma",
        "location": {
          "lat": -5.570573899999999,
          "lng": 12.197583
        },
        "keyAccentLanguage": "indioma"
      },
      {
        "code": 0,
        "type": "City",
        "enNameLanguage": "Gunda",
        "location": {
          "lat": -5.570573899999999,
          "lng": 12.197583
        },
        "keyAccentLanguage": "gunda"
      },
      {
        "code": 0,
        "type": "City",
        "enNameLanguage": "Miconge",
        "location": {
          "lat": -4.5141643,
          "lng": 12.8788502
        },
        "keyAccentLanguage": "miconge"
      },
      {
        "code": 0,
        "type": "City",
        "enNameLanguage": "Sanda Massala",
        "location": {
          "lat": -5.570573899999999,
          "lng": 12.197583
        },
        "keyAccentLanguage": "sanda_massala"
      },
      {
        "code": 0,
        "type": "City",
        "enNameLanguage": "Seva",
        "location": {
          "lat": -5.033333,
          "lng": 12.516667
        },
        "keyAccentLanguage": "seva"
      },
      {
        "code": 0,
        "type": "City",
        "enNameLanguage": "Sanga Mongo",
        "location": {
          "lat": -5.570573899999999,
          "lng": 12.197583
        },
        "keyAccentLanguage": "sanga_mongo"
      },
      {
        "code": 0,
        "type": "City",
        "enNameLanguage": "N'Glezio",
        "location": {
          "lat": -5.570573899999999,
          "lng": 12.197583
        },
        "keyAccentLanguage": "n'glezio"
      },
      {
        "code": 0,
        "type": "City",
        "enNameLanguage": "Tando Limbo",
        "location": {
          "lat": -4.816667,
          "lng": 12.333333
        },
        "keyAccentLanguage": "tando_limbo"
      },
      {
        "code": 0,
        "type": "City",
        "enNameLanguage": "N'Pala",
        "location": {
          "lat": -5.183333,
          "lng": 12.233333
        },
        "keyAccentLanguage": "n'pala"
      },
      {
        "code": 0,
        "type": "City",
        "enNameLanguage": "Povo Grande",
        "location": {
          "lat": -5.570573899999999,
          "lng": 12.197583
        },
        "keyAccentLanguage": "povo_grande"
      },
      {
        "code": 0,
        "type": "City",
        "enNameLanguage": "Massabi",
        "location": {
          "lat": -4.971235699999999,
          "lng": 12.0910421
        },
        "keyAccentLanguage": "massabi"
      },
      {
        "code": 0,
        "type": "City",
        "enNameLanguage": "Panga de Baixo",
        "location": {
          "lat": -5.570573899999999,
          "lng": 12.197583
        },
        "keyAccentLanguage": "panga_de_baixo"
      },
      {
        "code": 0,
        "type": "City",
        "enNameLanguage": "Ngandi-Ndingi",
        "location": {
          "lat": -5.570573899999999,
          "lng": 12.197583
        },
        "keyAccentLanguage": "ngandi-ndingi"
      },
      {
        "code": 0,
        "type": "City",
        "enNameLanguage": "Tanda Matiaba",
        "location": {
          "lat": -4.766667,
          "lng": 12.716667
        },
        "keyAccentLanguage": "tanda_matiaba"
      },
      {
        "code": 0,
        "type": "City",
        "enNameLanguage": "Tando Zinze",
        "location": {
          "lat": -5.393383399999999,
          "lng": 12.470101
        },
        "keyAccentLanguage": "tando_zinze"
      },
      {
        "code": 0,
        "type": "City",
        "enNameLanguage": "Lucola",
        "location": {
          "lat": -5.533333,
          "lng": 12.25
        },
        "keyAccentLanguage": "lucola"
      },
      {
        "code": 0,
        "type": "City",
        "enNameLanguage": "Pove",
        "location": {
          "lat": -5.383332999999999,
          "lng": 12.416667
        },
        "keyAccentLanguage": "pove"
      },
      {
        "code": 0,
        "type": "City",
        "enNameLanguage": "Necuto",
        "location": {
          "lat": -4.953345,
          "lng": 12.61841
        },
        "keyAccentLanguage": "necuto"
      },
      {
        "code": 0,
        "type": "City",
        "enNameLanguage": "Ncaso",
        "location": {
          "lat": -4.583333,
          "lng": 12.833333
        },
        "keyAccentLanguage": "ncaso"
      },
      {
        "code": 0,
        "type": "City",
        "enNameLanguage": "Maloango Zau",
        "location": {
          "lat": -5.570573899999999,
          "lng": 12.197583
        },
        "keyAccentLanguage": "maloango_zau"
      },
      {
        "code": 0,
        "type": "City",
        "enNameLanguage": "Chiaca",
        "location": {
          "lat": -4.883332999999999,
          "lng": 12.566667
        },
        "keyAccentLanguage": "chiaca"
      },
      {
        "code": 0,
        "type": "City",
        "enNameLanguage": "Inhoca",
        "location": {
          "lat": -4.85,
          "lng": 12.4
        },
        "keyAccentLanguage": "inhoca"
      },
      {
        "code": 0,
        "type": "City",
        "enNameLanguage": "Buca",
        "location": {
          "lat": -5.666666999999999,
          "lng": 12.25
        },
        "keyAccentLanguage": "buca"
      },
      {
        "code": 0,
        "type": "City",
        "enNameLanguage": "Chimuande",
        "location": {
          "lat": -5.300000000000001,
          "lng": 12.366667
        },
        "keyAccentLanguage": "chimuande"
      },
      {
        "code": 0,
        "type": "City",
        "enNameLanguage": "Icaso",
        "location": {
          "lat": -5.116667,
          "lng": 12.183333
        },
        "keyAccentLanguage": "icaso"
      },
      {
        "code": 0,
        "type": "City",
        "enNameLanguage": "Sao Jose do Luati",
        "location": {
          "lat": -4.966667,
          "lng": 12.416667
        },
        "keyAccentLanguage": "sao_jose_do_luati"
      },
      {
        "code": 0,
        "type": "City",
        "enNameLanguage": "Lele",
        "location": {
          "lat": -5.570573899999999,
          "lng": 12.197583
        },
        "keyAccentLanguage": "lele"
      },
      {
        "code": 0,
        "type": "City",
        "enNameLanguage": "Micuma",
        "location": {
          "lat": -4.75,
          "lng": 12.666667
        },
        "keyAccentLanguage": "micuma"
      },
      {
        "code": 0,
        "type": "City",
        "enNameLanguage": "Siboma",
        "location": {
          "lat": -5.570573899999999,
          "lng": 12.197583
        },
        "keyAccentLanguage": "siboma"
      }
    ],
    "enNameLanguage": "Cabinda",
    "keyAccentLanguage": "cabinda"
  },
  {
    "code": 0,
    "type": "State",
    "location": {
      "lat": -16.2802221,
      "lng": 16.1580937
    },
    "districtList": [
      {
        "code": 0,
        "type": "City",
        "enNameLanguage": "Xangongo",
        "location": {
          "lat": -16.7511004,
          "lng": 14.9710123
        },
        "keyAccentLanguage": "xangongo"
      },
      {
        "code": 0,
        "type": "City",
        "enNameLanguage": "Cova do Leao",
        "location": {
          "lat": -16.2802221,
          "lng": 16.1580937
        },
        "keyAccentLanguage": "cova_do_leao"
      },
      {
        "code": 0,
        "type": "City",
        "enNameLanguage": "Uitoma",
        "location": {
          "lat": -16.2802221,
          "lng": 16.1580937
        },
        "keyAccentLanguage": "uitoma"
      },
      {
        "code": 0,
        "type": "City",
        "enNameLanguage": "Luano",
        "location": {
          "lat": -16.2802221,
          "lng": 16.1580937
        },
        "keyAccentLanguage": "luano"
      },
      {
        "code": 0,
        "type": "City",
        "enNameLanguage": "Cafu",
        "location": {
          "lat": -16.496269,
          "lng": 15.1774
        },
        "keyAccentLanguage": "cafu"
      },
      {
        "code": 0,
        "type": "City",
        "enNameLanguage": "Cavale",
        "location": {
          "lat": -16.666667,
          "lng": 14.35
        },
        "keyAccentLanguage": "cavale"
      },
      {
        "code": 0,
        "type": "City",
        "enNameLanguage": "Cachana",
        "location": {
          "lat": -16.866667,
          "lng": 13.8
        },
        "keyAccentLanguage": "cachana"
      },
      {
        "code": 0,
        "type": "City",
        "enNameLanguage": "Camba",
        "location": {
          "lat": -16.27598,
          "lng": 15.22278
        },
        "keyAccentLanguage": "camba"
      },
      {
        "code": 0,
        "type": "City",
        "enNameLanguage": "Chanangala",
        "location": {
          "lat": -16.2802221,
          "lng": 16.1580937
        },
        "keyAccentLanguage": "chanangala"
      },
      {
        "code": 0,
        "type": "City",
        "enNameLanguage": "Damba",
        "location": {
          "lat": -16.2802221,
          "lng": 16.1580937
        },
        "keyAccentLanguage": "damba"
      },
      {
        "code": 0,
        "type": "City",
        "enNameLanguage": "Catatorinde",
        "location": {
          "lat": -16.2802221,
          "lng": 16.1580937
        },
        "keyAccentLanguage": "catatorinde"
      },
      {
        "code": 0,
        "type": "City",
        "enNameLanguage": "Calei",
        "location": {
          "lat": -16.2802221,
          "lng": 16.1580937
        },
        "keyAccentLanguage": "calei"
      },
      {
        "code": 0,
        "type": "City",
        "enNameLanguage": "Cahama",
        "location": {
          "lat": -16.2817659,
          "lng": 14.3006514
        },
        "keyAccentLanguage": "cahama"
      },
      {
        "code": 0,
        "type": "City",
        "enNameLanguage": "Cajambe",
        "location": {
          "lat": -16.2802221,
          "lng": 16.1580937
        },
        "keyAccentLanguage": "cajambe"
      },
      {
        "code": 0,
        "type": "City",
        "enNameLanguage": "Anhanca",
        "location": {
          "lat": -16.80864,
          "lng": 15.88088
        },
        "keyAccentLanguage": "anhanca"
      },
      {
        "code": 0,
        "type": "City",
        "enNameLanguage": "Calanga",
        "location": {
          "lat": -16.2802221,
          "lng": 16.1580937
        },
        "keyAccentLanguage": "calanga"
      },
      {
        "code": 0,
        "type": "City",
        "enNameLanguage": "Anhongo",
        "location": {
          "lat": -16.2802221,
          "lng": 16.1580937
        },
        "keyAccentLanguage": "anhongo"
      },
      {
        "code": 0,
        "type": "City",
        "enNameLanguage": "Chicotata",
        "location": {
          "lat": -16.2802221,
          "lng": 16.1580937
        },
        "keyAccentLanguage": "chicotata"
      },
      {
        "code": 0,
        "type": "City",
        "enNameLanguage": "Cacua",
        "location": {
          "lat": -16.2802221,
          "lng": 16.1580937
        },
        "keyAccentLanguage": "cacua"
      },
      {
        "code": 0,
        "type": "City",
        "enNameLanguage": "Ametinho",
        "location": {
          "lat": -16.2802221,
          "lng": 16.1580937
        },
        "keyAccentLanguage": "ametinho"
      },
      {
        "code": 0,
        "type": "City",
        "enNameLanguage": "Cataporinde",
        "location": {
          "lat": -16.2802221,
          "lng": 16.1580937
        },
        "keyAccentLanguage": "cataporinde"
      },
      {
        "code": 0,
        "type": "City",
        "enNameLanguage": "Balunganga",
        "location": {
          "lat": -16.2802221,
          "lng": 16.1580937
        },
        "keyAccentLanguage": "balunganga"
      },
      {
        "code": 0,
        "type": "City",
        "enNameLanguage": "Canga",
        "location": {
          "lat": -16.2802221,
          "lng": 16.1580937
        },
        "keyAccentLanguage": "canga"
      },
      {
        "code": 0,
        "type": "City",
        "enNameLanguage": "Anjavelo",
        "location": {
          "lat": -16.2802221,
          "lng": 16.1580937
        },
        "keyAccentLanguage": "anjavelo"
      },
      {
        "code": 0,
        "type": "City",
        "enNameLanguage": "Calueque",
        "location": {
          "lat": -17.264866,
          "lng": 14.56626
        },
        "keyAccentLanguage": "calueque"
      },
      {
        "code": 0,
        "type": "City",
        "enNameLanguage": "Bela-Bela",
        "location": {
          "lat": -16.583333,
          "lng": 14.766667
        },
        "keyAccentLanguage": "bela-bela"
      },
      {
        "code": 0,
        "type": "City",
        "enNameLanguage": "Capira",
        "location": {
          "lat": 8.7600869,
          "lng": -79.85768279999999
        },
        "keyAccentLanguage": "capira"
      },
      {
        "code": 0,
        "type": "City",
        "enNameLanguage": "Calovango",
        "location": {
          "lat": -16.464359,
          "lng": 14.32436
        },
        "keyAccentLanguage": "calovango"
      },
      {
        "code": 0,
        "type": "City",
        "enNameLanguage": "Bome",
        "location": {
          "lat": -16.4,
          "lng": 14.666667
        },
        "keyAccentLanguage": "bome"
      },
      {
        "code": 0,
        "type": "City",
        "enNameLanguage": "Namuculungo",
        "location": {
          "lat": -16.2802221,
          "lng": 16.1580937
        },
        "keyAccentLanguage": "namuculungo"
      },
      {
        "code": 0,
        "type": "City",
        "enNameLanguage": "Cano",
        "location": {
          "lat": -17.133333,
          "lng": 13.883333
        },
        "keyAccentLanguage": "cano"
      },
      {
        "code": 0,
        "type": "City",
        "enNameLanguage": "Naulila",
        "location": {
          "lat": -17.2,
          "lng": 14.683333
        },
        "keyAccentLanguage": "naulila"
      },
      {
        "code": 0,
        "type": "City",
        "enNameLanguage": "Cuamato",
        "location": {
          "lat": -17.079189,
          "lng": 15.12625
        },
        "keyAccentLanguage": "cuamato"
      },
      {
        "code": 0,
        "type": "City",
        "enNameLanguage": "Catala",
        "location": {
          "lat": -16.2802221,
          "lng": 16.1580937
        },
        "keyAccentLanguage": "catala"
      },
      {
        "code": 0,
        "type": "City",
        "enNameLanguage": "Bolure",
        "location": {
          "lat": -16.4,
          "lng": 14.55
        },
        "keyAccentLanguage": "bolure"
      },
      {
        "code": 0,
        "type": "City",
        "enNameLanguage": "Chissito",
        "location": {
          "lat": -16.25,
          "lng": 14.1
        },
        "keyAccentLanguage": "chissito"
      },
      {
        "code": 0,
        "type": "City",
        "enNameLanguage": "Cahuta",
        "location": {
          "lat": -16.166667,
          "lng": 15.166667
        },
        "keyAccentLanguage": "cahuta"
      },