[
  {
    "code": 0,
    "type": "State",
    "location": {
      "lat": 8.2733455,
      "lng": 20.7122465
    },
    "districtList": [
      {
        "code": 0,
        "type": "City",
        "enNameLanguage": "Akourousoulba",
        "location": {
          "lat": 8.2733455,
          "lng": 20.7122465
        },
        "keyAccentLanguage": "akourousoulba"
      },
      {
        "code": 0,
        "type": "City",
        "enNameLanguage": "Koutessako",
        "location": {
          "lat": 8.2733455,
          "lng": 20.7122465
        },
        "keyAccentLanguage": "koutessako"
      },
      {
        "code": 0,
        "type": "City",
        "enNameLanguage": "Bangbali",
        "location": {
          "lat": 8.6848443,
          "lng": 20.2539215
        },
        "keyAccentLanguage": "bangbali"
      },
      {
        "code": 0,
        "type": "City",
        "enNameLanguage": "Bamingui",
        "location": {
          "lat": 7.5595633,
          "lng": 20.1762564
        },
        "keyAccentLanguage": "bamingui"
      },
      {
        "code": 0,
        "type": "City",
        "enNameLanguage": "Diki",
        "location": {
          "lat": 8.8031264,
          "lng": 19.6578328
        },
        "keyAccentLanguage": "diki"
      },
      {
        "code": 0,
        "type": "City",
        "enNameLanguage": "Goumindou",
        "location": {
          "lat": 8.2733455,
          "lng": 20.7122465
        },
        "keyAccentLanguage": "goumindou"
      },
      {
        "code": 0,
        "type": "City",
        "enNameLanguage": "Doum",
        "location": {
          "lat": 9.020929599999999,
          "lng": 20.7401495
        },
        "keyAccentLanguage": "doum"
      },
      {
        "code": 0,
        "type": "City",
        "enNameLanguage": "Bangbali-Outmane",
        "location": {
          "lat": 8.6848443,
          "lng": 20.2539215
        },
        "keyAccentLanguage": "bangbali-outmane"
      },
      {
        "code": 0,
        "type": "City",
        "enNameLanguage": "Abou-Ndoulaf",
        "location": {
          "lat": 8.2733455,
          "lng": 20.7122465
        },
        "keyAccentLanguage": "abou-ndoulaf"
      },
      {
        "code": 0,
        "type": "City",
        "enNameLanguage": "Pata",
        "location": {
          "lat": 8.2733455,
          "lng": 20.7122465
        },
        "keyAccentLanguage": "pata"
      },
      {
        "code": 0,
        "type": "City",
        "enNameLanguage": "Kori",
        "location": {
          "lat": 8.2733455,
          "lng": 20.7122465
        },
        "keyAccentLanguage": "kori"
      },
      {
        "code": 0,
        "type": "City",
        "enNameLanguage": "Koutoukaye",
        "location": {
          "lat": 8.2733455,
          "lng": 20.7122465
        },
        "keyAccentLanguage": "koutoukaye"
      },
      {
        "code": 0,
        "type": "City",
        "enNameLanguage": "Kaligne-Souleyman",
        "location": {
          "lat": 8.2733455,
          "lng": 20.7122465
        },
        "keyAccentLanguage": "kaligne-souleyman"
      },
      {
        "code": 0,
        "type": "City",
        "enNameLanguage": "Alihoui",
        "location": {
          "lat": 8.2733455,
          "lng": 20.7122465
        },
        "keyAccentLanguage": "alihoui"
      },
      {
        "code": 0,
        "type": "City",
        "enNameLanguage": "Ngoudjaka",
        "location": {
          "lat": 8.3700434,
          "lng": 20.696126
        },
        "keyAccentLanguage": "ngoudjaka"
      },
      {
        "code": 0,
        "type": "City",
        "enNameLanguage": "Koutchikako I",
        "location": {
          "lat": 8.299999999999999,
          "lng": 20.75
        },
        "keyAccentLanguage": "koutchikako_i"
      },
      {
        "code": 0,
        "type": "City",
        "enNameLanguage": "Kassena Souleyman",
        "location": {
          "lat": 8.2733455,
          "lng": 20.7122465
        },
        "keyAccentLanguage": "kassena_souleyman"
      },
      {
        "code": 0,
        "type": "City",
        "enNameLanguage": "Bavoko I",
        "location": {
          "lat": 8.325294500000002,
          "lng": 20.6695762
        },
        "keyAccentLanguage": "bavoko_i"
      },
      {
        "code": 0,
        "type": "City",
        "enNameLanguage": "Boumbala",
        "location": {
          "lat": 7.681234399999999,
          "lng": 20.2025417
        },
        "keyAccentLanguage": "boumbala"
      },
      {
        "code": 0,
        "type": "City",
        "enNameLanguage": "Golongoso",
        "location": {
          "lat": 9.0064682,
          "lng": 19.1489848
        },
        "keyAccentLanguage": "golongoso"
      },
      {
        "code": 0,
        "type": "City",
        "enNameLanguage": "Kilibiti",
        "location": {
          "lat": 8.2733455,
          "lng": 20.7122465
        },
        "keyAccentLanguage": "kilibiti"
      },
      {
        "code": 0,
        "type": "City",
        "enNameLanguage": "Djamassinda",
        "location": {
          "lat": 8.2733455,
          "lng": 20.7122465
        },
        "keyAccentLanguage": "djamassinda"
      },
      {
        "code": 0,
        "type": "City",
        "enNameLanguage": "Ngoudro",
        "location": {
          "lat": 8.2733455,
          "lng": 20.7122465
        },
        "keyAccentLanguage": "ngoudro"
      },
      {
        "code": 0,
        "type": "City",
        "enNameLanguage": "Botedjo",
        "location": {
          "lat": 8.2712343,
          "lng": 20.6921442
        },
        "keyAccentLanguage": "botedjo"
      },
      {
        "code": 0,
        "type": "City",
        "enNameLanguage": "Godovo",
        "location": {
          "lat": 8.2733455,
          "lng": 20.7122465
        },
        "keyAccentLanguage": "godovo"
      },
      {
        "code": 0,
        "type": "City",
        "enNameLanguage": "Koubou",
        "location": {
          "lat": 8.4747002,
          "lng": 20.533748
        },
        "keyAccentLanguage": "koubou"
      },
      {
        "code": 0,
        "type": "City",
        "enNameLanguage": "Koudi",
        "location": {
          "lat": 8.2733455,
          "lng": 20.7122465
        },
        "keyAccentLanguage": "koudi"
      },
      {
        "code": 0,
        "type": "City",
        "enNameLanguage": "Grand Elan",
        "location": {
          "lat": 8.2733455,
          "lng": 20.7122465
        },
        "keyAccentLanguage": "grand_elan"
      },
      {
        "code": 0,
        "type": "City",
        "enNameLanguage": "Godere",
        "location": {
          "lat": 8.2733455,
          "lng": 20.7122465
        },
        "keyAccentLanguage": "godere"
      },
      {
        "code": 0,
        "type": "City",
        "enNameLanguage": "Vasso",
        "location": {
          "lat": 8.2733455,
          "lng": 20.7122465
        },
        "keyAccentLanguage": "vasso"
      },
      {
        "code": 0,
        "type": "City",
        "enNameLanguage": "Dongo",
        "location": {
          "lat": 8.3711709,
          "lng": 20.6081875
        },
        "keyAccentLanguage": "dongo"
      },
      {
        "code": 0,
        "type": "City",
        "enNameLanguage": "Bingou",
        "location": {
          "lat": 7.3123153,
          "lng": 20.1404596
        },
        "keyAccentLanguage": "bingou"
      },
      {
        "code": 0,
        "type": "City",
        "enNameLanguage": "Koundi",
        "location": {
          "lat": 8.8262019,
          "lng": 20.7026374
        },
        "keyAccentLanguage": "koundi"
      },
      {
        "code": 0,
        "type": "City",
        "enNameLanguage": "Gaita Mainda",
        "location": {
          "lat": 8.7693054,
          "lng": 19.4158918
        },
        "keyAccentLanguage": "gaita_mainda"
      },
      {
        "code": 0,
        "type": "City",
        "enNameLanguage": "Bavoko II",
        "location": {
          "lat": 8.325294500000002,
          "lng": 20.6695762
        },
        "keyAccentLanguage": "bavoko_ii"
      },
      {
        "code": 0,
        "type": "City",
        "enNameLanguage": "Kadekadjia",
        "location": {
          "lat": 8.2733455,
          "lng": 20.7122465
        },
        "keyAccentLanguage": "kadekadjia"
      },
      {
        "code": 0,
        "type": "City",
        "enNameLanguage": "Demi Batchi",
        "location": {
          "lat": 8.2733455,
          "lng": 20.7122465
        },
        "keyAccentLanguage": "demi_batchi"
      },
      {
        "code": 0,
        "type": "City",
        "enNameLanguage": "Galo",
        "location": {
          "lat": 8.2733455,
          "lng": 20.7122465
        },
        "keyAccentLanguage": "galo"
      },
      {
        "code": 0,
        "type": "City",
        "enNameLanguage": "Ndele",
        "location": {
          "lat": 8.4117631,
          "lng": 20.6489692
        },
        "keyAccentLanguage": "ndele"
      },
      {
        "code": 0,
        "type": "City",
        "enNameLanguage": "Balouba Yakandjia",
        "location": {
          "lat": 7.482793500000001,
          "lng": 20.1717946
        },
        "keyAccentLanguage": "balouba_yakandjia"
      },
      {
        "code": 0,
        "type": "City",
        "enNameLanguage": "Ngoussoua Campement",
        "location": {
          "lat": 8.2733455,
          "lng": 20.7122465
        },
        "keyAccentLanguage": "ngoussoua_campement"
      },
      {
        "code": 0,
        "type": "City",
        "enNameLanguage": "Kpakpale",
        "location": {
          "lat": 8.2733455,
          "lng": 20.7122465
        },
        "keyAccentLanguage": "kpakpale"
      },
      {
        "code": 0,
        "type": "City",
        "enNameLanguage": "Mbolo Abetlanga",
        "location": {
          "lat": 8.3110915,
          "lng": 20.6788923
        },
        "keyAccentLanguage": "mbolo_abetlanga"
      },
      {
        "code": 0,
        "type": "City",
        "enNameLanguage": "Maikaba",
        "location": {
          "lat": 8.7543428,
          "lng": 19.2928742
        },
        "keyAccentLanguage": "maikaba"
      },
      {
        "code": 0,
        "type": "City",
        "enNameLanguage": "Mindou",
        "location": {
          "lat": 8.3571792,
          "lng": 20.600266
        },
        "keyAccentLanguage": "mindou"
      },
      {
        "code": 0,
        "type": "City",
        "enNameLanguage": "Miamete Adoum",
        "location": {
          "lat": 8.2733455,
          "lng": 20.7122465
        },
        "keyAccentLanguage": "miamete_adoum"
      },
      {
        "code": 0,
        "type": "City",
        "enNameLanguage": "Ngouga",
        "location": {
          "lat": 8.212007999999999,
          "lng": 20.7149978
        },
        "keyAccentLanguage": "ngouga"
      },
      {
        "code": 0,
        "type": "City",
        "enNameLanguage": "Bir-Batouma Moussa",
        "location": {
          "lat": 8.545820599999999,
          "lng": 20.4663507
        },
        "keyAccentLanguage": "bir-batouma_moussa"
      },
      {
        "code": 0,
        "type": "City",
        "enNameLanguage": "Mbolo III",
        "location": {
          "lat": 8.3110915,
          "lng": 20.6788923
        },
        "keyAccentLanguage": "mbolo_iii"
      },
      {
        "code": 0,
        "type": "City",
        "enNameLanguage": "Goz Amar",
        "location": {
          "lat": 8.4236489,
          "lng": 20.6224621
        },
        "keyAccentLanguage": "goz_amar"
      },
      {
        "code": 0,
        "type": "City",
        "enNameLanguage": "Dangou Badouma",
        "location": {
          "lat": 8.1860608,
          "lng": 20.4846552
        },
        "keyAccentLanguage": "dangou_badouma"
      },
      {
        "code": 0,
        "type": "City",
        "enNameLanguage": "Nianga Bitibanda",
        "location": {
          "lat": 8.2733455,
          "lng": 20.7122465
        },
        "keyAccentLanguage": "nianga_bitibanda"
      },
      {
        "code": 0,
        "type": "City",
        "enNameLanguage": "Kouyara",
        "location": {
          "lat": 8.061885199999999,
          "lng": 21.3322058
        },
        "keyAccentLanguage": "kouyara"
      },
      {
        "code": 0,
        "type": "City",
        "enNameLanguage": "Ndagra",
        "location": {
          "lat": 8.2733455,
          "lng": 20.7122465
        },
        "keyAccentLanguage": "ndagra"
      },
      {
        "code": 0,
        "type": "City",
        "enNameLanguage": "Kovongo Mia",
        "location": {
          "lat": 8.2733455,
          "lng": 20.7122465
        },
        "keyAccentLanguage": "kovongo_mia"
      },
      {
        "code": 0,
        "type": "City",
        "enNameLanguage": "Dacpa Mindou",
        "location": {
          "lat": 8.1718349,
          "lng": 20.4228257
        },
        "keyAccentLanguage": "dacpa_mindou"
      },
      {
        "code": 0,
        "type": "City",
        "enNameLanguage": "Idongo",
        "location": {
          "lat": 7.9990927,
          "lng": 20.8269242
        },
        "keyAccentLanguage": "idongo"
      },
      {
        "code": 0,
        "type": "City",
        "enNameLanguage": "Ouihi",
        "location": {
          "lat": 8.4011481,
          "lng": 20.7002275
        },
        "keyAccentLanguage": "ouihi"
      },
      {
        "code": 0,
        "type": "City",
        "enNameLanguage": "Lemena",
        "location": {
          "lat": 8.469,
          "lng": 20.691
        },
        "keyAccentLanguage": "lemena"
      },
      {
        "code": 0,
        "type": "City",
        "enNameLanguage": "Balouba",
        "location": {
          "lat": 7.467,
          "lng": 20.183
        },
        "keyAccentLanguage": "balouba"
      },
      {
        "code": 0,
        "type": "City",
        "enNameLanguage": "Boul-Kinia",
        "location": {
          "lat": 8.967,
          "lng": 20.617
        },
        "keyAccentLanguage": "boul-kinia"
      },
      {
        "code": 0,
        "type": "City",
        "enNameLanguage": "Gounda",
        "location": {
          "lat": 9.205,
          "lng": 21.276
        },
        "keyAccentLanguage": "gounda"
      },
      {
        "code": 0,
        "type": "City",
        "enNameLanguage": "Bandeve",
        "location": {
          "lat": 8.017,
          "lng": 20.317
        },
        "keyAccentLanguage": "bandeve"
      },
      {
        "code": 0,
        "type": "City",
        "enNameLanguage": "Bakolekpa",
        "location": {
          "lat": 8.1,
          "lng": 20.367
        },
        "keyAccentLanguage": "bakolekpa"
      },
      {
        "code": 0,
        "type": "City",
        "enNameLanguage": "Bandjipreu",
        "location": {
          "lat": 8.083,
          "lng": 20.717
        },
        "keyAccentLanguage": "bandjipreu"
      },
      {
        "code": 0,
        "type": "City",
        "enNameLanguage": "Elle",
        "location": {
          "lat": 8.133,
          "lng": 20.383
        },
        "keyAccentLanguage": "elle"
      },
      {
        "code": 0,
        "type": "City",
        "enNameLanguage": "Ancien Village Ngouassa",
        "location": {
          "lat": 7.517,
          "lng": 20.167
        },
        "keyAccentLanguage": "ancien_village_ngouassa"
      },
      {
        "code": 0,
        "type": "City",
        "enNameLanguage": "Bissingou I",
        "location": {
          "lat": 8.284,
          "lng": 20.582
        },
        "keyAccentLanguage": "bissingou_i"
      },
      {
        "code": 0,
        "type": "City",
        "enNameLanguage": "Gou Mbre",
        "location": {
          "lat": 7.667,
          "lng": 20.9
        },
        "keyAccentLanguage": "gou_mbre"
      },
      {
        "code": 0,
        "type": "City",
        "enNameLanguage": "Digba",
        "location": {
          "lat": 8.117,
          "lng": 20.383
        },
        "keyAccentLanguage": "digba"
      },
      {
        "code": 0,
        "type": "City",
        "enNameLanguage": "Manegoto",
        "location": {
          "lat": 8.45,
          "lng": 20.633
        },
        "keyAccentLanguage": "manegoto"
      },
      {
        "code": 0,
        "type": "City",
        "enNameLanguage": "Niango Amane",
        "location": {
          "lat": 7.583,
          "lng": 20.183
        },
        "keyAccentLanguage": "niango_amane"
      },
      {
        "code": 0,
        "type": "City",
        "enNameLanguage": "Mbolo",
        "location": {
          "lat": 8.31,
          "lng": 20.68
        },
        "keyAccentLanguage": "mbolo"
      },
      {
        "code": 0,
        "type": "City",
        "enNameLanguage": "Kenouzou",
        "location": {
          "lat": 8.75,
          "lng": 19.267
        },
        "keyAccentLanguage": "kenouzou"
      },
      {
        "code": 0,
        "type": "City",
        "enNameLanguage": "Bilinguili",
        "location": {
          "lat": 8.617,
          "lng": 20.35
        },
        "keyAccentLanguage": "bilinguili"
      },
      {
        "code": 0,
        "type": "City",
        "enNameLanguage": "Miamere",
        "location": {
          "lat": 8.872,
          "lng": 19.838
        },
        "keyAccentLanguage": "miamere"
      },
      {
        "code": 0,
        "type": "City",
        "enNameLanguage": "Gbetihindjou",
        "location": {
          "lat": 8.279,
          "lng": 20.697
        },
        "keyAccentLanguage": "gbetihindjou"
      },
      {
        "code": 0,
        "type": "City",
        "enNameLanguage": "Ndire",
        "location": {
          "lat": 7.967,
          "lng": 20.767
        },
        "keyAccentLanguage": "ndire"
      },
      {
        "code": 0,
        "type": "City",
        "enNameLanguage": "Kaga-Doumba",
        "location": {
          "lat": 8.333,
          "lng": 20.583
        },
        "keyAccentLanguage": "kaga-doumba"
      },
      {
        "code": 0,
        "type": "City",
        "enNameLanguage": "Mialouto",
        "location": {
          "lat": 8.933,
          "lng": 19.717
        },
        "keyAccentLanguage": "mialouto"
      },
      {
        "code": 0,
        "type": "City",
        "enNameLanguage": "Njoko",
        "location": {
          "lat": 9.018,
          "lng": 19.567
        },
        "keyAccentLanguage": "njoko"
      },
      {
        "code": 0,
        "type": "City",
        "enNameLanguage": "Kouya Koundou",
        "location": {
          "lat": 8.3,
          "lng": 20.583
        },
        "keyAccentLanguage": "kouya_koundou"
      },
      {
        "code": 0,
        "type": "City",
        "enNameLanguage": "Yambala Koudouvele",
        "location": {
          "lat": 7.241,
          "lng": 20.051
        },
        "keyAccentLanguage": "yambala_koudouvele"
      },
      {
        "code": 0,
        "type": "City",
        "enNameLanguage": "Kaga Nze",
        "location": {
          "lat": 7.35,
          "lng": 20.183
        },
        "keyAccentLanguage": "kaga_nze"
      },
      {
        "code": 0,
        "type": "City",
        "enNameLanguage": "Lokotoumala",
        "location": {
          "lat": 8.567,
          "lng": 20.617
        },
        "keyAccentLanguage": "lokotoumala"
      },
      {
        "code": 0,
        "type": "City",
        "enNameLanguage": "Lazanguere",
        "location": {
          "lat": 8.383,
          "lng": 20.7
        },
        "keyAccentLanguage": "lazanguere"
      },
      {
        "code": 0,
        "type": "City",
        "enNameLanguage": "Ngoussoua",
        "location": {
          "lat": 8.167,
          "lng": 20.433
        },
        "keyAccentLanguage": "ngoussoua"
      },
      {
        "code": 0,
        "type": "City",
        "enNameLanguage": "Krakoma",
        "location": {
          "lat": 8.05,
          "lng": 21.333
        },
        "keyAccentLanguage": "krakoma"
      },
      {
        "code": 0,
        "type": "City",
        "enNameLanguage": "Manovo",
        "location": {
          "lat": 8.117,
          "lng": 21.117
        },
        "keyAccentLanguage": "manovo"
      },
      {
        "code": 0,
        "type": "City",
        "enNameLanguage": "Ancien Village de Gara",
        "location": {
          "lat": 8.55,
          "lng": 19.683
        },
        "keyAccentLanguage": "ancien_village_de_gara"
      },
      {
        "code": 0,
        "type": "City",
        "enNameLanguage": "Ouihi-Goutehoko",
        "location": {
          "lat": 8.367,
          "lng": 20.7
        },
        "keyAccentLanguage": "ouihi-goutehoko"
      },
      {
        "code": 0,
        "type": "City",
        "enNameLanguage": "Campement de Mialouto",
        "location": {
          "lat": 8.75,
          "lng": 19.267
        },
        "keyAccentLanguage": "campement_de_mialouto"
      },
      {
        "code": 0,
        "type": "City",
        "enNameLanguage": "Djabossinda",
        "location": {
          "lat": 8.741,
          "lng": 20.677
        },
        "keyAccentLanguage": "djabossinda"
      },
      {
        "code": 0,
        "type": "City",
        "enNameLanguage": "Miafondo",
        "location": {
          "lat": 8.2,
          "lng": 20.55
        },
        "keyAccentLanguage": "miafondo"
      },
      {
        "code": 0,
        "type": "City",
        "enNameLanguage": "Bissingou II",
        "location": {
          "lat": 8.254,
          "lng": 20.571
        },
        "keyAccentLanguage": "bissingou_ii"
      },
      {
        "code": 0,
        "type": "City",
        "enNameLanguage": "Bangoran",
        "location": {
          "lat": 8.083,
          "lng": 20.35
        },
        "keyAccentLanguage": "bangoran"
      },
      {
        "code": 0,
        "type": "City",
        "enNameLanguage": "Gondo",
        "location": {
          "lat": 8.474,
          "lng": 20.683
        },
        "keyAccentLanguage": "gondo"
      },
      {
        "code": 0,
        "type": "City",
        "enNameLanguage": "Gouyambri",
        "location": {
          "lat": 8.183,
          "lng": 20.9
        },
        "keyAccentLanguage": "gouyambri"
      },
      {
        "code": 0,
        "type": "City",
        "enNameLanguage": "Goz Beida",
        "location": {
          "lat": 8.491,
          "lng": 20.667
        },
        "keyAccentLanguage": "goz_beida"
      },
      {
        "code": 0,
        "type": "City",
        "enNameLanguage": "Deo",
        "location": {
          "lat": 8.133,
          "lng": 20.967
        },
        "keyAccentLanguage": "deo"
      }
    ],
    "enNameLanguage": "Bamingui-Bangoran",
    "keyAccentLanguage": "bamingui-bangoran"
  },
  {
    "code": 0,
    "type": "State",
    "location": {
      "lat": 4.358,
      "lng": 18.563
    },
    "districtList": [
      {
        "code": 0,
        "type": "City",
        "enNameLanguage": "Dedengue",
        "location": {
          "lat": 4.362156,
          "lng": 18.5827765
        },
        "keyAccentLanguage": "dedengue"
      },
      {
        "code": 0,
        "type": "City",
        "enNameLanguage": "Kolongo",
        "location": {
          "lat": 4.3891192,
          "lng": 18.5359276
        },
        "keyAccentLanguage": "kolongo"
      },
      {
        "code": 0,
        "type": "City",
        "enNameLanguage": "Bangui",
        "location": {
          "lat": 4.362156,
          "lng": 18.5827765
        },
        "keyAccentLanguage": "bangui"
      },
      {
        "code": 0,
        "type": "City",
        "enNameLanguage": "Gobongo",
        "location": {
          "lat": 4.416666999999999,
          "lng": 18.55
        },
        "keyAccentLanguage": "gobongo"
      },
      {
        "code": 0,
        "type": "City",
        "enNameLanguage": "Yimbi",
        "location": {
          "lat": 4.362156,
          "lng": 18.5827765
        },
        "keyAccentLanguage": "yimbi"
      },
      {
        "code": 0,
        "type": "City",
        "enNameLanguage": "Rombatoui",
        "location": {
          "lat": 4.458,
          "lng": 18.526
        },
        "keyAccentLanguage": "rombatoui"
      },
      {
        "code": 0,
        "type": "City",
        "enNameLanguage": "Akiba",
        "location": {
          "lat": 4.319,
          "lng": 18.541
        },
        "keyAccentLanguage": "akiba"
      },
      {
        "code": 0,
        "type": "City",
        "enNameLanguage": "Badokwa",
        "location": {
          "lat": 4.35,
          "lng": 18.633
        },
        "keyAccentLanguage": "badokwa"
      },
      {
        "code": 0,
        "type": "City",
        "enNameLanguage": "Begoua",
        "location": {
          "lat": 4.45,
          "lng": 18.533
        },
        "keyAccentLanguage": "begoua"
      },
      {
        "code": 0,
        "type": "City",
        "enNameLanguage": "Potopoto",
        "location": {
          "lat": 4.417,
          "lng": 18.55
        },
        "keyAccentLanguage": "potopoto"
      },
      {
        "code": 0,
        "type": "City",
        "enNameLanguage": "Kokoro",
        "location": {
          "lat": 4.367,
          "lng": 18.533
        },
        "keyAccentLanguage": "kokoro"
      },
      {
        "code": 0,
        "type": "City",
        "enNameLanguage": "Camp du Kassai",
        "location": {
          "lat": 4.383,
          "lng": 18.617
        },
        "keyAccentLanguage": "camp_du_kassai"
      }
    ],
    "enNameLanguage": "Bangui",
    "keyAccentLanguage": "bangui"
  },
  {
    "code": 0,
    "type": "State",
    "location": {
      "lat": 4.8719319,
      "lng": 21.2845025
    },
    "districtList": [
      {
        "code": 0,
        "type": "City",
        "enNameLanguage": "Amoko",
        "location": {
          "lat": 5.4120152,
          "lng": 21.2374636
        },
        "keyAccentLanguage": "amoko"
      },
      {
        "code": 0,
        "type": "City",
        "enNameLanguage": "Bassango",
        "location": {
          "lat": 4.8719319,
          "lng": 21.2845025
        },
        "keyAccentLanguage": "bassango"
      },
      {
        "code": 0,
        "type": "City",
        "enNameLanguage": "Agoua",
        "location": {
          "lat": 4.8719319,
          "lng": 21.2845025
        },
        "keyAccentLanguage": "agoua"
      },
      {
        "code": 0,
        "type": "City",
        "enNameLanguage": "Aoundaye",
        "location": {
          "lat": 4.8719319,
          "lng": 21.2845025
        },
        "keyAccentLanguage": "aoundaye"
      },
      {
        "code": 0,
        "type": "City",
        "enNameLanguage": "Akpia",
        "location": {
          "lat": 5.4188639,
          "lng": 21.1664018
        },
        "keyAccentLanguage": "akpia"
      },
      {
        "code": 0,
        "type": "City",
        "enNameLanguage": "Aliou",
        "location": {
          "lat": 4.566667,
          "lng": 21.933333
        },
        "keyAccentLanguage": "aliou"
      },
      {
        "code": 0,
        "type": "City",
        "enNameLanguage": "Bakondji",
        "location": {
          "lat": 4.427611,
          "lng": 20.6823031
        },
        "keyAccentLanguage": "bakondji"
      },
      {
        "code": 0,
        "type": "City",
        "enNameLanguage": "Baidou",
        "location": {
          "lat": 4.8719319,
          "lng": 21.2845025
        },
        "keyAccentLanguage": "baidou"
      },
      {
        "code": 0,
        "type": "City",
        "enNameLanguage": "Angbongue",
        "location": {
          "lat": 4.8719319,
          "lng": 21.2845025
        },
        "keyAccentLanguage": "angbongue"
      },
      {
        "code": 0,
        "type": "City",
        "enNameLanguage": "Angaida",
        "location": {
          "lat": 4.8719319,
          "lng": 21.2845025
        },
        "keyAccentLanguage": "angaida"
      },
      {
        "code": 0,
        "type": "City",
        "enNameLanguage": "Akiado",
        "location": {
          "lat": 4.8719319,
          "lng": 21.2845025
        },
        "keyAccentLanguage": "akiado"
      },
      {
        "code": 0,
        "type": "City",
        "enNameLanguage": "Atta",
        "location": {
          "lat": 4.4683595,
          "lng": 21.5971197
        },
        "keyAccentLanguage": "atta"
      },
      {
        "code": 0,
        "type": "City",
        "enNameLanguage": "Aoundji",
        "location": {
          "lat": 4.8719319,
          "lng": 21.2845025
        },
        "keyAccentLanguage": "aoundji"
      },
      {
        "code": 0,
        "type": "City",
        "enNameLanguage": "Agbrou",
        "location": {
          "lat": 4.8719319,
          "lng": 21.2845025
        },
        "keyAccentLanguage": "agbrou"
      },
      {
        "code": 0,
        "type": "City",
        "enNameLanguage": "Andjekapa",
        "location": {
          "lat": 4.8719319,
          "lng": 21.2845025
        },
        "keyAccentLanguage": "andjekapa"
      },
      {
        "code": 0,
        "type": "City",
        "enNameLanguage": "Balada",
        "location": {
          "lat": 4.8719319,
          "lng": 21.2845025
        },
        "keyAccentLanguage": "balada"
      },
      {
        "code": 0,
        "type": "City",
        "enNameLanguage": "Aongouazo",
        "location": {
          "lat": 4.5187224,
          "lng": 21.9185726
        },
        "keyAccentLanguage": "aongouazo"
      },
      {
        "code": 0,
        "type": "City",
        "enNameLanguage": "Baman",
        "location": {
          "lat": 4.8212182,
          "lng": 21.7574298
        },
        "keyAccentLanguage": "baman"
      },
      {
        "code": 0,
        "type": "City",
        "enNameLanguage": "Bagouma",
        "location": {
          "lat": 4.8719319,
          "lng": 21.2845025
        },
        "keyAccentLanguage": "bagouma"
      },
      {
        "code": 0,
        "type": "City",
        "enNameLanguage": "Abouma",
        "location": {
          "lat": 4.8719319,
          "lng": 21.2845025
        },
        "keyAccentLanguage": "abouma"
      },
      {
        "code": 0,
        "type": "City",
        "enNameLanguage": "Amboutcheka",
        "location": {
          "lat": 4.8719319,
          "lng": 21.2845025
        },
        "keyAccentLanguage": "amboutcheka"
      },
      {
        "code": 0,
        "type": "City",
        "enNameLanguage": "Alepa",
        "location": {
          "lat": 4.8719319,
          "lng": 21.2845025
        },
        "keyAccentLanguage": "alepa"
      },
      {
        "code": 0,
        "type": "City",
        "enNameLanguage": "Aoleka",
        "location": {
          "lat": 4.501052899999999,
          "lng": 20.9026682
        },
        "keyAccentLanguage": "aoleka"
      },
      {
        "code": 0,
        "type": "City",
        "enNameLanguage": "Bassa",
        "location": {
          "lat": 4.8719319,
          "lng": 21.2845025
        },
        "keyAccentLanguage": "bassa"
      },
      {
        "code": 0,
        "type": "City",
        "enNameLanguage": "Alama",
        "location": {
          "lat": 5.4811383,
          "lng": 21.7926048
        },
        "keyAccentLanguage": "alama"
      },
      {
        "code": 0,
        "type": "City",
        "enNameLanguage": "Badji",
        "location": {
          "lat": 5.113930499999999,
          "lng": 21.0713878
        },
        "keyAccentLanguage": "badji"
      },
      {
        "code": 0,
        "type": "City",
        "enNameLanguage": "Balaba",
        "location": {
          "lat": 4.6360896,
          "lng": 21.140841
        },
        "keyAccentLanguage": "balaba"
      },
      {
        "code": 0,
        "type": "City",
        "enNameLanguage": "Bama",
        "location": {
          "lat": 4.8719319,
          "lng": 21.2845025
        },
        "keyAccentLanguage": "bama"
      },
      {
        "code": 0,
        "type": "City",
        "enNameLanguage": "Baou",
        "location": {
          "lat": 4.8719319,
          "lng": 21.2845025
        },
        "keyAccentLanguage": "baou"
      },
      {
        "code": 0,
        "type": "City",
        "enNameLanguage": "Bodo",
        "location": {
          "lat": 4.8719319,
          "lng": 21.2845025
        },
        "keyAccentLanguage": "bodo"
      },
      {
        "code": 0,
        "type": "City",
        "enNameLanguage": "Bede",
        "location": {
          "lat": 4.8719319,
          "lng": 21.2845025
        },
        "keyAccentLanguage": "bede"
      },
      {
        "code": 0,
        "type": "City",
        "enNameLanguage": "Balimingou",
        "location": {
          "lat": 4.8719319,
          "lng": 21.2845025
        },
        "keyAccentLanguage": "balimingou"
      },
      {
        "code": 0,
        "type": "City",
        "enNameLanguage": "Alindao",
        "location": {
          "lat": 5.037845300000001,
          "lng": 21.2099808
        },
        "keyAccentLanguage": "alindao"
      },
      {
        "code": 0,
        "type": "City",
        "enNameLanguage": "Bandou",
        "location": {
          "lat": 4.531432199999999,
          "lng": 22.1122828
        },
        "keyAccentLanguage": "bandou"
      },
      {
        "code": 0,
        "type": "City",
        "enNameLanguage": "Bombala",
        "location": {
          "lat": 4.8719319,
          "lng": 21.2845025
        },
        "keyAccentLanguage": "bombala"
      },
      {
        "code": 0,
        "type": "City",
        "enNameLanguage": "Bamae",
        "location": {
          "lat": 4.413607,
          "lng": 21.2388182
        },
        "keyAccentLanguage": "bamae"
      },
      {
        "code": 0,
        "type": "City",
        "enNameLanguage": "Banan",
        "location": {
          "lat": 4.8719319,
          "lng": 21.2845025
        },
        "keyAccentLanguage": "banan"
      },
      {
        "code": 0,
        "type": "City",
        "enNameLanguage": "Balipou",
        "location": {
          "lat": 4.8719319,
          "lng": 21.2845025
        },
        "keyAccentLanguage": "balipou"
      },
      {
        "code": 0,
        "type": "City",
        "enNameLanguage": "Boroudou",
        "location": {
          "lat": 4.8719319,
          "lng": 21.2845025
        },
        "keyAccentLanguage": "boroudou"
      },
      {
        "code": 0,
        "type": "City",
        "enNameLanguage": "Badama",
        "location": {
          "lat": 4.934197999999999,
          "lng": 21.7828652
        },
        "keyAccentLanguage": "badama"
      },
      {
        "code": 0,
        "type": "City",
        "enNameLanguage": "Banda",
        "location": {
          "lat": 5.054051299999999,
          "lng": 21.8003781
        },
        "keyAccentLanguage": "banda"
      },
      {
        "code": 0,
        "type": "City",
        "enNameLanguage": "Bendo",
        "location": {
          "lat": 4.680083499999999,
          "lng": 21.5935898
        },
        "keyAccentLanguage": "bendo"
      },
      {
        "code": 0,
        "type": "City",
        "enNameLanguage": "Bokoto",
        "location": {
          "lat": 4.8719319,
          "lng": 21.2845025
        },
        "keyAccentLanguage": "bokoto"
      },
      {
        "code": 0,
        "type": "City",
        "enNameLanguage": "Bassio",
        "location": {
          "lat": 4.8719319,
          "lng": 21.2845025
        },
        "keyAccentLanguage": "bassio"
      },
      {
        "code": 0,
        "type": "City",
        "enNameLanguage": "Bambe",
        "location": {
          "lat": 4.519057999999999,
          "lng": 21.627265
        },
        "keyAccentLanguage": "bambe"
      },
      {
        "code": 0,
        "type": "City",
        "enNameLanguage": "Bilingui",
        "location": {
          "lat": 4.338019,
          "lng": 21.75853
        },
        "keyAccentLanguage": "bilingui"
      },
      {
        "code": 0,
        "type": "City",
        "enNameLanguage": "Bandoua",
        "location": {
          "lat": 4.8719319,
          "lng": 21.2845025
        },
        "keyAccentLanguage": "bandoua"
      },
      {
        "code": 0,
        "type": "City",
        "enNameLanguage": "Biengou",
        "location": {
          "lat": 4.8719319,
          "lng": 21.2845025
        },
        "keyAccentLanguage": "biengou"
      },
      {
        "code": 0,
        "type": "City",
        "enNameLanguage": "Bandja",
        "location": {
          "lat": 4.8719319,
          "lng": 21.2845025
        },
        "keyAccentLanguage": "bandja"
      },
      {
        "code": 0,
        "type": "City",
        "enNameLanguage": "Bokoro",
        "location": {
          "lat": 4.8719319,
          "lng": 21.2845025
        },
        "keyAccentLanguage": "bokoro"
      },
      {
        "code": 0,
        "type": "City",
        "enNameLanguage": "Bakanga",
        "location": {
          "lat": 5.083078899999999,
          "lng": 21.2008798
        },
        "keyAccentLanguage": "bakanga"
      },
      {
        "code": 0,
        "type": "City",
        "enNameLanguage": "Bada",
        "location": {
          "lat": 4.4762259,
          "lng": 21.048651
        },
        "keyAccentLanguage": "bada"
      },
      {
        "code": 0,
        "type": "City",
        "enNameLanguage": "Bouma",
        "location": {
          "lat": 4.8719319,
          "lng": 21.2845025
        },
        "keyAccentLanguage": "bouma"
      },
      {
        "code": 0,
        "type": "City",
        "enNameLanguage": "Bingi",
        "location": {
          "lat": 5.433333,
          "lng": 21.516667
        },
        "keyAccentLanguage": "bingi"
      },
      {
        "code": 0,
        "type": "City",
        "enNameLanguage": "Boba",
        "location": {
          "lat": 5.3320232,
          "lng": 21.6826459
        },
        "keyAccentLanguage": "boba"
      },
      {
        "code": 0,
        "type": "City",
        "enNameLanguage": "Bokoula",
        "location": {
          "lat": 4.8719319,
          "lng": 21.2845025
        },
        "keyAccentLanguage": "bokoula"
      },
      {
        "code": 0,
        "type": "City",
        "enNameLanguage": "Bihidou",
        "location": {
          "lat": 4.6547357,
          "lng": 21.2857349
        },
        "keyAccentLanguage": "bihidou"
      },
      {
        "code": 0,
        "type": "City",
        "enNameLanguage": "Bangato",
        "location": {
          "lat": 4.8719319,
          "lng": 21.2845025
        },
        "keyAccentLanguage": "bangato"
      },
      {
        "code": 0,
        "type": "City",
        "enNameLanguage": "Bobi",
        "location": {
          "lat": 5.3320232,
          "lng": 21.6826459
        },
        "keyAccentLanguage": "bobi"
      },
      {
        "code": 0,
        "type": "City",
        "enNameLanguage": "Belogba",
        "location": {
          "lat": 4.813548,
          "lng": 21.1958375
        },
        "keyAccentLanguage": "belogba"
      },
      {
        "code": 0,
        "type": "City",
        "enNameLanguage": "Boudia",
        "location": {
          "lat": 4.5368483,
          "lng": 20.7856614
        },
        "keyAccentLanguage": "boudia"
      },
      {
        "code": 0,
        "type": "City",
        "enNameLanguage": "Bitou",
        "location": {
          "lat": 4.7553085,
          "lng": 21.2248486
        },
        "keyAccentLanguage": "bitou"
      },
      {
        "code": 0,
        "type": "City",
        "enNameLanguage": "Bissoula",
        "location": {
          "lat": 4.8719319,
          "lng": 21.2845025
        },
        "keyAccentLanguage": "bissoula"
      },
      {
        "code": 0,
        "type": "City",
        "enNameLanguage": "Songba Il",
        "location": {
          "lat": 4.8719319,
          "lng": 21.2845025
        },
        "keyAccentLanguage": "songba_il"
      },
      {
        "code": 0,
        "type": "City",
        "enNameLanguage": "Bouima",
        "location": {
          "lat": 4.8719319,
          "lng": 21.2845025
        },
        "keyAccentLanguage": "bouima"
      },
      {
        "code": 0,
        "type": "City",
        "enNameLanguage": "Bita",
        "location": {
          "lat": 4.8719319,
          "lng": 21.2845025
        },
        "keyAccentLanguage": "bita"
      },
      {
        "code": 0,
        "type": "City",
        "enNameLanguage": "Bikouma",
        "location": {
          "lat": 4.3529101,
          "lng": 21.2881469
        },
        "keyAccentLanguage": "bikouma"
      },
      {
        "code": 0,
        "type": "City",
        "enNameLanguage": "Boulangba",
        "location": {
          "lat": 4.8719319,
          "lng": 21.2845025
        },
        "keyAccentLanguage": "boulangba"
      },
      {
        "code": 0,
        "type": "City",
        "enNameLanguage": "Borota",
        "location": {
          "lat": 5.0710995,
          "lng": 21.1215137
        },
        "keyAccentLanguage": "borota"
      },
      {
        "code": 0,
        "type": "City",
        "enNameLanguage": "Mingala",
        "location": {
          "lat": 5.3022107,
          "lng": 21.8896493
        },
        "keyAccentLanguage": "mingala"
      },
      {
        "code": 0,
        "type": "City",
        "enNameLanguage": "Boulouvou",
        "location": {
          "lat": 4.7175115,
          "lng": 21.0213042
        },
        "keyAccentLanguage": "boulouvou"
      },
      {
        "code": 0,
        "type": "City",
        "enNameLanguage": "Bologo",
        "location": {
          "lat": 4.602648299999999,
          "lng": 21.5601504
        },
        "keyAccentLanguage": "bologo"
      },
      {
        "code": 0,
        "type": "City",
        "enNameLanguage": "Kembe",
        "location": {
          "lat": 4.6147368,
          "lng": 21.8866683
        },
        "keyAccentLanguage": "kembe"
      },
      {
        "code": 0,
        "type": "City",
        "enNameLanguage": "Biobado",
        "location": {
          "lat": 4.8761911,
          "lng": 21.7618076
        },
        "keyAccentLanguage": "biobado"
      },
      {
        "code": 0,
        "type": "City",
        "enNameLanguage": "Satema",
        "location": {
          "lat": 4.4092306,
          "lng": 21.9393888
        },
        "keyAccentLanguage": "satema"
      },
      {
        "code": 0,
        "type": "City",
        "enNameLanguage": "Bounga",
        "location": {
          "lat": 4.8719319,
          "lng": 21.2845025
        },
        "keyAccentLanguage": "bounga"
      },
      {
        "code": 0,
        "type": "City",
        "enNameLanguage": "Gongo",
        "location": {
          "lat": 4.8629584,
          "lng": 21.3351783
        },
        "keyAccentLanguage": "gongo"
      },
      {
        "code": 0,
        "type": "City",
        "enNameLanguage": "Abrounda",
        "location": {
          "lat": 4.533,
          "lng": 21.383
        },
        "keyAccentLanguage": "abrounda"
      },
      {
        "code": 0,
        "type": "City",
        "enNameLanguage": "Aka",
        "location": {
          "lat": 4.583,
          "lng": 21.7
        },
        "keyAccentLanguage": "aka"
      },
      {
        "code": 0,
        "type": "City",
        "enNameLanguage": "Bolanga",
        "location": {
          "lat": 4.533,
          "lng": 21.117
        },
        "keyAccentLanguage": "bolanga"
      },
      {
        "code": 0,
        "type": "City",
        "enNameLanguage": "Bilima",
        "location": {
          "lat": 4.533,
          "lng": 20.767
        },
        "keyAccentLanguage": "bilima"
      },
      {
        "code": 0,
        "type": "City",
        "enNameLanguage": "Bangaloko",
        "location": {
          "lat": 4.417,
          "lng": 20.583
        },
        "keyAccentLanguage": "bangaloko"
      },
      {
        "code": 0,
        "type": "City",
        "enNameLanguage": "Bimba",
        "location": {
          "lat": 4.6,
          "lng": 21.3
        },
        "keyAccentLanguage": "bimba"
      },
      {
        "code": 0,
        "type": "City",
        "enNameLanguage": "Bangou",
        "location": {
          "lat": 4.583,
          "lng": 21.7
        },
        "keyAccentLanguage": "bangou"
      },
      {
        "code": 0,
        "type": "City",
        "enNameLanguage": "Biaka",
        "location": {
          "lat": 4.267,
          "lng": 21.417
        },
        "keyAccentLanguage": "biaka"
      },
      {
        "code": 0,
        "type": "City",
        "enNameLanguage": "Mobaye",
        "location": {
          "lat": 4.321,
          "lng": 21.183
        },
        "keyAccentLanguage": "mobaye"
      },
      {
        "code": 0,
        "type": "City",
        "enNameLanguage": "Botopa",
        "location": {
          "lat": 4.417,
          "lng": 21.117
        },
        "keyAccentLanguage": "botopa"
      },
      {
        "code": 0,
        "type": "City",
        "enNameLanguage": "Bodro",
        "location": {
          "lat": 4.317,
          "lng": 21.217
        },
        "keyAccentLanguage": "bodro"
      },
      {
        "code": 0,
        "type": "City",
        "enNameLanguage": "Bindjou",
        "location": {
          "lat": 4.717,
          "lng": 21.083
        },
        "keyAccentLanguage": "bindjou"
      },
      {
        "code": 0,
        "type": "City",
        "enNameLanguage": "Balidou",
        "location": {
          "lat": 4.667,
          "lng": 20.983
        },
        "keyAccentLanguage": "balidou"
      },
      {
        "code": 0,
        "type": "City",
        "enNameLanguage": "Ngoubia",
        "location": {
          "lat": 4.736,
          "lng": 20.753
        },
        "keyAccentLanguage": "ngoubia"
      },
      {
        "code": 0,
        "type": "City",
        "enNameLanguage": "Boudou",
        "location": {
          "lat": 4.567,
          "lng": 21.5
        },
        "keyAccentLanguage": "boudou"
      },
      {
        "code": 0,
        "type": "City",
        "enNameLanguage": "Bida",
        "location": {
          "lat": 4.283,
          "lng": 21.817
        },
        "keyAccentLanguage": "bida"
      },
      {
        "code": 0,
        "type": "City",
        "enNameLanguage": "Bandakoleangba",
        "location": {
          "lat": 4.667,
          "lng": 20.983
        },
        "keyAccentLanguage": "bandakoleangba"
      },
      {
        "code": 0,
        "type": "City",
        "enNameLanguage": "Bangourou",
        "location": {
          "lat": 4.5,
          "lng": 22.017
        },
        "keyAccentLanguage": "bangourou"
      },
      {
        "code": 0,
        "type": "City",
        "enNameLanguage": "Bolo",
        "location": {
          "lat": 4.467,
          "lng": 21.283
        },
        "keyAccentLanguage": "bolo"
      },
      {
        "code": 0,
        "type": "City",
        "enNameLanguage": "Boulida",
        "location": {
          "lat": 4.8719319,
          "lng": 21.2845025
        },
        "keyAccentLanguage": "boulida"
      },
      {
        "code": 0,
        "type": "City",
        "enNameLanguage": "Ngoatchi",
        "location": {
          "lat": 4.8719319,
          "lng": 21.2845025
        },
        "keyAccentLanguage": "ngoatchi"
      },
      {
        "code": 0,
        "type": "City",
        "enNameLanguage": "Goutoro",
        "location": {
          "lat": 4.512385,
          "lng": 21.131187
        },
        "keyAccentLanguage": "goutoro"
      },
      {
        "code": 0,
        "type": "City",
        "enNameLanguage": "Mbada",
        "location": {
          "lat": 4.5487173,
          "lng": 20.6790428
        },
        "keyAccentLanguage": "mbada"
      }
    ],
    "enNameLanguage": "Basse-Kotto",
    "keyAccentLanguage": "basse-kotto"
  },
  {
    "code": 0,
    "type": "State",
    "location": {
      "lat": 6.2537134,
      "lng": 25.4733554
    },
    "districtList": [
      {
        "code": 0,
        "type": "City",
        "enNameLanguage": "Bangbata",
        "location": {
          "lat": 5.1474601,
          "lng": 25.1745326
        },
        "keyAccentLanguage": "bangbata"
      },
      {
        "code": 0,
        "type": "City",
        "enNameLanguage": "Bangassou Issa",
        "location": {
          "lat": 5.1191312,
          "lng": 24.8421352
        },
        "keyAccentLanguage": "bangassou_issa"
      },
      {
        "code": 0,
        "type": "City",
        "enNameLanguage": "Bangara",
        "location": {
          "lat": 5.700998999999999,
          "lng": 26.145479
        },
        "keyAccentLanguage": "bangara"
      },
      {
        "code": 0,
        "type": "City",
        "enNameLanguage": "Bangasou",
        "location": {
          "lat": 5.2013299,
          "lng": 25.1831133
        },
        "keyAccentLanguage": "bangasou"
      },
      {
        "code": 0,
        "type": "City",
        "enNameLanguage": "Bangarou",
        "location": {
          "lat": 5.730050599999999,
          "lng": 25.3022503
        },
        "keyAccentLanguage": "bangarou"
      },
      {
        "code": 0,
        "type": "City",
        "enNameLanguage": "Bokindo",
        "location": {
          "lat": 5.2731856,
          "lng": 25.185588
        },
        "keyAccentLanguage": "bokindo"
      },
      {
        "code": 0,
        "type": "City",
        "enNameLanguage": "Atologbiri",
        "location": {
          "lat": 5.849638,
          "lng": 26.046221
        },
        "keyAccentLanguage": "atologbiri"
      },
      {
        "code": 0,
        "type": "City",
        "enNameLanguage": "Banangi",
        "location": {
          "lat": 5.5493118,
          "lng": 25.2343542
        },
        "keyAccentLanguage": "banangi"
      },
      {
        "code": 0,
        "type": "City",
        "enNameLanguage": "Bambouti",
        "location": {
          "lat": 5.347142100000001,
          "lng": 27.1941153
        },
        "keyAccentLanguage": "bambouti"
      },
      {
        "code": 0,
        "type": "City",
        "enNameLanguage": "Boma",
        "location": {
          "lat": 5.078989099999999,
          "lng": 25.012487
        },
        "keyAccentLanguage": "boma"
      },
      {
        "code": 0,
        "type": "City",
        "enNameLanguage": "Bangbi II",
        "location": {
          "lat": 5.333333000000001,
          "lng": 27.183333
        },
        "keyAccentLanguage": "bangbi_ii"
      },
      {
        "code": 0,
        "type": "City",
        "enNameLanguage": "Ligoua",
        "location": {
          "lat": 5.2197067,
          "lng": 26.6054034
        },
        "keyAccentLanguage": "ligoua"
      },
      {
        "code": 0,
        "type": "City",
        "enNameLanguage": "Aminagou",
        "location": {
          "lat": 5.4142519,
          "lng": 25.5763908
        },
        "keyAccentLanguage": "aminagou"
      },
      {
        "code": 0,
        "type": "City",
        "enNameLanguage": "Bavoundou",
        "location": {
          "lat": 5.2,
          "lng": 25.05
        },
        "keyAccentLanguage": "bavoundou"
      },
      {
        "code": 0,
        "type": "City",
        "enNameLanguage": "Dobane",
        "location": {
          "lat": 6.4099901,
          "lng": 24.6660908
        },
        "keyAccentLanguage": "dobane"
      },
      {
        "code": 0,
        "type": "City",
        "enNameLanguage": "Dagboyo",
        "location": {
          "lat": 5.3489207,
          "lng": 25.3441544
        },
        "keyAccentLanguage": "dagboyo"
      },
      {
        "code": 0,
        "type": "City",
        "enNameLanguage": "Mbaga",
        "location": {
          "lat": 5.4633733,
          "lng": 25.6391396
        },
        "keyAccentLanguage": "mbaga"
      },
      {
        "code": 0,
        "type": "City",
        "enNameLanguage": "Djema",
        "location": {
          "lat": 6.0440155,
          "lng": 25.3146848
        },
        "keyAccentLanguage": "djema"
      },
      {
        "code": 0,
        "type": "City",
        "enNameLanguage": "Zemio",
        "location": {
          "lat": 5.0308931,
          "lng": 25.1325897
        },
        "keyAccentLanguage": "zemio"
      },
      {
        "code": 0,
        "type": "City",
        "enNameLanguage": "Pania",
        "location": {
          "lat": 6.2537134,
          "lng": 25.4733554
        },
        "keyAccentLanguage": "pania"
      },
      {
        "code": 0,
        "type": "City",
        "enNameLanguage": "Kourouko",
        "location": {
          "lat": 6.2537134,
          "lng": 25.4733554
        },
        "keyAccentLanguage": "kourouko"
      },
      {
        "code": 0,
        "type": "City",
        "enNameLanguage": "Bitilifondi",
        "location": {
          "lat": 6.2537134,
          "lng": 25.4733554
        },
        "keyAccentLanguage": "bitilifondi"
      },
      {
        "code": 0,
        "type": "City",
        "enNameLanguage": "Birango",
        "location": {
          "lat": 6.2537134,
          "lng": 25.4733554
        },
        "keyAccentLanguage": "birango"
      },
      {
        "code": 0,
        "type": "City",
        "enNameLanguage": "Bougoua",
        "location": {
          "lat": 6.2537134,
          "lng": 25.4733554
        },
        "keyAccentLanguage": "bougoua"
      },
      {
        "code": 0,
        "type": "City",
        "enNameLanguage": "Morkia",
        "location": {
          "lat": 6.2537134,
          "lng": 25.4733554
        },
        "keyAccentLanguage": "morkia"
      },
      {
        "code": 0,
        "type": "City",
        "enNameLanguage": "Degri",
        "location": {
          "lat": 6.2537134,
          "lng": 25.4733554
        },
        "keyAccentLanguage": "degri"
      },
      {
        "code": 0,
        "type": "City",
        "enNameLanguage": "Dakatimonga",
        "location": {
          "lat": 6.2537134,
          "lng": 25.4733554
        },
        "keyAccentLanguage": "dakatimonga"
      },
      {
        "code": 0,
        "type": "City",
        "enNameLanguage": "Ngouyo",
        "location": {
          "lat": 6.2537134,
          "lng": 25.4733554
        },
        "keyAccentLanguage": "ngouyo"
      },
      {
        "code": 0,
        "type": "City",
        "enNameLanguage": "Maye",
        "location": {
          "lat": 6.0418093,
          "lng": 25.3140887
        },
        "keyAccentLanguage": "maye"
      },
      {
        "code": 0,
        "type": "City",
        "enNameLanguage": "Pavondo",
        "location": {
          "lat": 6.2537134,
          "lng": 25.4733554
        },
        "keyAccentLanguage": "pavondo"
      },
      {
        "code": 0,
        "type": "City",
        "enNameLanguage": "Ouando",
        "location": {
          "lat": 6.2537134,
          "lng": 25.4733554
        },
        "keyAccentLanguage": "ouando"
      },
      {
        "code": 0,
        "type": "City",
        "enNameLanguage": "Danga",
        "location": {
          "lat": 6.2537134,
          "lng": 25.4733554
        },
        "keyAccentLanguage": "danga"
      },
      {
        "code": 0,
        "type": "City",
        "enNameLanguage": "Ganbara",
        "location": {
          "lat": 5.0660878,
          "lng": 25.0398126
        },
        "keyAccentLanguage": "ganbara"
      },
      {
        "code": 0,
        "type": "City",
        "enNameLanguage": "Ezo",
        "location": {
          "lat": 6.2537134,
          "lng": 25.4733554
        },
        "keyAccentLanguage": "ezo"
      },
      {
        "code": 0,
        "type": "City",
        "enNameLanguage": "Kitessa",
        "location": {
          "lat": 6.2537134,
          "lng": 25.4733554
        },
        "keyAccentLanguage": "kitessa"
      },
      {
        "code": 0,
        "type": "City",
        "enNameLanguage": "Ancien Zemongo",
        "location": {
          "lat": 6.2537134,
          "lng": 25.4733554
        },
        "keyAccentLanguage": "ancien_zemongo"
      },
      {
        "code": 0,
        "type": "City",
        "enNameLanguage": "Mopoi",
        "location": {
          "lat": 6.2537134,
          "lng": 25.4733554
        },
        "keyAccentLanguage": "mopoi"
      },
      {
        "code": 0,
        "type": "City",
        "enNameLanguage": "Gafourou",
        "location": {
          "lat": 6.2537134,
          "lng": 25.4733554
        },
        "keyAccentLanguage": "gafourou"
      },
      {
        "code": 0,
        "type": "City",
        "enNameLanguage": "Nagpanga",
        "location": {
          "lat": 6.2537134,
          "lng": 25.4733554
        },
        "keyAccentLanguage": "nagpanga"
      },
      {
        "code": 0,
        "type": "City",
        "enNameLanguage": "Denikipa",
        "location": {
          "lat": 6.2537134,
          "lng": 25.4733554
        },
        "keyAccentLanguage": "denikipa"
      },
      {
        "code": 0,
        "type": "City",
        "enNameLanguage": "Koumbare",
        "location": {
          "lat": 6.2537134,
          "lng": 25.4733554
        },
        "keyAccentLanguage": "koumbare"
      },
      {
        "code": 0,
        "type": "City",
        "enNameLanguage": "Bassigbiri",
        "location": {
          "lat": 6.2537134,
          "lng": 25.4733554
        },
        "keyAccentLanguage": "bassigbiri"
      },
      {
        "code": 0,
        "type": "City",
        "enNameLanguage": "Matafa",
        "location": {
          "lat": 6.2537134,
          "lng": 25.4733554
        },
        "keyAccentLanguage": "matafa"
      },
      {
        "code": 0,
        "type": "City",
        "enNameLanguage": "Bonbe",
        "location": {
          "lat": 5.3748792,
          "lng": 26.4811283
        },
        "keyAccentLanguage": "bonbe"
      },
      {
        "code": 0,
        "type": "City",
        "enNameLanguage": "Barrh",
        "location": {
          "lat": 6.2537134,
          "lng": 25.4733554
        },
        "keyAccentLanguage": "barrh"
      },
      {
        "code": 0,
        "type": "City",
        "enNameLanguage": "Ganbatoure",
        "location": {
          "lat": 6.2537134,
          "lng": 25.4733554
        },
        "keyAccentLanguage": "ganbatoure"
      },
      {
        "code": 0,
        "type": "City",
        "enNameLanguage": "Agbosi",
        "location": {
          "lat": 6.2537134,
          "lng": 25.4733554
        },
        "keyAccentLanguage": "agbosi"
      },
      {
        "code": 0,
        "type": "City",
        "enNameLanguage": "Kbande",
        "location": {
          "lat": 6.2537134,
          "lng": 25.4733554
        },
        "keyAccentLanguage": "kbande"
      },
      {
        "code": 0,
        "type": "City",
        "enNameLanguage": "Barakabinga",
        "location": {
          "lat": 6.2537134,
          "lng": 25.4733554
        },
        "keyAccentLanguage": "barakabinga"
      },
      {
        "code": 0,
        "type": "City",
        "enNameLanguage": "Ahmed",
        "location": {
          "lat": 6.2537134,
          "lng": 25.4733554
        },
        "keyAccentLanguage": "ahmed"
      },
      {
        "code": 0,
        "type": "City",
        "enNameLanguage": "Hele",
        "location": {
          "lat": 6.2537134,
          "lng": 25.4733554
        },
        "keyAccentLanguage": "hele"
      },
      {
        "code": 0,
        "type": "City",
        "enNameLanguage": "Nipa",
        "location": {
          "lat": 6.2537134,
          "lng": 25.4733554
        },
        "keyAccentLanguage": "nipa"
      },
      {
        "code": 0,
        "type": "City",
        "enNameLanguage": "Parabanda",
        "location": {
          "lat": 6.2537134,
          "lng": 25.4733554
        },
        "keyAccentLanguage": "parabanda"
      },
      {
        "code": 0,
        "type": "City",
        "enNameLanguage": "Gbalia",
        "location": {
          "lat": 6.2537134,
          "lng": 25.4733554
        },
        "keyAccentLanguage": "gbalia"
      },
      {
        "code": 0,
        "type": "City",
        "enNameLanguage": "Alakhai",
        "location": {
          "lat": 6.2537134,
          "lng": 25.4733554
        },
        "keyAccentLanguage": "alakhai"
      },
      {
        "code": 0,
        "type": "City",
        "enNameLanguage": "Bac",
        "location": {
          "lat": 6.2537134,
          "lng": 25.4733554
        },
        "keyAccentLanguage": "bac"
      },
      {
        "code": 0,
        "type": "City",
        "enNameLanguage": "Fouka",
        "location": {
          "lat": 6.2537134,
          "lng": 25.4733554
        },
        "keyAccentLanguage": "fouka"
      },
      {
        "code": 0,
        "type": "City",
        "enNameLanguage": "Kerre",
        "location": {
          "lat": 6.2537134,
          "lng": 25.4733554
        },
        "keyAccentLanguage": "kerre"
      },
      {
        "code": 0,
        "type": "City",
        "enNameLanguage": "Gousgoua",
        "location": {
          "lat": 6.2537134,
          "lng": 25.4733554
        },
        "keyAccentLanguage": "gousgoua"
      },
      {
        "code": 0,
        "type": "City",
        "enNameLanguage": "Noli",
        "location": {
          "lat": 6.2537134,
          "lng": 25.4733554
        },
        "keyAccentLanguage": "noli"
      },
      {
        "code": 0,
        "type": "City",
        "enNameLanguage": "Komboli",
        "location": {
          "lat": 6.2537134,
          "lng": 25.4733554
        },
        "keyAccentLanguage": "komboli"
      },
      {
        "code": 0,
        "type": "City",
        "enNameLanguage": "Bandasi",
        "location": {
          "lat": 6.2537134,
          "lng": 25.4733554
        },
        "keyAccentLanguage": "bandasi"
      },
      {
        "code": 0,
        "type": "City",
        "enNameLanguage": "Bembe Ouadaka",
        "location": {
          "lat": 6.2537134,
          "lng": 25.4733554
        },
        "keyAccentLanguage": "bembe_ouadaka"
      },
      {
        "code": 0,
        "type": "City",
        "enNameLanguage": "Dakoma",
        "location": {
          "lat": 5.357475200000001,
          "lng": 25.3599753
        },
        "keyAccentLanguage": "dakoma"
      },
      {
        "code": 0,
        "type": "City",
        "enNameLanguage": "Dedoumou",
        "location": {
          "lat": 6.2537134,
          "lng": 25.4733554
        },
        "keyAccentLanguage": "dedoumou"
      },
      {
        "code": 0,
        "type": "City",
        "enNameLanguage": "Gesimbala",
        "location": {
          "lat": 6.2537134,
          "lng": 25.4733554
        },
        "keyAccentLanguage": "gesimbala"
      },
      {
        "code": 0,
        "type": "City",
        "enNameLanguage": "Banbito",
        "location": {
          "lat": 6.2537134,
          "lng": 25.4733554
        },
        "keyAccentLanguage": "banbito"
      },
      {
        "code": 0,
        "type": "City",
        "enNameLanguage": "Bengri",
        "location": {
          "lat": 6.2537134,
          "lng": 25.4733554
        },
        "keyAccentLanguage": "bengri"
      },
      {
        "code": 0,
        "type": "City",
        "enNameLanguage": "Finzane",
        "location": {
          "lat": 6.2537134,
          "lng": 25.4733554
        },
        "keyAccentLanguage": "finzane"
      },
      {
        "code": 0,
        "type": "City",
        "enNameLanguage": "Monboi",
        "location": {
          "lat": 6.2537134,
          "lng": 25.4733554
        },
        "keyAccentLanguage": "monboi"
      },
      {
        "code": 0,
        "type": "City",
        "enNameLanguage": "Ginidagini",
        "location": {
          "lat": 6.2537134,
          "lng": 25.4733554
        },
        "keyAccentLanguage": "ginidagini"
      },
      {
        "code": 0,
        "type": "City",
        "enNameLanguage": "Ndavou",
        "location": {
          "lat": 6.2537134,
          "lng": 25.4733554
        },
        "keyAccentLanguage": "ndavou"
      },
      {
        "code": 0,
        "type": "City",
        "enNameLanguage": "Kounboli",
        "location": {
          "lat": 6.2537134,
          "lng": 25.4733554
        },
        "keyAccentLanguage": "kounboli"
      },
      {
        "code": 0,
        "type": "City",
        "enNameLanguage": "Gedinba",
        "location": {
          "lat": 6.2537134,
          "lng": 25.4733554
        },
        "keyAccentLanguage": "gedinba"
      },
      {
        "code": 0,
        "type": "City",
        "enNameLanguage": "Kazima",
        "location": {
          "lat": 6.2537134,
          "lng": 25.4733554
        },
        "keyAccentLanguage": "kazima"
      },
      {
        "code": 0,
        "type": "City",
        "enNameLanguage": "Maboussou",
        "location": {
          "lat": 6.2537134,
          "lng": 25.4733554
        },
        "keyAccentLanguage": "maboussou"
      },
      {
        "code": 0,
        "type": "City",
        "enNameLanguage": "Ganikpio",
        "location": {
          "lat": 6.2537134,
          "lng": 25.4733554
        },
        "keyAccentLanguage": "ganikpio"
      },
      {
        "code": 0,
        "type": "City",
        "enNameLanguage": "Ikpiro",
        "location": {
          "lat": 6.2537134,
          "lng": 25.4733554
        },
        "keyAccentLanguage": "ikpiro"
      },
      {
        "code": 0,
        "type": "City",
        "enNameLanguage": "Mbage",
        "location": {
          "lat": 6.2537134,
          "lng": 25.4733554
        },
        "keyAccentLanguage": "mbage"
      },
      {
        "code": 0,
        "type": "City",
        "enNameLanguage": "Guedimba",
        "location": {
          "lat": 6.2537134,
          "lng": 25.4733554
        },
        "keyAccentLanguage": "guedimba"
      },
      {
        "code": 0,
        "type": "City",
        "enNameLanguage": "Nzakara",
        "location": {
          "lat": 6.2537134,
          "lng": 25.4733554
        },
        "keyAccentLanguage": "nzakara"
      },
      {
        "code": 0,
        "type": "City",
        "enNameLanguage": "Mboki",
        "location": {
          "lat": 5.3155739,
          "lng": 25.9571471
        },
        "keyAccentLanguage": "mboki"
      },
      {
        "code": 0,
        "type": "City",
        "enNameLanguage": "Kaousoumgafay",
        "location": {
          "lat": 5.3895409,
          "lng": 25.4919906
        },
        "keyAccentLanguage": "kaousoumgafay"
      },
      {
        "code": 0,
        "type": "City",
        "enNameLanguage": "Panbolinbo",
        "location": {
          "lat": 5.291417699999999,
          "lng": 26.1374268
        },
        "keyAccentLanguage": "panbolinbo"
      },
      {
        "code": 0,
        "type": "City",
        "enNameLanguage": "Patahinga",
        "location": {
          "lat": 5.0973668,
          "lng": 24.634154
        },
        "keyAccentLanguage": "patahinga"
      },
      {
        "code": 0,
        "type": "City",
        "enNameLanguage": "Mabeko",
        "location": {
          "lat": 5.2975197,
          "lng": 26.8890747
        },
        "keyAccentLanguage": "mabeko"
      },
      {
        "code": 0,
        "type": "City",
        "enNameLanguage": "Obo",
        "location": {
          "lat": 5.3931378,
          "lng": 26.4924857
        },
        "keyAccentLanguage": "obo"
      },
      {
        "code": 0,
        "type": "City",
        "enNameLanguage": "Paratio",
        "location": {
          "lat": 6.2537134,
          "lng": 25.4733554
        },
        "keyAccentLanguage": "paratio"
      },
      {
        "code": 0,
        "type": "City",
        "enNameLanguage": "Boytabie",
        "location": {
          "lat": 5.4676792,
          "lng": 25.6247728
        },
        "keyAccentLanguage": "boytabie"
      },
      {
        "code": 0,
        "type": "City",
        "enNameLanguage": "Ancien Goubere",
        "location": {
          "lat": 6.2537134,
          "lng": 25.4733554
        },
        "keyAccentLanguage": "ancien_goubere"
      },
      {
        "code": 0,
        "type": "City",
        "enNameLanguage": "Foupio",
        "location": {
          "lat": 5.3154765,
          "lng": 26.5326413
        },
        "keyAccentLanguage": "foupio"
      },
      {
        "code": 0,
        "type": "City",
        "enNameLanguage": "Bandakpa",
        "location": {
          "lat": 6.2537134,
          "lng": 25.4733554
        },
        "keyAccentLanguage": "bandakpa"
      },
      {
        "code": 0,
        "type": "City",
        "enNameLanguage": "Nangaboli",
        "location": {
          "lat": 5.267821,
          "lng": 25.2512995
        },
        "keyAccentLanguage": "nangaboli"
      },
      {
        "code": 0,
        "type": "City",
        "enNameLanguage": "La Ouagou",
        "location": {
          "lat": 5.762846499999999,
          "lng": 25.9685279
        },
        "keyAccentLanguage": "la_ouagou"
      },
      {
        "code": 0,
        "type": "City",
        "enNameLanguage": "Ouratonga",
        "location": {
          "lat": 5.2134312,
          "lng": 25.2251543
        },
        "keyAccentLanguage": "ouratonga"
      },
      {
        "code": 0,
        "type": "City",
        "enNameLanguage": "Zoungakpio",
        "location": {
          "lat": 5.208114,
          "lng": 26.661341
        },
        "keyAccentLanguage": "zoungakpio"
      },
      {
        "code": 0,
        "type": "City",
        "enNameLanguage": "Pekeyo",
        "location": {
          "lat": 6.060078799999999,
          "lng": 25.3066627
        },
        "keyAccentLanguage": "pekeyo"
      },
      {
        "code": 0,
        "type": "City",
        "enNameLanguage": "Zingo Dwete",
        "location": {
          "lat": 5.3617785,
          "lng": 26.951376
        },
        "keyAccentLanguage": "zingo_dwete"
      },
      {
        "code": 0,
        "type": "City",
        "enNameLanguage": "Basole",
        "location": {
          "lat": 6.040106799999999,
          "lng": 25.2971559
        },
        "keyAccentLanguage": "basole"
      },
      {
        "code": 0,
        "type": "City",
        "enNameLanguage": "Mandza",
        "location": {
          "lat": 6.2537134,
          "lng": 25.4733554
        },
        "keyAccentLanguage": "mandza"
      }
    ],
    "enNameLanguage": "Haut-Mbomou",
    "keyAccentLanguage": "haut-mbomou"
  },
  {
    "code": 0,
    "type": "State",
    "location": {
      "lat": 7.7964379,
      "lng": 23.3823545
    },
    "districtList": [
      {
        "code": 0,
        "type": "City",
        "enNameLanguage": "Akochio",
        "location": {
          "lat": 7.7964379,
          "lng": 23.3823545
        },
        "keyAccentLanguage": "akochio"
      },
      {
        "code": 0,
        "type": "City",
        "enNameLanguage": "Boungou",
        "location": {
          "lat": 7.9706381,
          "lng": 22.0485278
        },
        "keyAccentLanguage": "boungou"
      },
      {
        "code": 0,
        "type": "City",
        "enNameLanguage": "Akpa",
        "location": {
          "lat": 7.7964379,
          "lng": 23.3823545
        },
        "keyAccentLanguage": "akpa"
      },
      {
        "code": 0,
        "type": "City",
        "enNameLanguage": "Dinga II",
        "location": {
          "lat": 7.7964379,
          "lng": 23.3823545
        },
        "keyAccentLanguage": "dinga_ii"
      },
      {
        "code": 0,
        "type": "City",
        "enNameLanguage": "Aguidi",
        "location": {
          "lat": 7.7964379,
          "lng": 23.3823545
        },
        "keyAccentLanguage": "aguidi"
      },
      {
        "code": 0,
        "type": "City",
        "enNameLanguage": "Adelaye",
        "location": {
          "lat": 7.128157,
          "lng": 22.82682
        },
        "keyAccentLanguage": "adelaye"
      },
      {
        "code": 0,
        "type": "City",
        "enNameLanguage": "Bakoumbelepe",
        "location": {
          "lat": 7.7964379,
          "lng": 23.3823545
        },
        "keyAccentLanguage": "bakoumbelepe"
      },
      {
        "code": 0,
        "type": "City",
        "enNameLanguage": "Danguya",
        "location": {
          "lat": 7.7964379,
          "lng": 23.3823545
        },
        "keyAccentLanguage": "danguya"
      },
      {
        "code": 0,
        "type": "City",
        "enNameLanguage": "Bani",
        "location": {
          "lat": 7.7964379,
          "lng": 23.3823545
        },
        "keyAccentLanguage": "bani"
      },
      {
        "code": 0,
        "type": "City",
        "enNameLanguage": "Awalawa",
        "location": {
          "lat": 6.4190421,
          "lng": 22.5712655
        },
        "keyAccentLanguage": "awalawa"
      },
      {
        "code": 0,
        "type": "City",
        "enNameLanguage": "Dinga I",
        "location": {
          "lat": 7.7964379,
          "lng": 23.3823545
        },
        "keyAccentLanguage": "dinga_i"
      },
      {
        "code": 0,
        "type": "City",
        "enNameLanguage": "Boundou",
        "location": {
          "lat": 7.7964379,
          "lng": 23.3823545
        },
        "keyAccentLanguage": "boundou"
      },
      {
        "code": 0,
        "type": "City",
        "enNameLanguage": "Dinga",
        "location": {
          "lat": 7.7964379,
          "lng": 23.3823545
        },
        "keyAccentLanguage": "dinga"
      },
      {
        "code": 0,
        "type": "City",
        "enNameLanguage": "Abakoumbou I",
        "location": {
          "lat": 7.7964379,
          "lng": 23.3823545
        },
        "keyAccentLanguage": "abakoumbou_i"
      },
      {
        "code": 0,
        "type": "City",
        "enNameLanguage": "Goundele",
        "location": {
          "lat": 7.7964379,
          "lng": 23.3823545
        },
        "keyAccentLanguage": "goundele"
      },
      {
        "code": 0,
        "type": "City",
        "enNameLanguage": "Depassera",
        "location": {
          "lat": 6.141894499999999,
          "lng": 22.024439
        },
        "keyAccentLanguage": "depassera"
      },
      {
        "code": 0,
        "type": "City",
        "enNameLanguage": "Bangana",
        "location": {
          "lat": 7.7964379,
          "lng": 23.3823545
        },
        "keyAccentLanguage": "bangana"
      },
      {
        "code": 0,
        "type": "City",
        "enNameLanguage": "Dji",
        "location": {
          "lat": 7.7964379,
          "lng": 23.3823545
        },
        "keyAccentLanguage": "dji"
      },
      {
        "code": 0,
        "type": "City",
        "enNameLanguage": "Djanguere",
        "location": {
          "lat": 7.7964379,
          "lng": 23.3823545
        },
        "keyAccentLanguage": "djanguere"
      },
      {
        "code": 0,
        "type": "City",
        "enNameLanguage": "Bavora",
        "location": {
          "lat": 7.7964379,
          "lng": 23.3823545
        },
        "keyAccentLanguage": "bavora"
      },
      {
        "code": 0,
        "type": "City",
        "enNameLanguage": "Banguina",
        "location": {
          "lat": 6.35968,
          "lng": 23.2993176
        },
        "keyAccentLanguage": "banguina"
      },
      {
        "code": 0,
        "type": "City",
        "enNameLanguage": "Fakengue",
        "location": {
          "lat": 7.7964379,
          "lng": 23.3823545
        },
        "keyAccentLanguage": "fakengue"
      },
      {
        "code": 0,
        "type": "City",
        "enNameLanguage": "Ahiropa",
        "location": {
          "lat": 6.6476299,
          "lng": 22.0175845
        },
        "keyAccentLanguage": "ahiropa"
      },
      {
        "code": 0,
        "type": "City",
        "enNameLanguage": "Abati",
        "location": {
          "lat": 7.7964379,
          "lng": 23.3823545
        },
        "keyAccentLanguage": "abati"
      },
      {
        "code": 0,
        "type": "City",
        "enNameLanguage": "Bili",
        "location": {
          "lat": 7.7964379,
          "lng": 23.3823545
        },
        "keyAccentLanguage": "bili"
      },
      {
        "code": 0,
        "type": "City",
        "enNameLanguage": "Belembe",
        "location": {
          "lat": 7.7964379,
          "lng": 23.3823545
        },
        "keyAccentLanguage": "belembe"
      },
      {
        "code": 0,
        "type": "City",
        "enNameLanguage": "Agbaba",
        "location": {
          "lat": 6.426882699999999,
          "lng": 21.9961991
        },
        "keyAccentLanguage": "agbaba"
      },
      {
        "code": 0,
        "type": "City",
        "enNameLanguage": "Esse",
        "location": {
          "lat": 7.7964379,
          "lng": 23.3823545
        },
        "keyAccentLanguage": "esse"
      },
      {
        "code": 0,
        "type": "City",
        "enNameLanguage": "Fakoule",
        "location": {
          "lat": 7.7964379,
          "lng": 23.3823545
        },
        "keyAccentLanguage": "fakoule"
      },
      {
        "code": 0,
        "type": "City",
        "enNameLanguage": "Aguide",
        "location": {
          "lat": 7.7964379,
          "lng": 23.3823545
        },
        "keyAccentLanguage": "aguide"
      },
      {
        "code": 0,
        "type": "City",
        "enNameLanguage": "Banga Banda",
        "location": {
          "lat": 7.7964379,
          "lng": 23.3823545
        },
        "keyAccentLanguage": "banga_banda"
      },
      {
        "code": 0,
        "type": "City",
        "enNameLanguage": "Bakoufro",
        "location": {
          "lat": 7.2878571,
          "lng": 21.6733709
        },
        "keyAccentLanguage": "bakoufro"
      },
      {
        "code": 0,
        "type": "City",
        "enNameLanguage": "Angola",
        "location": {
          "lat": 7.7964379,
          "lng": 23.3823545
        },
        "keyAccentLanguage": "angola"
      },
      {
        "code": 0,
        "type": "City",
        "enNameLanguage": "Dadigba",
        "location": {
          "lat": 6.5086515,
          "lng": 22.1963663
        },
        "keyAccentLanguage": "dadigba"
      },
      {
        "code": 0,
        "type": "City",
        "enNameLanguage": "Bria",
        "location": {
          "lat": 6.5385135,
          "lng": 21.9878011
        },
        "keyAccentLanguage": "bria"
      },
      {
        "code": 0,
        "type": "City",
        "enNameLanguage": "Boumbou",
        "location": {
          "lat": 5.8111233,
          "lng": 22.0726579
        },
        "keyAccentLanguage": "boumbou"
      },
      {
        "code": 0,
        "type": "City",
        "enNameLanguage": "Dohoga",
        "location": {
          "lat": 7.7964379,
          "lng": 23.3823545
        },
        "keyAccentLanguage": "dohoga"
      },
      {
        "code": 0,
        "type": "City",
        "enNameLanguage": "Damonou",
        "location": {
          "lat": 7.7964379,
          "lng": 23.3823545
        },
        "keyAccentLanguage": "damonou"
      },
      {
        "code": 0,
        "type": "City",
        "enNameLanguage": "Djohobone",
        "location": {
          "lat": 7.7964379,
          "lng": 23.3823545
        },
        "keyAccentLanguage": "djohobone"
      },
      {
        "code": 0,
        "type": "City",
        "enNameLanguage": "Darassa",
        "location": {
          "lat": 7.7964379,
          "lng": 23.3823545
        },
        "keyAccentLanguage": "darassa"
      },
      {
        "code": 0,
        "type": "City",
        "enNameLanguage": "Ayaba",
        "location": {
          "lat": 6.719502100000001,
          "lng": 22.0122732
        },
        "keyAccentLanguage": "ayaba"
      },
      {
        "code": 0,
        "type": "City",
        "enNameLanguage": "Banga Batere",
        "location": {
          "lat": 7.7964379,
          "lng": 23.3823545
        },
        "keyAccentLanguage": "banga_batere"
      },
      {
        "code": 0,
        "type": "City",
        "enNameLanguage": "Anzito",
        "location": {
          "lat": 5.5939409,
          "lng": 22.0124907
        },
        "keyAccentLanguage": "anzito"
      },
      {
        "code": 0,
        "type": "City",
        "enNameLanguage": "Amete",
        "location": {
          "lat": 7.7964379,
          "lng": 23.3823545
        },
        "keyAccentLanguage": "amete"
      },
      {
        "code": 0,
        "type": "City",
        "enNameLanguage": "Kolengou",
        "location": {
          "lat": 7.7964379,
          "lng": 23.3823545
        },
        "keyAccentLanguage": "kolengou"
      },
      {
        "code": 0,
        "type": "City",
        "enNameLanguage": "Kodia",
        "location": {
          "lat": 7.7964379,
          "lng": 23.3823545
        },
        "keyAccentLanguage": "kodia"
      },
      {
        "code": 0,
        "type": "City",
        "enNameLanguage": "Frenguere",
        "location": {
          "lat": 7.7964379,
          "lng": 23.3823545
        },
        "keyAccentLanguage": "frenguere"
      },
      {
        "code": 0,
        "type": "City",
        "enNameLanguage": "Aouyalo",
        "location": {
          "lat": 7.7964379,
          "lng": 23.3823545
        },
        "keyAccentLanguage": "aouyalo"
      },
      {
        "code": 0,
        "type": "City",
        "enNameLanguage": "Koussou I",
        "location": {
          "lat": 7.7964379,
          "lng": 23.3823545
        },
        "keyAccentLanguage": "koussou_i"
      },
      {
        "code": 0,
        "type": "City",
        "enNameLanguage": "Amberepi",
        "location": {
          "lat": 6.466666999999999,
          "lng": 23.2333329
        },
        "keyAccentLanguage": "amberepi"
      },
      {
        "code": 0,
        "type": "City",
        "enNameLanguage": "Koubou",
        "location": {
          "lat": 7.7964379,
          "lng": 23.3823545
        },
        "keyAccentLanguage": "koubou"
      },
      {
        "code": 0,
        "type": "City",
        "enNameLanguage": "Gourounda",
        "location": {
          "lat": 7.7964379,
          "lng": 23.3823545
        },
        "keyAccentLanguage": "gourounda"
      },
      {
        "code": 0,
        "type": "City",
        "enNameLanguage": "Kapou",
        "location": {
          "lat": 6.7695007,
          "lng": 21.9813612
        },
        "keyAccentLanguage": "kapou"
      },
      {
        "code": 0,
        "type": "City",
        "enNameLanguage": "Abakoumbou II",
        "location": {
          "lat": 7.7964379,
          "lng": 23.3823545
        },
        "keyAccentLanguage": "abakoumbou_ii"
      },
      {
        "code": 0,
        "type": "City",
        "enNameLanguage": "Birini",
        "location": {
          "lat": 7.8937126,
          "lng": 22.4757765
        },
        "keyAccentLanguage": "birini"
      },
      {
        "code": 0,
        "type": "City",
        "enNameLanguage": "Doungou",
        "location": {
          "lat": 6.4666704,
          "lng": 22.8999904
        },
        "keyAccentLanguage": "doungou"
      },
      {
        "code": 0,
        "type": "City",
        "enNameLanguage": "Bembe",
        "location": {
          "lat": 6.3874967,
          "lng": 22.3741797
        },
        "keyAccentLanguage": "bembe"
      },
      {
        "code": 0,
        "type": "City",
        "enNameLanguage": "Kolaga",
        "location": {
          "lat": 7.7964379,
          "lng": 23.3823545
        },
        "keyAccentLanguage": "kolaga"
      },
      {
        "code": 0,
        "type": "City",
        "enNameLanguage": "Bandjiro",
        "location": {
          "lat": 5.8593641,
          "lng": 22.0703417
        },
        "keyAccentLanguage": "bandjiro"
      },
      {
        "code": 0,
        "type": "City",
        "enNameLanguage": "Boulouba",
        "location": {
          "lat": 6.8170942,
          "lng": 22.2639246
        },
        "keyAccentLanguage": "boulouba"
      },
      {
        "code": 0,
        "type": "City",
        "enNameLanguage": "Goubadjia",
        "location": {
          "lat": 7.7964379,
          "lng": 23.3823545
        },
        "keyAccentLanguage": "goubadjia"
      },
      {
        "code": 0,
        "type": "City",
        "enNameLanguage": "Goutingou",
        "location": {
          "lat": 6.75,
          "lng": 22.166667
        },
        "keyAccentLanguage": "goutingou"
      },
      {
        "code": 0,
        "type": "City",
        "enNameLanguage": "Gueremale",
        "location": {
          "lat": 7.7964379,
          "lng": 23.3823545
        },
        "keyAccentLanguage": "gueremale"
      },
      {
        "code": 0,
        "type": "City",
        "enNameLanguage": "Doungou III",
        "location": {
          "lat": 6.4666704,
          "lng": 22.8999904
        },
        "keyAccentLanguage": "doungou_iii"
      },
      {
        "code": 0,
        "type": "City",
        "enNameLanguage": "Kaouadja",
        "location": {
          "lat": 7.7964379,
          "lng": 23.3823545
        },
        "keyAccentLanguage": "kaouadja"
      },
      {
        "code": 0,
        "type": "City",
        "enNameLanguage": "Komangue",
        "location": {
          "lat": 7.7964379,
          "lng": 23.3823545
        },
        "keyAccentLanguage": "komangue"
      },
      {
        "code": 0,
        "type": "City",
        "enNameLanguage": "Guelede",
        "location": {
          "lat": 7.7964379,
          "lng": 23.3823545
        },
        "keyAccentLanguage": "guelede"
      },
      {
        "code": 0,
        "type": "City",
        "enNameLanguage": "Djako",
        "location": {
          "lat": 7.7964379,
          "lng": 23.3823545
        },
        "keyAccentLanguage": "djako"
      },
      {
        "code": 0,
        "type": "City",
        "enNameLanguage": "Fango",
        "location": {
          "lat": 7.7964379,
          "lng": 23.3823545
        },
        "keyAccentLanguage": "fango"
      },
      {
        "code": 0,
        "type": "City",
        "enNameLanguage": "Balinguere",
        "location": {
          "lat": 6.5398692,
          "lng": 21.8973765
        },
        "keyAccentLanguage": "balinguere"
      },
      {
        "code": 0,
        "type": "City",
        "enNameLanguage": "Iromou",
        "location": {
          "lat": 7.7964379,
          "lng": 23.3823545
        },
        "keyAccentLanguage": "iromou"
      },
      {
        "code": 0,
        "type": "City",
        "enNameLanguage": "Yalinga",
        "location": {
          "lat": 6.5147971,
          "lng": 23.2493331
        },
        "keyAccentLanguage": "yalinga"
      },
      {
        "code": 0,
        "type": "City",
        "enNameLanguage": "Diamako",
        "location": {
          "lat": 6.0696616,
          "lng": 22.0570871
        },
        "keyAccentLanguage": "diamako"
      },
      {
        "code": 0,
        "type": "City",
        "enNameLanguage": "Hyrra Banda",
        "location": {
          "lat": 7.7964379,
          "lng": 23.3823545
        },
        "keyAccentLanguage": "hyrra_banda"
      },
      {
        "code": 0,
        "type": "City",
        "enNameLanguage": "Bakaoua",
        "location": {
          "lat": 6.4662327,
          "lng": 22.0001307
        },
        "keyAccentLanguage": "bakaoua"
      },
      {
        "code": 0,
        "type": "City",
        "enNameLanguage": "Kozza",
        "location": {
          "lat": 6.6291387,
          "lng": 22.0784869
        },
        "keyAccentLanguage": "kozza"
      },
      {
        "code": 0,
        "type": "City",
        "enNameLanguage": "Grao",
        "location": {
          "lat": 6.365485899999999,
          "lng": 22.4165445
        },
        "keyAccentLanguage": "grao"
      },
      {
        "code": 0,
        "type": "City",
        "enNameLanguage": "Koumbala",
        "location": {
          "lat": 7.7964379,
          "lng": 23.3823545
        },
        "keyAccentLanguage": "koumbala"
      },
      {
        "code": 0,
        "type": "City",
        "enNameLanguage": "Dambatoro",
        "location": {
          "lat": 6.5973875,
          "lng": 21.9986469
        },
        "keyAccentLanguage": "dambatoro"
      },
      {
        "code": 0,
        "type": "City",
        "enNameLanguage": "Korobongo",
        "location": {
          "lat": 7.7964379,
          "lng": 23.3823545
        },
        "keyAccentLanguage": "korobongo"
      },
      {
        "code": 0,
        "type": "City",
        "enNameLanguage": "Gounouma",
        "location": {
          "lat": 7.7964379,
          "lng": 23.3823545
        },
        "keyAccentLanguage": "gounouma"
      },
      {
        "code": 0,
        "type": "City",
        "enNameLanguage": "Fola",
        "location": {
          "lat": 6.4229071,
          "lng": 22.3442212
        },
        "keyAccentLanguage": "fola"
      },
      {
        "code": 0,
        "type": "City",
        "enNameLanguage": "Koundou",
        "location": {
          "lat": 7.7964379,
          "lng": 23.3823545
        },
        "keyAccentLanguage": "koundou"
      },
      {
        "code": 0,
        "type": "City",
        "enNameLanguage": "Goulikpa",
        "location": {
          "lat": 7.7964379,
          "lng": 23.3823545
        },
        "keyAccentLanguage": "goulikpa"
      },
      {
        "code": 0,
        "type": "City",
        "enNameLanguage": "Ira Banda",
        "location": {
          "lat": 5.9489646,
          "lng": 22.070569
        },
        "keyAccentLanguage": "ira_banda"
      },
      {
        "code": 0,
        "type": "City",
        "enNameLanguage": "Mbii",
        "location": {
          "lat": 6.4667093,
          "lng": 22.6700116
        },
        "keyAccentLanguage": "mbii"
      },
      {
        "code": 0,
        "type": "City",
        "enNameLanguage": "Campement des Trois Rivieres",
        "location": {
          "lat": 7.7964379,
          "lng": 23.3823545
        },
        "keyAccentLanguage": "campement_des_trois_rivieres"
      },
      {
        "code": 0,
        "type": "City",
        "enNameLanguage": "Mbeti",
        "location": {
          "lat": 5.696771399999999,
          "lng": 22.0349305
        },
        "keyAccentLanguage": "mbeti"
      },
      {
        "code": 0,
        "type": "City",
        "enNameLanguage": "Ouadda",
        "location": {
          "lat": 8.068830499999999,
          "lng": 22.395524
        },
        "keyAccentLanguage": "ouadda"
      },
      {
        "code": 0,
        "type": "City",
        "enNameLanguage": "Kalaga",
        "location": {
          "lat": 6.8288973,
          "lng": 22.1808026
        },
        "keyAccentLanguage": "kalaga"
      },
      {
        "code": 0,
        "type": "City",
        "enNameLanguage": "Doungou II",
        "location": {
          "lat": 6.480289399999999,
          "lng": 22.7318722
        },
        "keyAccentLanguage": "doungou_ii"
      },
      {
        "code": 0,
        "type": "City",
        "enNameLanguage": "Lakotto",
        "location": {
          "lat": 7.187408800000001,
          "lng": 22.7563944
        },
        "keyAccentLanguage": "lakotto"
      },
      {
        "code": 0,
        "type": "City",
        "enNameLanguage": "Kotto I",
        "location": {
          "lat": 8.357289399999999,
          "lng": 23.3907366
        },
        "keyAccentLanguage": "kotto_i"
      },
      {
        "code": 0,
        "type": "City",
        "enNameLanguage": "Fakoule I",
        "location": {
          "lat": 7.7964379,
          "lng": 23.3823545
        },
        "keyAccentLanguage": "fakoule_i"
      },
      {
        "code": 0,
        "type": "City",
        "enNameLanguage": "Said Bandas",
        "location": {
          "lat": 8.173909000000002,
          "lng": 22.98657
        },
        "keyAccentLanguage": "said_bandas"
      },
      {
        "code": 0,
        "type": "City",
        "enNameLanguage": "La Kotto",
        "location": {
          "lat": 7.187408800000001,
          "lng": 22.7563944
        },
        "keyAccentLanguage": "la_kotto"
      },
      {
        "code": 0,
        "type": "City",
        "enNameLanguage": "Kpava",
        "location": {
          "lat": 6.423807699999999,
          "lng": 22.4874447
        },
        "keyAccentLanguage": "kpava"
      },
      {
        "code": 0,
        "type": "City",
        "enNameLanguage": "Ouandjia",
        "location": {
          "lat": 8.5276965,
          "lng": 23.2498667
        },
        "keyAccentLanguage": "ouandjia"
      },
      {
        "code": 0,
        "type": "City",
        "enNameLanguage": "Kotto Ill",
        "location": {
          "lat": 6.130497356058448,
          "lng": 22.61946129956501
        },
        "keyAccentLanguage": "kotto_ill"
      },
      {
        "code": 0,
        "type": "City",
        "enNameLanguage": "Koussou II",
        "location": {
          "lat": 5.521437,
          "lng": 21.9415141
        },
        "keyAccentLanguage": "koussou_ii"
      }
    ],
    "enNameLanguage": "Haute-Kotto",
    "keyAccentLanguage": "haute-kotto"
  },
  {
    "code": 0,
    "type": "State",
    "location": {
      "lat": 37.7766653,
      "lng": -122.2241892
    },
    "districtList": [
      {
        "code": 0,
        "type": "City",
        "enNameLanguage": "Dekoa",
        "location": {
          "lat": 6.3185366,
          "lng": 19.0780145
        },
        "keyAccentLanguage": "dekoa"
      },
      {
        "code": 0,
        "type": "City",
        "enNameLanguage": "Bakaroua",
        "location": {
          "lat": 6.0683698,
          "lng": 19.6000553
        },
        "keyAccentLanguage": "bakaroua"
      },
      {
        "code": 0,
        "type": "City",
        "enNameLanguage": "Gigiliwa",
        "location": {
          "lat": 5.1394304,
          "lng": 19.2253871
        },
        "keyAccentLanguage": "gigiliwa"
      },
      {
        "code": 0,
        "type": "City",
        "enNameLanguage": "Bogote",
        "location": {
          "lat": 47.08163,
          "lng": 17.046715
        },
        "keyAccentLanguage": "bogote"
      },
      {
        "code": 0,
        "type": "City",
        "enNameLanguage": "Bagnere",
        "location": {
          "lat": 45.7489861,
          "lng": 7.3668901
        },
        "keyAccentLanguage": "bagnere"
      },
      {
        "code": 0,
        "type": "City",
        "enNameLanguage": "Bokenge",
        "location": {
          "lat": 5.7811963,
          "lng": 19.0986043
        },
        "keyAccentLanguage": "bokenge"
      },
      {
        "code": 0,
        "type": "City",
        "enNameLanguage": "Balinga",
        "location": {
          "lat": 5.2265086,
          "lng": 19.5292603
        },
        "keyAccentLanguage": "balinga"
      },
      {
        "code": 0,
        "type": "City",
        "enNameLanguage": "Kongolo",
        "location": {
          "lat": 5.653206300000001,
          "lng": 19.0838521
        },
        "keyAccentLanguage": "kongolo"
      },
      {
        "code": 0,
        "type": "City",
        "enNameLanguage": "Boase",
        "location": {
          "lat": 5.1359749,
          "lng": 19.4946218
        },
        "keyAccentLanguage": "boase"
      },
      {
        "code": 0,
        "type": "City",
        "enNameLanguage": "Sibut",
        "location": {
          "lat": 5.7316058,
          "lng": 19.0869316
        },
        "keyAccentLanguage": "sibut"
      },
      {
        "code": 0,
        "type": "City",
        "enNameLanguage": "Griko",
        "location": {
          "lat": 5.743090599999999,
          "lng": 19.3701732
        },
        "keyAccentLanguage": "griko"
      },
      {
        "code": 0,
        "type": "City",
        "enNameLanguage": "Djoukou",
        "location": {
          "lat": 5.129686,
          "lng": 19.3994866
        },
        "keyAccentLanguage": "djoukou"
      },
      {
        "code": 0,
        "type": "City",
        "enNameLanguage": "Malambama",
        "location": {
          "lat": 14.9675,
          "lng": 15.1772222
        },
        "keyAccentLanguage": "malambama"
      },
      {
        "code": 0,
        "type": "City",
        "enNameLanguage": "Djipolago",
        "location": {
          "lat": 5.9564454,
          "lng": 19.140416
        },
        "keyAccentLanguage": "djipolago"
      },
      {
        "code": 0,
        "type": "City",
        "enNameLanguage": "Bosopana",
        "location": {
          "lat": 5.235166899999999,
          "lng": 19.1701975
        },
        "keyAccentLanguage": "bosopana"
      },
      {
        "code": 0,
        "type": "City",
        "enNameLanguage": "Dangba",
        "location": {
          "lat": 5.8722964,
          "lng": 19.1428593
        },
        "keyAccentLanguage": "dangba"
      },
      {
        "code": 0,
        "type": "City",
        "enNameLanguage": "Bakema Dengou",
        "location": {
          "lat": 5.1135636,
          "lng": 19.7942786
        },
        "keyAccentLanguage": "bakema_dengou"
      },
      {
        "code": 0,
        "type": "City",
        "enNameLanguage": "Malingao",
        "location": {
          "lat": 7.9937416,
          "lng": 123.8550829
        },
        "keyAccentLanguage": "malingao"
      },
      {
        "code": 0,
        "type": "City",
        "enNameLanguage": "Boulouma Fabien",
        "location": {
          "lat": 5.368350299999999,
          "lng": 19.6334915
        },
        "keyAccentLanguage": "boulouma_fabien"
      },
      {
        "code": 0,
        "type": "City",
        "enNameLanguage": "Maleyonbo",
        "location": {
          "lat": 6.3974531,
          "lng": 19.1326455
        },
        "keyAccentLanguage": "maleyonbo"
      },
      {
        "code": 0,
        "type": "City",
        "enNameLanguage": "Bedongo",
        "location": {
          "lat": 6.3,
          "lng": 19.2
        },
        "keyAccentLanguage": "bedongo"
      },
      {
        "code": 0,
        "type": "City",
        "enNameLanguage": "Bedombo",
        "location": {
          "lat": 6.283,
          "lng": 19.317
        },
        "keyAccentLanguage": "bedombo"
      },
      {
        "code": 0,
        "type": "City",
        "enNameLanguage": "Bachi",
        "location": {
          "lat": 5.133,
          "lng": 19.75
        },
        "keyAccentLanguage": "bachi"
      },
      {
        "code": 0,
        "type": "City",
        "enNameLanguage": "Koukandjia",
        "location": {
          "lat": 6.333,
          "lng": 19.083
        },
        "keyAccentLanguage": "koukandjia"
      },
      {
        "code": 0,
        "type": "City",
        "enNameLanguage": "Basile-Kondo",
        "location": {
          "lat": 5.683,
          "lng": 19.283
        },
        "keyAccentLanguage": "basile-kondo"
      },
      {
        "code": 0,
        "type": "City",
        "enNameLanguage": "Domandere",
        "location": {
          "lat": 5.867,
          "lng": 19.15
        },
        "keyAccentLanguage": "domandere"
      },