[
  {
    "code": 0,
    "type": "State",
    "location": {
      "lat": 5.3599517,
      "lng": -4.0082563
    },
    "districtList": [
      {
        "code": 0,
        "type": "City",
        "enNameLanguage": "Locodjo",
        "location": {
          "lat": 5.323,
          "lng": -4.043
        },
        "keyAccentLanguage": "locodjo"
      },
      {
        "code": 0,
        "type": "City",
        "enNameLanguage": "Akoupe",
        "location": {
          "lat": 5.475,
          "lng": -4.155
        },
        "keyAccentLanguage": "akoupe"
      },
      {
        "code": 0,
        "type": "City",
        "enNameLanguage": "Abata",
        "location": {
          "lat": 5.325,
          "lng": -3.917
        },
        "keyAccentLanguage": "abata"
      },
      {
        "code": 0,
        "type": "City",
        "enNameLanguage": "Achiebo Koua",
        "location": {
          "lat": 5.533,
          "lng": -4.083
        },
        "keyAccentLanguage": "achiebo_koua"
      },
      {
        "code": 0,
        "type": "City",
        "enNameLanguage": "Port-Bouet",
        "location": {
          "lat": 5.244,
          "lng": -4.04
        },
        "keyAccentLanguage": "port-bouet"
      },
      {
        "code": 0,
        "type": "City",
        "enNameLanguage": "Bingerville",
        "location": {
          "lat": 5.352,
          "lng": -3.896
        },
        "keyAccentLanguage": "bingerville"
      },
      {
        "code": 0,
        "type": "City",
        "enNameLanguage": "Marcory",
        "location": {
          "lat": 5.305,
          "lng": -3.996
        },
        "keyAccentLanguage": "marcory"
      },
      {
        "code": 0,
        "type": "City",
        "enNameLanguage": "Anoukoua-Koute",
        "location": {
          "lat": 5.435,
          "lng": -4.046
        },
        "keyAccentLanguage": "anoukoua-koute"
      },
      {
        "code": 0,
        "type": "City",
        "enNameLanguage": "Treichville",
        "location": {
          "lat": 5.303,
          "lng": -4.009
        },
        "keyAccentLanguage": "treichville"
      },
      {
        "code": 0,
        "type": "City",
        "enNameLanguage": "Abobo Te",
        "location": {
          "lat": 5.408,
          "lng": -4.001
        },
        "keyAccentLanguage": "abobo_te"
      },
      {
        "code": 0,
        "type": "City",
        "enNameLanguage": "Songon-Te",
        "location": {
          "lat": 5.304,
          "lng": -4.251
        },
        "keyAccentLanguage": "songon-te"
      },
      {
        "code": 0,
        "type": "City",
        "enNameLanguage": "Abadjin-Koute",
        "location": {
          "lat": 5.328,
          "lng": -4.154
        },
        "keyAccentLanguage": "abadjin-koute"
      },
      {
        "code": 0,
        "type": "City",
        "enNameLanguage": "Eloka-To",
        "location": {
          "lat": 5.313,
          "lng": -3.769
        },
        "keyAccentLanguage": "eloka-to"
      },
      {
        "code": 0,
        "type": "City",
        "enNameLanguage": "Songon-Kassemble",
        "location": {
          "lat": 5.316,
          "lng": -4.214
        },
        "keyAccentLanguage": "songon-kassemble"
      },
      {
        "code": 0,
        "type": "City",
        "enNameLanguage": "Williamsville",
        "location": {
          "lat": 5.333,
          "lng": -4.033
        },
        "keyAccentLanguage": "williamsville"
      },
      {
        "code": 0,
        "type": "City",
        "enNameLanguage": "Mbonouan",
        "location": {
          "lat": 5.557,
          "lng": -4.234
        },
        "keyAccentLanguage": "mbonouan"
      },
      {
        "code": 0,
        "type": "City",
        "enNameLanguage": "Mpotou",
        "location": {
          "lat": 5.321,
          "lng": -3.957
        },
        "keyAccentLanguage": "mpotou"
      },
      {
        "code": 0,
        "type": "City",
        "enNameLanguage": "Adiapo-Doume",
        "location": {
          "lat": 5.337,
          "lng": -4.133
        },
        "keyAccentLanguage": "adiapo-doume"
      },
      {
        "code": 0,
        "type": "City",
        "enNameLanguage": "Azaguie Blida",
        "location": {
          "lat": 5.523,
          "lng": -4.093
        },
        "keyAccentLanguage": "azaguie_blida"
      },
      {
        "code": 0,
        "type": "City",
        "enNameLanguage": "Mbato-Bouake",
        "location": {
          "lat": 5.348,
          "lng": -3.791
        },
        "keyAccentLanguage": "mbato-bouake"
      },
      {
        "code": 0,
        "type": "City",
        "enNameLanguage": "Anyama",
        "location": {
          "lat": 5.494,
          "lng": -4.053
        },
        "keyAccentLanguage": "anyama"
      },
      {
        "code": 0,
        "type": "City",
        "enNameLanguage": "Cocody",
        "location": {
          "lat": 5.349,
          "lng": -4.012
        },
        "keyAccentLanguage": "cocody"
      },
      {
        "code": 0,
        "type": "City",
        "enNameLanguage": "Mbrago",
        "location": {
          "lat": 5.536,
          "lng": -4.218
        },
        "keyAccentLanguage": "mbrago"
      },
      {
        "code": 0,
        "type": "City",
        "enNameLanguage": "Adiapo-Te",
        "location": {
          "lat": 5.3,
          "lng": -4.167
        },
        "keyAccentLanguage": "adiapo-te"
      },
      {
        "code": 0,
        "type": "City",
        "enNameLanguage": "Adiapo-To",
        "location": {
          "lat": 5.308,
          "lng": -4.177
        },
        "keyAccentLanguage": "adiapo-to"
      },
      {
        "code": 0,
        "type": "City",
        "enNameLanguage": "Adarome",
        "location": {
          "lat": 5.55,
          "lng": -4.183
        },
        "keyAccentLanguage": "adarome"
      },
      {
        "code": 0,
        "type": "City",
        "enNameLanguage": "Mbadon",
        "location": {
          "lat": 5.33,
          "lng": -3.937
        },
        "keyAccentLanguage": "mbadon"
      },
      {
        "code": 0,
        "type": "City",
        "enNameLanguage": "Aghien",
        "location": {
          "lat": 5.406,
          "lng": -3.908
        },
        "keyAccentLanguage": "aghien"
      },
      {
        "code": 0,
        "type": "City",
        "enNameLanguage": "Akoyate",
        "location": {
          "lat": 5.383,
          "lng": -3.848
        },
        "keyAccentLanguage": "akoyate"
      },
      {
        "code": 0,
        "type": "City",
        "enNameLanguage": "Ebimpe",
        "location": {
          "lat": 5.504,
          "lng": -4.072
        },
        "keyAccentLanguage": "ebimpe"
      },
      {
        "code": 0,
        "type": "City",
        "enNameLanguage": "Bregbo",
        "location": {
          "lat": 5.3,
          "lng": -3.833
        },
        "keyAccentLanguage": "bregbo"
      },
      {
        "code": 0,
        "type": "City",
        "enNameLanguage": "Ahoue",
        "location": {
          "lat": 5.494,
          "lng": -3.946
        },
        "keyAccentLanguage": "ahoue"
      },
      {
        "code": 0,
        "type": "City",
        "enNameLanguage": "Anavible",
        "location": {
          "lat": 5.287,
          "lng": -3.849
        },
        "keyAccentLanguage": "anavible"
      },
      {
        "code": 0,
        "type": "City",
        "enNameLanguage": "Gounioube",
        "location": {
          "lat": 5.394,
          "lng": -4.146
        },
        "keyAccentLanguage": "gounioube"
      },
      {
        "code": 0,
        "type": "City",
        "enNameLanguage": "Bebakoi",
        "location": {
          "lat": 5.464,
          "lng": -3.925
        },
        "keyAccentLanguage": "bebakoi"
      },
      {
        "code": 0,
        "type": "City",
        "enNameLanguage": "Brofodoume",
        "location": {
          "lat": 5.484,
          "lng": -3.952
        },
        "keyAccentLanguage": "brofodoume"
      },
      {
        "code": 0,
        "type": "City",
        "enNameLanguage": "Abadjin-Doume",
        "location": {
          "lat": 5.3,
          "lng": -4.133
        },
        "keyAccentLanguage": "abadjin-doume"
      },
      {
        "code": 0,
        "type": "City",
        "enNameLanguage": "Azito",
        "location": {
          "lat": 5.301,
          "lng": -4.085
        },
        "keyAccentLanguage": "azito"
      },
      {
        "code": 0,
        "type": "City",
        "enNameLanguage": "Abouabou",
        "location": {
          "lat": 5.294,
          "lng": -3.911
        },
        "keyAccentLanguage": "abouabou"
      },
      {
        "code": 0,
        "type": "City",
        "enNameLanguage": "Abra",
        "location": {
          "lat": 5.278,
          "lng": -3.741
        },
        "keyAccentLanguage": "abra"
      },
      {
        "code": 0,
        "type": "City",
        "enNameLanguage": "Yopougon-Koute",
        "location": {
          "lat": 5.319,
          "lng": -4.073
        },
        "keyAccentLanguage": "yopougon-koute"
      },
      {
        "code": 0,
        "type": "City",
        "enNameLanguage": "Mpodi",
        "location": {
          "lat": 5.575,
          "lng": -4.236
        },
        "keyAccentLanguage": "mpodi"
      },
      {
        "code": 0,
        "type": "City",
        "enNameLanguage": "Abidjan",
        "location": {
          "lat": 5.323,
          "lng": -4.026
        },
        "keyAccentLanguage": "abidjan"
      },
      {
        "code": 0,
        "type": "City",
        "enNameLanguage": "Blokoso",
        "location": {
          "lat": 5.328,
          "lng": -4.008
        },
        "keyAccentLanguage": "blokoso"
      },
      {
        "code": 0,
        "type": "City",
        "enNameLanguage": "Eloka-Te",
        "location": {
          "lat": 5.293,
          "lng": -3.749
        },
        "keyAccentLanguage": "eloka-te"
      },
      {
        "code": 0,
        "type": "City",
        "enNameLanguage": "Audoin",
        "location": {
          "lat": 5.291,
          "lng": -4.142
        },
        "keyAccentLanguage": "audoin"
      },
      {
        "code": 0,
        "type": "City",
        "enNameLanguage": "Vridi",
        "location": {
          "lat": 5.259,
          "lng": -3.98
        },
        "keyAccentLanguage": "vridi"
      },
      {
        "code": 0,
        "type": "City",
        "enNameLanguage": "Anono",
        "location": {
          "lat": 5.339,
          "lng": -3.974
        },
        "keyAccentLanguage": "anono"
      },
      {
        "code": 0,
        "type": "City",
        "enNameLanguage": "Anyama Ahouabo",
        "location": {
          "lat": 5.503,
          "lng": -4.028
        },
        "keyAccentLanguage": "anyama_ahouabo"
      },
      {
        "code": 0,
        "type": "City",
        "enNameLanguage": "Attiekoi",
        "location": {
          "lat": 5.531,
          "lng": -3.971
        },
        "keyAccentLanguage": "attiekoi"
      },
      {
        "code": 0,
        "type": "City",
        "enNameLanguage": "Brou Asse",
        "location": {
          "lat": 5.533,
          "lng": -4.05
        },
        "keyAccentLanguage": "brou_asse"
      },
      {
        "code": 0,
        "type": "City",
        "enNameLanguage": "Songon-Mbratte",
        "location": {
          "lat": 5.317,
          "lng": -4.25
        },
        "keyAccentLanguage": "songon-mbratte"
      },
      {
        "code": 0,
        "type": "City",
        "enNameLanguage": "Debarcadere",
        "location": {
          "lat": 5.427,
          "lng": -3.926
        },
        "keyAccentLanguage": "debarcadere"
      },
      {
        "code": 0,
        "type": "City",
        "enNameLanguage": "Songon-Dagbe",
        "location": {
          "lat": 5.312,
          "lng": -4.228
        },
        "keyAccentLanguage": "songon-dagbe"
      },
      {
        "code": 0,
        "type": "City",
        "enNameLanguage": "Beago",
        "location": {
          "lat": 5.306,
          "lng": -4.073
        },
        "keyAccentLanguage": "beago"
      },
      {
        "code": 0,
        "type": "City",
        "enNameLanguage": "Attinguie",
        "location": {
          "lat": 5.456,
          "lng": -4.19
        },
        "keyAccentLanguage": "attinguie"
      },
      {
        "code": 0,
        "type": "City",
        "enNameLanguage": "Adattie",
        "location": {
          "lat": 5.543,
          "lng": -4.169
        },
        "keyAccentLanguage": "adattie"
      },
      {
        "code": 0,
        "type": "City",
        "enNameLanguage": "Yopougon-Attie",
        "location": {
          "lat": 5.358,
          "lng": -4.073
        },
        "keyAccentLanguage": "yopougon-attie"
      },
      {
        "code": 0,
        "type": "City",
        "enNameLanguage": "Anyama Adjame",
        "location": {
          "lat": 5.488,
          "lng": -4.032
        },
        "keyAccentLanguage": "anyama_adjame"
      },
      {
        "code": 0,
        "type": "City",
        "enNameLanguage": "Songon-Agban",
        "location": {
          "lat": 5.307,
          "lng": -4.234
        },
        "keyAccentLanguage": "songon-agban"
      },
      {
        "code": 0,
        "type": "City",
        "enNameLanguage": "Sante",
        "location": {
          "lat": 5.334,
          "lng": -4.044
        },
        "keyAccentLanguage": "sante"
      },
      {
        "code": 0,
        "type": "City",
        "enNameLanguage": "Akouedo",
        "location": {
          "lat": 5.356,
          "lng": -3.945
        },
        "keyAccentLanguage": "akouedo"
      },
      {
        "code": 0,
        "type": "City",
        "enNameLanguage": "Agban",
        "location": {
          "lat": 5.367,
          "lng": -4.033
        },
        "keyAccentLanguage": "agban"
      },
      {
        "code": 0,
        "type": "City",
        "enNameLanguage": "Anna",
        "location": {
          "lat": 5.324,
          "lng": -3.879
        },
        "keyAccentLanguage": "anna"
      },
      {
        "code": 0,
        "type": "City",
        "enNameLanguage": "Abobo Doume",
        "location": {
          "lat": 5.317,
          "lng": -4.033
        },
        "keyAccentLanguage": "abobo_doume"
      },
      {
        "code": 0,
        "type": "City",
        "enNameLanguage": "Niangon-Lokoa",
        "location": {
          "lat": 5.308,
          "lng": -4.105
        },
        "keyAccentLanguage": "niangon-lokoa"
      },
      {
        "code": 0,
        "type": "City",
        "enNameLanguage": "Plateau",
        "location": {
          "lat": 5.317,
          "lng": -4.033
        },
        "keyAccentLanguage": "plateau"
      },
      {
        "code": 0,
        "type": "City",
        "enNameLanguage": "Koumassi",
        "location": {
          "lat": 5.288,
          "lng": -3.983
        },
        "keyAccentLanguage": "koumassi"
      },
      {
        "code": 0,
        "type": "City",
        "enNameLanguage": "Danga",
        "location": {
          "lat": 5.332,
          "lng": -3.986
        },
        "keyAccentLanguage": "danga"
      },
      {
        "code": 0,
        "type": "City",
        "enNameLanguage": "Godoume",
        "location": {
          "lat": 5.306,
          "lng": -4.188
        },
        "keyAccentLanguage": "godoume"
      },
      {
        "code": 0,
        "type": "City",
        "enNameLanguage": "Bimbresso",
        "location": {
          "lat": 5.315,
          "lng": -4.155
        },
        "keyAccentLanguage": "bimbresso"
      },
      {
        "code": 0,
        "type": "City",
        "enNameLanguage": "Kouaoknou",
        "location": {
          "lat": 5.483,
          "lng": -4.057
        },
        "keyAccentLanguage": "kouaoknou"
      },
      {
        "code": 0,
        "type": "City",
        "enNameLanguage": "Yopougon-Sante",
        "location": {
          "lat": 5.307,
          "lng": -4.05
        },
        "keyAccentLanguage": "yopougon-sante"
      },
      {
        "code": 0,
        "type": "City",
        "enNameLanguage": "Abobo Baoule",
        "location": {
          "lat": 5.415,
          "lng": -3.993
        },
        "keyAccentLanguage": "abobo_baoule"
      },
      {
        "code": 0,
        "type": "City",
        "enNameLanguage": "Adjame",
        "location": {
          "lat": 5.35,
          "lng": -4.027
        },
        "keyAccentLanguage": "adjame"
      },
      {
        "code": 0,
        "type": "City",
        "enNameLanguage": "Abobo",
        "location": {
          "lat": 5.419,
          "lng": -4.021
        },
        "keyAccentLanguage": "abobo"
      },
      {
        "code": 0,
        "type": "City",
        "enNameLanguage": "Akandje",
        "location": {
          "lat": 5.411,
          "lng": -3.892
        },
        "keyAccentLanguage": "akandje"
      },
      {
        "code": 0,
        "type": "City",
        "enNameLanguage": "Adake",
        "location": {
          "lat": 5.517,
          "lng": -4.167
        },
        "keyAccentLanguage": "adake"
      }
    ],
    "enNameLanguage": "Abidjan",
    "keyAccentLanguage": "abidjan"
  },
  {
    "code": 0,
    "type": "State",
    "location": {
      "lat": 5.356791599999999,
      "lng": -6.749399299999999
    },
    "districtList": [
      {
        "code": 0,
        "type": "City",
        "enNameLanguage": "Bakayo",
        "location": {
          "lat": 5.533,
          "lng": -6.05
        },
        "keyAccentLanguage": "bakayo"
      },
      {
        "code": 0,
        "type": "City",
        "enNameLanguage": "Baeguhe",
        "location": {
          "lat": 6.236,
          "lng": -6.524
        },
        "keyAccentLanguage": "baeguhe"
      },
      {
        "code": 0,
        "type": "City",
        "enNameLanguage": "Anamoue",
        "location": {
          "lat": 5.2,
          "lng": -7.35
        },
        "keyAccentLanguage": "anamoue"
      },
      {
        "code": 0,
        "type": "City",
        "enNameLanguage": "Nekaounie",
        "location": {
          "lat": 5.158,
          "lng": -7.447
        },
        "keyAccentLanguage": "nekaounie"
      },
      {
        "code": 0,
        "type": "City",
        "enNameLanguage": "Adobou II",
        "location": {
          "lat": 5.491,
          "lng": -5.838
        },
        "keyAccentLanguage": "adobou_ii"
      },
      {
        "code": 0,
        "type": "City",
        "enNameLanguage": "Babero",
        "location": {
          "lat": 4.833,
          "lng": -6.933
        },
        "keyAccentLanguage": "babero"
      },
      {
        "code": 0,
        "type": "City",
        "enNameLanguage": "Bakadou II",
        "location": {
          "lat": 5.417,
          "lng": -6.017
        },
        "keyAccentLanguage": "bakadou_ii"
      },
      {
        "code": 0,
        "type": "City",
        "enNameLanguage": "Bakadou I",
        "location": {
          "lat": 5.4,
          "lng": -6.017
        },
        "keyAccentLanguage": "bakadou_i"
      },
      {
        "code": 0,
        "type": "City",
        "enNameLanguage": "Lissiri",
        "location": {
          "lat": 5.977,
          "lng": -6.492
        },
        "keyAccentLanguage": "lissiri"
      },
      {
        "code": 0,
        "type": "City",
        "enNameLanguage": "Dabego",
        "location": {
          "lat": 4.999,
          "lng": -5.967
        },
        "keyAccentLanguage": "dabego"
      },
      {
        "code": 0,
        "type": "City",
        "enNameLanguage": "Niague",
        "location": {
          "lat": 5.302,
          "lng": -6.533
        },
        "keyAccentLanguage": "niague"
      },
      {
        "code": 0,
        "type": "City",
        "enNameLanguage": "Babotou",
        "location": {
          "lat": 5.2,
          "lng": -6.817
        },
        "keyAccentLanguage": "babotou"
      },
      {
        "code": 0,
        "type": "City",
        "enNameLanguage": "Niebe",
        "location": {
          "lat": 5.367,
          "lng": -7.296
        },
        "keyAccentLanguage": "niebe"
      },
      {
        "code": 0,
        "type": "City",
        "enNameLanguage": "Kotrohou",
        "location": {
          "lat": 5.136,
          "lng": -5.788
        },
        "keyAccentLanguage": "kotrohou"
      },
      {
        "code": 0,
        "type": "City",
        "enNameLanguage": "Daoro",
        "location": {
          "lat": 5.175,
          "lng": -6.841
        },
        "keyAccentLanguage": "daoro"
      },
      {
        "code": 0,
        "type": "City",
        "enNameLanguage": "Nibi II",
        "location": {
          "lat": 5.703,
          "lng": -6.636
        },
        "keyAccentLanguage": "nibi_ii"
      },
      {
        "code": 0,
        "type": "City",
        "enNameLanguage": "Fresco",
        "location": {
          "lat": 5.093,
          "lng": -5.571
        },
        "keyAccentLanguage": "fresco"
      },
      {
        "code": 0,
        "type": "City",
        "enNameLanguage": "Guedeyo",
        "location": {
          "lat": 5.72,
          "lng": -6.29
        },
        "keyAccentLanguage": "guedeyo"
      },
      {
        "code": 0,
        "type": "City",
        "enNameLanguage": "Gabo",
        "location": {
          "lat": 4.854,
          "lng": -6.69
        },
        "keyAccentLanguage": "gabo"
      },
      {
        "code": 0,
        "type": "City",
        "enNameLanguage": "Zakue",
        "location": {
          "lat": 6.264,
          "lng": -7.042
        },
        "keyAccentLanguage": "zakue"
      },
      {
        "code": 0,
        "type": "City",
        "enNameLanguage": "Gaouri",
        "location": {
          "lat": 4.914,
          "lng": -6.653
        },
        "keyAccentLanguage": "gaouri"
      },
      {
        "code": 0,
        "type": "City",
        "enNameLanguage": "Bagolieoua",
        "location": {
          "lat": 6.168,
          "lng": -6.532
        },
        "keyAccentLanguage": "bagolieoua"
      },
      {
        "code": 0,
        "type": "City",
        "enNameLanguage": "Sago",
        "location": {
          "lat": 5.264,
          "lng": -5.924
        },
        "keyAccentLanguage": "sago"
      },
      {
        "code": 0,
        "type": "City",
        "enNameLanguage": "Grabazouo",
        "location": {
          "lat": 5.697,
          "lng": -6.228
        },
        "keyAccentLanguage": "grabazouo"
      },
      {
        "code": 0,
        "type": "City",
        "enNameLanguage": "Zegbe",
        "location": {
          "lat": 5.155,
          "lng": -5.582
        },
        "keyAccentLanguage": "zegbe"
      },
      {
        "code": 0,
        "type": "City",
        "enNameLanguage": "Bairo",
        "location": {
          "lat": 4.844,
          "lng": -7.564
        },
        "keyAccentLanguage": "bairo"
      },
      {
        "code": 0,
        "type": "City",
        "enNameLanguage": "Gribouo",
        "location": {
          "lat": 6.194,
          "lng": -6.91
        },
        "keyAccentLanguage": "gribouo"
      },
      {
        "code": 0,
        "type": "City",
        "enNameLanguage": "Boubele",
        "location": {
          "lat": 4.47,
          "lng": -7.248
        },
        "keyAccentLanguage": "boubele"
      },
      {
        "code": 0,
        "type": "City",
        "enNameLanguage": "Saoua",
        "location": {
          "lat": 5.067,
          "lng": -6.257
        },
        "keyAccentLanguage": "saoua"
      },
      {
        "code": 0,
        "type": "City",
        "enNameLanguage": "Gueyo",
        "location": {
          "lat": 5.686,
          "lng": -6.069
        },
        "keyAccentLanguage": "gueyo"
      },
      {
        "code": 0,
        "type": "City",
        "enNameLanguage": "Badayo I",
        "location": {
          "lat": 5.867,
          "lng": -6.633
        },
        "keyAccentLanguage": "badayo_i"
      },
      {
        "code": 0,
        "type": "City",
        "enNameLanguage": "Zagueoua",
        "location": {
          "lat": 6.226,
          "lng": -6.964
        },
        "keyAccentLanguage": "zagueoua"
      },
      {
        "code": 0,
        "type": "City",
        "enNameLanguage": "Blidouba",
        "location": {
          "lat": 4.591,
          "lng": -7.42
        },
        "keyAccentLanguage": "blidouba"
      },
      {
        "code": 0,
        "type": "City",
        "enNameLanguage": "Niapidou",
        "location": {
          "lat": 5.349,
          "lng": -6.059
        },
        "keyAccentLanguage": "niapidou"
      },
      {
        "code": 0,
        "type": "City",
        "enNameLanguage": "Badeke",
        "location": {
          "lat": 4.75,
          "lng": -6.9
        },
        "keyAccentLanguage": "badeke"
      },
      {
        "code": 0,
        "type": "City",
        "enNameLanguage": "Dosso",
        "location": {
          "lat": 4.684,
          "lng": -6.837
        },
        "keyAccentLanguage": "dosso"
      },
      {
        "code": 0,
        "type": "City",
        "enNameLanguage": "Oupoyo",
        "location": {
          "lat": 5.813,
          "lng": -6.287
        },
        "keyAccentLanguage": "oupoyo"
      },
      {
        "code": 0,
        "type": "City",
        "enNameLanguage": "Fete",
        "location": {
          "lat": 4.876,
          "lng": -7.554
        },
        "keyAccentLanguage": "fete"
      },
      {
        "code": 0,
        "type": "City",
        "enNameLanguage": "Maproyo",
        "location": {
          "lat": 4.969,
          "lng": -6.2
        },
        "keyAccentLanguage": "maproyo"
      },
      {
        "code": 0,
        "type": "City",
        "enNameLanguage": "Sayo",
        "location": {
          "lat": 5.966,
          "lng": -6.342
        },
        "keyAccentLanguage": "sayo"
      },
      {
        "code": 0,
        "type": "City",
        "enNameLanguage": "Badayo II",
        "location": {
          "lat": 5.883,
          "lng": -6.633
        },
        "keyAccentLanguage": "badayo_ii"
      },
      {
        "code": 0,
        "type": "City",
        "enNameLanguage": "Agnie",
        "location": {
          "lat": 4.7,
          "lng": -6.967
        },
        "keyAccentLanguage": "agnie"
      },
      {
        "code": 0,
        "type": "City",
        "enNameLanguage": "Adebem",
        "location": {
          "lat": 5.477,
          "lng": -5.856
        },
        "keyAccentLanguage": "adebem"
      },
      {
        "code": 0,
        "type": "City",
        "enNameLanguage": "Buyo",
        "location": {
          "lat": 6.303,
          "lng": -7.036
        },
        "keyAccentLanguage": "buyo"
      },
      {
        "code": 0,
        "type": "City",
        "enNameLanguage": "Babaieroua",
        "location": {
          "lat": 5.767,
          "lng": -6.5
        },
        "keyAccentLanguage": "babaieroua"
      },
      {
        "code": 0,
        "type": "City",
        "enNameLanguage": "Bakayo II",
        "location": {
          "lat": 5.983,
          "lng": -6.417
        },
        "keyAccentLanguage": "bakayo_ii"
      },
      {
        "code": 0,
        "type": "City",
        "enNameLanguage": "Bolorouko",
        "location": {
          "lat": 5.183,
          "lng": -5.641
        },
        "keyAccentLanguage": "bolorouko"
      },
      {
        "code": 0,
        "type": "City",
        "enNameLanguage": "Assemlil Kdim",
        "location": {
          "lat": 3.38,
          "lng": -6.66
        },
        "keyAccentLanguage": "assemlil_kdim"
      },
      {
        "code": 0,
        "type": "City",
        "enNameLanguage": "Bahi",
        "location": {
          "lat": 4.767,
          "lng": -7
        },
        "keyAccentLanguage": "bahi"
      },
      {
        "code": 0,
        "type": "City",
        "enNameLanguage": "Ahorokpa",
        "location": {
          "lat": 4.983,
          "lng": -6
        },
        "keyAccentLanguage": "ahorokpa"
      },
      {
        "code": 0,
        "type": "City",
        "enNameLanguage": "Barou",
        "location": {
          "lat": 5.556,
          "lng": -7.317
        },
        "keyAccentLanguage": "barou"
      },
      {
        "code": 0,
        "type": "City",
        "enNameLanguage": "Djiroutou",
        "location": {
          "lat": 5.347,
          "lng": -7.286
        },
        "keyAccentLanguage": "djiroutou"
      },
      {
        "code": 0,
        "type": "City",
        "enNameLanguage": "Babayroua",
        "location": {
          "lat": 5.933,
          "lng": -6.4
        },
        "keyAccentLanguage": "babayroua"
      },
      {
        "code": 0,
        "type": "City",
        "enNameLanguage": "Badayoua",
        "location": {
          "lat": 5.784,
          "lng": -6.449
        },
        "keyAccentLanguage": "badayoua"
      },
      {
        "code": 0,
        "type": "City",
        "enNameLanguage": "Baho Brousse",
        "location": {
          "lat": 5.133,
          "lng": -6.633
        },
        "keyAccentLanguage": "baho_brousse"
      },
      {
        "code": 0,
        "type": "City",
        "enNameLanguage": "Lateko",
        "location": {
          "lat": 4.917,
          "lng": -6.153
        },
        "keyAccentLanguage": "lateko"
      },
      {
        "code": 0,
        "type": "City",
        "enNameLanguage": "Soubre",
        "location": {
          "lat": 5.782,
          "lng": -6.603
        },
        "keyAccentLanguage": "soubre"
      },
      {
        "code": 0,
        "type": "City",
        "enNameLanguage": "Badieboue",
        "location": {
          "lat": 5.32,
          "lng": -5.924
        },
        "keyAccentLanguage": "badieboue"
      },
      {
        "code": 0,
        "type": "City",
        "enNameLanguage": "Bakayo I",
        "location": {
          "lat": 5.983,
          "lng": -6.433
        },
        "keyAccentLanguage": "bakayo_i"
      },
      {
        "code": 0,
        "type": "City",
        "enNameLanguage": "Zepeoua",
        "location": {
          "lat": 6.102,
          "lng": -6.395
        },
        "keyAccentLanguage": "zepeoua"
      },
      {
        "code": 0,
        "type": "City",
        "enNameLanguage": "Pata-Idie",
        "location": {
          "lat": 4.468,
          "lng": -7.549
        },
        "keyAccentLanguage": "pata-idie"
      },
      {
        "code": 0,
        "type": "City",
        "enNameLanguage": "Babisco",
        "location": {
          "lat": 4.8,
          "lng": -6.917
        },
        "keyAccentLanguage": "babisco"
      },
      {
        "code": 0,
        "type": "City",
        "enNameLanguage": "Niabayo",
        "location": {
          "lat": 5.062,
          "lng": -6.094
        },
        "keyAccentLanguage": "niabayo"
      },
      {
        "code": 0,
        "type": "City",
        "enNameLanguage": "Baba",
        "location": {
          "lat": 4.783,
          "lng": -6.75
        },
        "keyAccentLanguage": "baba"
      },
      {
        "code": 0,
        "type": "City",
        "enNameLanguage": "Badahinou",
        "location": {
          "lat": 6.409,
          "lng": -7.098
        },
        "keyAccentLanguage": "badahinou"
      },
      {
        "code": 0,
        "type": "City",
        "enNameLanguage": "Guire",
        "location": {
          "lat": 5.515,
          "lng": -6.593
        },
        "keyAccentLanguage": "guire"
      },
      {
        "code": 0,
        "type": "City",
        "enNameLanguage": "Sihoua",
        "location": {
          "lat": 5.22,
          "lng": -6.83
        },
        "keyAccentLanguage": "sihoua"
      },
      {
        "code": 0,
        "type": "City",
        "enNameLanguage": "Zegreboue",
        "location": {
          "lat": 5.372,
          "lng": -5.914
        },
        "keyAccentLanguage": "zegreboue"
      },
      {
        "code": 0,
        "type": "City",
        "enNameLanguage": "Prollo",
        "location": {
          "lat": 4.439,
          "lng": -7.529
        },
        "keyAccentLanguage": "prollo"
      },
      {
        "code": 0,
        "type": "City",
        "enNameLanguage": "Zadieguhe",
        "location": {
          "lat": 6.127,
          "lng": -6.531
        },
        "keyAccentLanguage": "zadieguhe"
      },
      {
        "code": 0,
        "type": "City",
        "enNameLanguage": "Bokanidi",
        "location": {
          "lat": 5.125,
          "lng": -6.568
        },
        "keyAccentLanguage": "bokanidi"
      },
      {
        "code": 0,
        "type": "City",
        "enNameLanguage": "Monogaga",
        "location": {
          "lat": 4.81,
          "lng": -6.44
        },
        "keyAccentLanguage": "monogaga"
      },
      {
        "code": 0,
        "type": "City",
        "enNameLanguage": "Okrouyo",
        "location": {
          "lat": 5.761,
          "lng": -6.404
        },
        "keyAccentLanguage": "okrouyo"
      },
      {
        "code": 0,
        "type": "City",
        "enNameLanguage": "Kounoukou",
        "location": {
          "lat": 4.827,
          "lng": -6.401
        },
        "keyAccentLanguage": "kounoukou"
      },
      {
        "code": 0,
        "type": "City",
        "enNameLanguage": "Glele",
        "location": {
          "lat": 5.107,
          "lng": -7.073
        },
        "keyAccentLanguage": "glele"
      },
      {
        "code": 0,
        "type": "City",
        "enNameLanguage": "Tiboto",
        "location": {
          "lat": 4.837,
          "lng": -7.56
        },
        "keyAccentLanguage": "tiboto"
      },
      {
        "code": 0,
        "type": "City",
        "enNameLanguage": "Olodio",
        "location": {
          "lat": 4.716,
          "lng": -7.467
        },
        "keyAccentLanguage": "olodio"
      },
      {
        "code": 0,
        "type": "City",
        "enNameLanguage": "Baieoua",
        "location": {
          "lat": 6.087,
          "lng": -6.396
        },
        "keyAccentLanguage": "baieoua"
      },
      {
        "code": 0,
        "type": "City",
        "enNameLanguage": "Tabou",
        "location": {
          "lat": 4.416,
          "lng": -7.358
        },
        "keyAccentLanguage": "tabou"
      },
      {
        "code": 0,
        "type": "City",
        "enNameLanguage": "Ouro",
        "location": {
          "lat": 4.679,
          "lng": -6.867
        },
        "keyAccentLanguage": "ouro"
      },
      {
        "code": 0,
        "type": "City",
        "enNameLanguage": "Baleko",
        "location": {
          "lat": 5.435,
          "lng": -6.024
        },
        "keyAccentLanguage": "baleko"
      },
      {
        "code": 0,
        "type": "City",
        "enNameLanguage": "Lagako",
        "location": {
          "lat": 5.442,
          "lng": -5.867
        },
        "keyAccentLanguage": "lagako"
      },
      {
        "code": 0,
        "type": "City",
        "enNameLanguage": "Petigoa",
        "location": {
          "lat": 6.118,
          "lng": -6.688
        },
        "keyAccentLanguage": "petigoa"
      },
      {
        "code": 0,
        "type": "City",
        "enNameLanguage": "Nigre",
        "location": {
          "lat": 5.62,
          "lng": -7.357
        },
        "keyAccentLanguage": "nigre"
      },
      {
        "code": 0,
        "type": "City",
        "enNameLanguage": "Manewe",
        "location": {
          "lat": 4.663,
          "lng": -7.355
        },
        "keyAccentLanguage": "manewe"
      },
      {
        "code": 0,
        "type": "City",
        "enNameLanguage": "Niani",
        "location": {
          "lat": 4.979,
          "lng": -6.063
        },
        "keyAccentLanguage": "niani"
      },
      {
        "code": 0,
        "type": "City",
        "enNameLanguage": "Kosso",
        "location": {
          "lat": 5.06,
          "lng": -5.729
        },
        "keyAccentLanguage": "kosso"
      },
      {
        "code": 0,
        "type": "City",
        "enNameLanguage": "Grabo",
        "location": {
          "lat": 4.916,
          "lng": -7.495
        },
        "keyAccentLanguage": "grabo"
      },
      {
        "code": 0,
        "type": "City",
        "enNameLanguage": "Lobakuya",
        "location": {
          "lat": 5.092,
          "lng": -6.337
        },
        "keyAccentLanguage": "lobakuya"
      },
      {
        "code": 0,
        "type": "City",
        "enNameLanguage": "Pauli-Plage",
        "location": {
          "lat": 4.893,
          "lng": -6.202
        },
        "keyAccentLanguage": "pauli-plage"
      },
      {
        "code": 0,
        "type": "City",
        "enNameLanguage": "Yabayo",
        "location": {
          "lat": 5.938,
          "lng": -6.595
        },
        "keyAccentLanguage": "yabayo"
      },
      {
        "code": 0,
        "type": "City",
        "enNameLanguage": "Sassandra",
        "location": {
          "lat": 4.947,
          "lng": -6.083
        },
        "keyAccentLanguage": "sassandra"
      },
      {
        "code": 0,
        "type": "City",
        "enNameLanguage": "San Pedro",
        "location": {
          "lat": 4.731,
          "lng": -6.636
        },
        "keyAccentLanguage": "san_pedro"
      },
      {
        "code": 0,
        "type": "City",
        "enNameLanguage": "Tate",
        "location": {
          "lat": 4.782,
          "lng": -7.541
        },
        "keyAccentLanguage": "tate"
      },
      {
        "code": 0,
        "type": "City",
        "enNameLanguage": "Basseoua",
        "location": {
          "lat": 6.231,
          "lng": -6.623
        },
        "keyAccentLanguage": "basseoua"
      },
      {
        "code": 0,
        "type": "City",
        "enNameLanguage": "Wapou",
        "location": {
          "lat": 4.518,
          "lng": -7.188
        },
        "keyAccentLanguage": "wapou"
      },
      {
        "code": 0,
        "type": "City",
        "enNameLanguage": "Guimeyo",
        "location": {
          "lat": 5.833,
          "lng": -6.309
        },
        "keyAccentLanguage": "guimeyo"
      },
      {
        "code": 0,
        "type": "City",
        "enNameLanguage": "Dagbao I",
        "location": {
          "lat": 5.552,
          "lng": -6.027
        },
        "keyAccentLanguage": "dagbao_i"
      },
      {
        "code": 0,
        "type": "City",
        "enNameLanguage": "Guikla",
        "location": {
          "lat": 4.805,
          "lng": -6.942
        },
        "keyAccentLanguage": "guikla"
      },
      {
        "code": 0,
        "type": "City",
        "enNameLanguage": "Dakpadou",
        "location": {
          "lat": 5.24,
          "lng": -6.073
        },
        "keyAccentLanguage": "dakpadou"
      }
    ],
    "enNameLanguage": "Bas-Sassandra",
    "keyAccentLanguage": "bas-sassandra"
  },
  {
    "code": 0,
    "type": "State",
    "location": {
      "lat": 5.201351000000001,
      "lng": -3.7270077
    },
    "districtList": [
      {
        "code": 0,
        "type": "City",
        "enNameLanguage": "Adikou",
        "location": {
          "lat": 5.429,
          "lng": -3.342
        },
        "keyAccentLanguage": "adikou"
      },
      {
        "code": 0,
        "type": "City",
        "enNameLanguage": "Adjouan",
        "location": {
          "lat": 5.3,
          "lng": -3.15
        },
        "keyAccentLanguage": "adjouan"
      },
      {
        "code": 0,
        "type": "City",
        "enNameLanguage": "Adounikro",
        "location": {
          "lat": 6.717,
          "lng": -3.583
        },
        "keyAccentLanguage": "adounikro"
      },
      {
        "code": 0,
        "type": "City",
        "enNameLanguage": "Abakro",
        "location": {
          "lat": 5.414,
          "lng": -3.233
        },
        "keyAccentLanguage": "abakro"
      },
      {
        "code": 0,
        "type": "City",
        "enNameLanguage": "Abengourou",
        "location": {
          "lat": 6.728,
          "lng": -3.489
        },
        "keyAccentLanguage": "abengourou"
      },
      {
        "code": 0,
        "type": "City",
        "enNameLanguage": "Aboudou",
        "location": {
          "lat": 5.152,
          "lng": -3.213
        },
        "keyAccentLanguage": "aboudou"
      },
      {
        "code": 0,
        "type": "City",
        "enNameLanguage": "Akiekrou",
        "location": {
          "lat": 6.134,
          "lng": -3.219
        },
        "keyAccentLanguage": "akiekrou"
      },
      {
        "code": 0,
        "type": "City",
        "enNameLanguage": "Aforenou",
        "location": {
          "lat": 5.1,
          "lng": -3.117
        },
        "keyAccentLanguage": "aforenou"
      },
      {
        "code": 0,
        "type": "City",
        "enNameLanguage": "Akouakro",
        "location": {
          "lat": 6.346,
          "lng": -3.248
        },
        "keyAccentLanguage": "akouakro"
      },
      {
        "code": 0,
        "type": "City",
        "enNameLanguage": "Abradinou",
        "location": {
          "lat": 6.196,
          "lng": -3.455
        },
        "keyAccentLanguage": "abradinou"
      },
      {
        "code": 0,
        "type": "City",
        "enNameLanguage": "Akrezi",
        "location": {
          "lat": 5.649,
          "lng": -3.074
        },
        "keyAccentLanguage": "akrezi"
      },
      {
        "code": 0,
        "type": "City",
        "enNameLanguage": "Aoupie",
        "location": {
          "lat": 5.388,
          "lng": -3.555
        },
        "keyAccentLanguage": "aoupie"
      },
      {
        "code": 0,
        "type": "City",
        "enNameLanguage": "Akounougbe",
        "location": {
          "lat": 5.18,
          "lng": -3.179
        },
        "keyAccentLanguage": "akounougbe"
      },
      {
        "code": 0,
        "type": "City",
        "enNameLanguage": "Atablendoukro",
        "location": {
          "lat": 7.2,
          "lng": -3.383
        },
        "keyAccentLanguage": "atablendoukro"
      },
      {
        "code": 0,
        "type": "City",
        "enNameLanguage": "Bianouan",
        "location": {
          "lat": 6.012,
          "lng": -3.192
        },
        "keyAccentLanguage": "bianouan"
      },
      {
        "code": 0,
        "type": "City",
        "enNameLanguage": "Alangouanou",
        "location": {
          "lat": 5.15,
          "lng": -2.933
        },
        "keyAccentLanguage": "alangouanou"
      },
      {
        "code": 0,
        "type": "City",
        "enNameLanguage": "Anyanfoutou",
        "location": {
          "lat": 7.198,
          "lng": -3.249
        },
        "keyAccentLanguage": "anyanfoutou"
      },
      {
        "code": 0,
        "type": "City",
        "enNameLanguage": "Aboisso",
        "location": {
          "lat": 5.464,
          "lng": -3.231
        },
        "keyAccentLanguage": "aboisso"
      },
      {
        "code": 0,
        "type": "City",
        "enNameLanguage": "Grand-Bassam",
        "location": {
          "lat": 5.196,
          "lng": -3.742
        },
        "keyAccentLanguage": "grand-bassam"
      },
      {
        "code": 0,
        "type": "City",
        "enNameLanguage": "Akouaba",
        "location": {
          "lat": 6.534,
          "lng": -3.428
        },
        "keyAccentLanguage": "akouaba"
      },
      {
        "code": 0,
        "type": "City",
        "enNameLanguage": "Anuanua",
        "location": {
          "lat": 6.724,
          "lng": -3.557
        },
        "keyAccentLanguage": "anuanua"
      },
      {
        "code": 0,
        "type": "City",
        "enNameLanguage": "Ebilassekrou",
        "location": {
          "lat": 6.379,
          "lng": -3.348
        },
        "keyAccentLanguage": "ebilassekrou"
      },
      {
        "code": 0,
        "type": "City",
        "enNameLanguage": "Anibossue",
        "location": {
          "lat": 6.601,
          "lng": -3.303
        },
        "keyAccentLanguage": "anibossue"
      },
      {
        "code": 0,
        "type": "City",
        "enNameLanguage": "Abronambue",
        "location": {
          "lat": 6.756,
          "lng": -3.341
        },
        "keyAccentLanguage": "abronambue"
      },
      {
        "code": 0,
        "type": "City",
        "enNameLanguage": "Assue",
        "location": {
          "lat": 5.127,
          "lng": -3.006
        },
        "keyAccentLanguage": "assue"
      },
      {
        "code": 0,
        "type": "City",
        "enNameLanguage": "Asseoufoue",
        "location": {
          "lat": 5.186,
          "lng": -3.672
        },
        "keyAccentLanguage": "asseoufoue"
      },
      {
        "code": 0,
        "type": "City",
        "enNameLanguage": "Akouakankro",
        "location": {
          "lat": 6.68,
          "lng": -3.467
        },
        "keyAccentLanguage": "akouakankro"
      },
      {
        "code": 0,
        "type": "City",
        "enNameLanguage": "Ahunta",
        "location": {
          "lat": 5.53,
          "lng": -3.179
        },
        "keyAccentLanguage": "ahunta"
      },
      {
        "code": 0,
        "type": "City",
        "enNameLanguage": "Assomlan",
        "location": {
          "lat": 5.204,
          "lng": -3.299
        },
        "keyAccentLanguage": "assomlan"
      },
      {
        "code": 0,
        "type": "City",
        "enNameLanguage": "Agnibilekrou",
        "location": {
          "lat": 7.128,
          "lng": -3.202
        },
        "keyAccentLanguage": "agnibilekrou"
      },
      {
        "code": 0,
        "type": "City",
        "enNameLanguage": "Diambarakrou",
        "location": {
          "lat": 6.235,
          "lng": -3.325
        },
        "keyAccentLanguage": "diambarakrou"
      },
      {
        "code": 0,
        "type": "City",
        "enNameLanguage": "Bagreben",
        "location": {
          "lat": 5.589,
          "lng": -3.12
        },
        "keyAccentLanguage": "bagreben"
      },
      {
        "code": 0,
        "type": "City",
        "enNameLanguage": "Abiati",
        "location": {
          "lat": 5.283,
          "lng": -3.183
        },
        "keyAccentLanguage": "abiati"
      },
      {
        "code": 0,
        "type": "City",
        "enNameLanguage": "Alouakro",
        "location": {
          "lat": 5.459,
          "lng": -3.153
        },
        "keyAccentLanguage": "alouakro"
      },
      {
        "code": 0,
        "type": "City",
        "enNameLanguage": "Aby",
        "location": {
          "lat": 5.3,
          "lng": -3.167
        },
        "keyAccentLanguage": "aby"
      },
      {
        "code": 0,
        "type": "City",
        "enNameLanguage": "Assikasso",
        "location": {
          "lat": 7.086,
          "lng": -3.217
        },
        "keyAccentLanguage": "assikasso"
      },
      {
        "code": 0,
        "type": "City",
        "enNameLanguage": "Batou",
        "location": {
          "lat": 5.339,
          "lng": -3.59
        },
        "keyAccentLanguage": "batou"
      },
      {
        "code": 0,
        "type": "City",
        "enNameLanguage": "Zaranou",
        "location": {
          "lat": 6.424,
          "lng": -3.367
        },
        "keyAccentLanguage": "zaranou"
      },
      {
        "code": 0,
        "type": "City",
        "enNameLanguage": "Akakomoekro",
        "location": {
          "lat": 6.195,
          "lng": -3.362
        },
        "keyAccentLanguage": "akakomoekro"
      },
      {
        "code": 0,
        "type": "City",
        "enNameLanguage": "Yaou",
        "location": {
          "lat": 5.753,
          "lng": -3.161
        },
        "keyAccentLanguage": "yaou"
      },
      {
        "code": 0,
        "type": "City",
        "enNameLanguage": "Amelekia",
        "location": {
          "lat": 6.834,
          "lng": -3.585
        },
        "keyAccentLanguage": "amelekia"
      },
      {
        "code": 0,
        "type": "City",
        "enNameLanguage": "Kofikro",
        "location": {
          "lat": 5.415,
          "lng": -3.364
        },
        "keyAccentLanguage": "kofikro"
      },
      {
        "code": 0,
        "type": "City",
        "enNameLanguage": "Bangoua",
        "location": {
          "lat": 7.338,
          "lng": -3.47
        },
        "keyAccentLanguage": "bangoua"
      },
      {
        "code": 0,
        "type": "City",
        "enNameLanguage": "Assouba",
        "location": {
          "lat": 5.457,
          "lng": -3.259
        },
        "keyAccentLanguage": "assouba"
      },
      {
        "code": 0,
        "type": "City",
        "enNameLanguage": "Apouesso",
        "location": {
          "lat": 6.533,
          "lng": -3.43
        },
        "keyAccentLanguage": "apouesso"
      },
      {
        "code": 0,
        "type": "City",
        "enNameLanguage": "Akokoro",
        "location": {
          "lat": 6.773,
          "lng": -3.513
        },
        "keyAccentLanguage": "akokoro"
      },
      {
        "code": 0,
        "type": "City",
        "enNameLanguage": "Adahou",
        "location": {
          "lat": 6.713,
          "lng": -3.518
        },
        "keyAccentLanguage": "adahou"
      },
      {
        "code": 0,
        "type": "City",
        "enNameLanguage": "Amia",
        "location": {
          "lat": 5.383,
          "lng": -3.537
        },
        "keyAccentLanguage": "amia"
      },
      {
        "code": 0,
        "type": "City",
        "enNameLanguage": "Afere",
        "location": {
          "lat": 5.717,
          "lng": -3.15
        },
        "keyAccentLanguage": "afere"
      },
      {
        "code": 0,
        "type": "City",
        "enNameLanguage": "Apouassa",
        "location": {
          "lat": 5.956,
          "lng": -3.181
        },
        "keyAccentLanguage": "apouassa"
      },
      {
        "code": 0,
        "type": "City",
        "enNameLanguage": "Beniakro",
        "location": {
          "lat": 5.417,
          "lng": -3.433
        },
        "keyAccentLanguage": "beniakro"
      },
      {
        "code": 0,
        "type": "City",
        "enNameLanguage": "Abrouki",
        "location": {
          "lat": 6.052,
          "lng": -3.135
        },
        "keyAccentLanguage": "abrouki"
      },
      {
        "code": 0,
        "type": "City",
        "enNameLanguage": "Elubo",
        "location": {
          "lat": 5.225,
          "lng": -2.821
        },
        "keyAccentLanguage": "elubo"
      },
      {
        "code": 0,
        "type": "City",
        "enNameLanguage": "Apron-Pronou",
        "location": {
          "lat": 7.002,
          "lng": -3.356
        },
        "keyAccentLanguage": "apron-pronou"
      },
      {
        "code": 0,
        "type": "City",
        "enNameLanguage": "Apokro",
        "location": {
          "lat": 7.117,
          "lng": -3.483
        },
        "keyAccentLanguage": "apokro"
      },
      {
        "code": 0,
        "type": "City",
        "enNameLanguage": "Assemanou",
        "location": {
          "lat": 6.788,
          "lng": -3.758
        },
        "keyAccentLanguage": "assemanou"
      },
      {
        "code": 0,
        "type": "City",
        "enNameLanguage": "Akokrou",
        "location": {
          "lat": 6.601,
          "lng": -3.27
        },
        "keyAccentLanguage": "akokrou"
      },
      {
        "code": 0,
        "type": "City",
        "enNameLanguage": "Akreby",
        "location": {
          "lat": 6.154,
          "lng": -3.392
        },
        "keyAccentLanguage": "akreby"
      },
      {
        "code": 0,
        "type": "City",
        "enNameLanguage": "Amoriakro",
        "location": {
          "lat": 7.097,
          "lng": -3.53
        },
        "keyAccentLanguage": "amoriakro"
      },
      {
        "code": 0,
        "type": "City",
        "enNameLanguage": "Affienou",
        "location": {
          "lat": 5.417,
          "lng": -2.933
        },
        "keyAccentLanguage": "affienou"
      },
      {
        "code": 0,
        "type": "City",
        "enNameLanguage": "Ayame",
        "location": {
          "lat": 5.592,
          "lng": -3.182
        },
        "keyAccentLanguage": "ayame"
      },
      {
        "code": 0,
        "type": "City",
        "enNameLanguage": "Adoukoffikro",
        "location": {
          "lat": 6.702,
          "lng": -3.463
        },
        "keyAccentLanguage": "adoukoffikro"
      },
      {
        "code": 0,
        "type": "City",
        "enNameLanguage": "Ameakouro",
        "location": {
          "lat": 7.267,
          "lng": -3.3
        },
        "keyAccentLanguage": "ameakouro"
      },
      {
        "code": 0,
        "type": "City",
        "enNameLanguage": "Alieman",
        "location": {
          "lat": 5.333,
          "lng": -3.267
        },
        "keyAccentLanguage": "alieman"
      },
      {
        "code": 0,
        "type": "City",
        "enNameLanguage": "Amoukrou",
        "location": {
          "lat": 6.064,
          "lng": -3.111
        },
        "keyAccentLanguage": "amoukrou"
      },
      {
        "code": 0,
        "type": "City",
        "enNameLanguage": "Bokakokore",
        "location": {
          "lat": 6.463,
          "lng": -3.394
        },
        "keyAccentLanguage": "bokakokore"
      },
      {
        "code": 0,
        "type": "City",
        "enNameLanguage": "Adaou",
        "location": {
          "lat": 5.426,
          "lng": -3.265
        },
        "keyAccentLanguage": "adaou"
      },
      {
        "code": 0,
        "type": "City",
        "enNameLanguage": "Alakanou",
        "location": {
          "lat": 6.743,
          "lng": -3.324
        },
        "keyAccentLanguage": "alakanou"
      },
      {
        "code": 0,
        "type": "City",
        "enNameLanguage": "Aniassue",
        "location": {
          "lat": 6.648,
          "lng": -3.682
        },
        "keyAccentLanguage": "aniassue"
      },
      {
        "code": 0,
        "type": "City",
        "enNameLanguage": "Kouassi-Beniekro",
        "location": {
          "lat": 6.806,
          "lng": -3.53
        },
        "keyAccentLanguage": "kouassi-beniekro"
      },
      {
        "code": 0,
        "type": "City",
        "enNameLanguage": "Auenou",
        "location": {
          "lat": 7.159,
          "lng": -3.227
        },
        "keyAccentLanguage": "auenou"
      },
      {
        "code": 0,
        "type": "City",
        "enNameLanguage": "Assuame",
        "location": {
          "lat": 7.167,
          "lng": -3.209
        },
        "keyAccentLanguage": "assuame"
      },
      {
        "code": 0,
        "type": "City",
        "enNameLanguage": "Apossou",
        "location": {
          "lat": 6.699,
          "lng": -3.645
        },
        "keyAccentLanguage": "apossou"
      },
      {
        "code": 0,
        "type": "City",
        "enNameLanguage": "Bebou",
        "location": {
          "lat": 6.355,
          "lng": -3.414
        },
        "keyAccentLanguage": "bebou"
      },
      {
        "code": 0,
        "type": "City",
        "enNameLanguage": "Atabrakaswaso",
        "location": {
          "lat": 5.233,
          "lng": -2.767
        },
        "keyAccentLanguage": "atabrakaswaso"
      },
      {
        "code": 0,
        "type": "City",
        "enNameLanguage": "Bettie",
        "location": {
          "lat": 6.077,
          "lng": -3.414
        },
        "keyAccentLanguage": "bettie"
      },
      {
        "code": 0,
        "type": "City",
        "enNameLanguage": "Assinie-Mafia",
        "location": {
          "lat": 5.135,
          "lng": -3.292
        },
        "keyAccentLanguage": "assinie-mafia"
      },
      {
        "code": 0,
        "type": "City",
        "enNameLanguage": "Attobro",
        "location": {
          "lat": 7.038,
          "lng": -3.379
        },
        "keyAccentLanguage": "attobro"
      },
      {
        "code": 0,
        "type": "City",
        "enNameLanguage": "Ayenoua",
        "location": {
          "lat": 5.367,
          "lng": -3.317
        },
        "keyAccentLanguage": "ayenoua"
      },
      {
        "code": 0,
        "type": "City",
        "enNameLanguage": "Babiaha",
        "location": {
          "lat": 6.442,
          "lng": -3.275
        },
        "keyAccentLanguage": "babiaha"
      },
      {
        "code": 0,
        "type": "City",
        "enNameLanguage": "Kodjina",
        "location": {
          "lat": 6.742,
          "lng": -3.599
        },
        "keyAccentLanguage": "kodjina"
      },
      {
        "code": 0,
        "type": "City",
        "enNameLanguage": "Apprompron",
        "location": {
          "lat": 6.298,
          "lng": -3.325
        },
        "keyAccentLanguage": "apprompron"
      },
      {
        "code": 0,
        "type": "City",
        "enNameLanguage": "Baffia",
        "location": {
          "lat": 5.55,
          "lng": -2.983
        },
        "keyAccentLanguage": "baffia"
      },
      {
        "code": 0,
        "type": "City",
        "enNameLanguage": "Bonoua",
        "location": {
          "lat": 5.276,
          "lng": -3.605
        },
        "keyAccentLanguage": "bonoua"
      },
      {
        "code": 0,
        "type": "City",
        "enNameLanguage": "Bekouinkro",
        "location": {
          "lat": 6.511,
          "lng": -3.414
        },
        "keyAccentLanguage": "bekouinkro"
      },
      {
        "code": 0,
        "type": "City",
        "enNameLanguage": "Assemba Naye",
        "location": {
          "lat": 7.218,
          "lng": -3.303
        },
        "keyAccentLanguage": "assemba_naye"
      },
      {
        "code": 0,
        "type": "City",
        "enNameLanguage": "Azuretti",
        "location": {
          "lat": 5.206,
          "lng": -3.783
        },
        "keyAccentLanguage": "azuretti"
      },
      {
        "code": 0,
        "type": "City",
        "enNameLanguage": "Bleouhokro",
        "location": {
          "lat": 5.369,
          "lng": -3.089
        },
        "keyAccentLanguage": "bleouhokro"
      },
      {
        "code": 0,
        "type": "City",
        "enNameLanguage": "Adiake",
        "location": {
          "lat": 5.285,
          "lng": -3.303
        },
        "keyAccentLanguage": "adiake"
      },
      {
        "code": 0,
        "type": "City",
        "enNameLanguage": "Sankouadiokro",
        "location": {
          "lat": 6.864,
          "lng": -3.493
        },
        "keyAccentLanguage": "sankouadiokro"
      },
      {
        "code": 0,
        "type": "City",
        "enNameLanguage": "Ketesso",
        "location": {
          "lat": 5.876,
          "lng": -3.179
        },
        "keyAccentLanguage": "ketesso"
      },
      {
        "code": 0,
        "type": "City",
        "enNameLanguage": "Niable",
        "location": {
          "lat": 6.662,
          "lng": -3.279
        },
        "keyAccentLanguage": "niable"
      },
      {
        "code": 0,
        "type": "City",
        "enNameLanguage": "Niando",
        "location": {
          "lat": 7.046,
          "lng": -3.284
        },
        "keyAccentLanguage": "niando"
      },
      {
        "code": 0,
        "type": "City",
        "enNameLanguage": "Allakro",
        "location": {
          "lat": 5.3,
          "lng": -2.883
        },
        "keyAccentLanguage": "allakro"
      },
      {
        "code": 0,
        "type": "City",
        "enNameLanguage": "Ayebo",
        "location": {
          "lat": 5.441,
          "lng": -3.264
        },
        "keyAccentLanguage": "ayebo"
      },
      {
        "code": 0,
        "type": "City",
        "enNameLanguage": "Borobo",
        "location": {
          "lat": 6.185,
          "lng": -3.285
        },
        "keyAccentLanguage": "borobo"
      },
      {
        "code": 0,
        "type": "City",
        "enNameLanguage": "Amangouakro",
        "location": {
          "lat": 6.867,
          "lng": -3.767
        },
        "keyAccentLanguage": "amangouakro"
      },
      {
        "code": 0,
        "type": "City",
        "enNameLanguage": "Anougbakro",
        "location": {
          "lat": 6.962,
          "lng": -3.747
        },
        "keyAccentLanguage": "anougbakro"
      },
      {
        "code": 0,
        "type": "City",
        "enNameLanguage": "Yakasse",
        "location": {
          "lat": 6.949,
          "lng": -3.413
        },
        "keyAccentLanguage": "yakasse"
      },
      {
        "code": 0,
        "type": "City",
        "enNameLanguage": "Zinzenou",
        "location": {
          "lat": 6.888,
          "lng": -3.455
        },
        "keyAccentLanguage": "zinzenou"
      }
    ],
    "enNameLanguage": "Como",
    "keyAccentLanguage": "como"
  },
  {
    "code": 0,
    "type": "State",
    "location": {
      "lat": 0,
      "lng": 0
    },
    "districtList": [
      {
        "code": 0,
        "type": "City",
        "enNameLanguage": "Bougousa",
        "location": {
          "lat": 9.967,
          "lng": -7.6
        },
        "keyAccentLanguage": "bougousa"
      },
      {
        "code": 0,
        "type": "City",
        "enNameLanguage": "Farako",
        "location": {
          "lat": 9.32,
          "lng": -7.508
        },
        "keyAccentLanguage": "farako"
      },
      {
        "code": 0,
        "type": "City",
        "enNameLanguage": "Badouhala",
        "location": {
          "lat": 8.933,
          "lng": -7.533
        },
        "keyAccentLanguage": "badouhala"
      },
      {
        "code": 0,
        "type": "City",
        "enNameLanguage": "Fandasso",
        "location": {
          "lat": 9.459,
          "lng": -6.881
        },
        "keyAccentLanguage": "fandasso"
      },
      {
        "code": 0,
        "type": "City",
        "enNameLanguage": "Dabadougou",
        "location": {
          "lat": 9.582,
          "lng": -7.169
        },
        "keyAccentLanguage": "dabadougou"
      },
      {
        "code": 0,
        "type": "City",
        "enNameLanguage": "Koro-Oule",
        "location": {
          "lat": 9.731,
          "lng": -7.487
        },
        "keyAccentLanguage": "koro-oule"
      },
      {
        "code": 0,
        "type": "City",
        "enNameLanguage": "Faloumou",
        "location": {
          "lat": 9.933,
          "lng": -7.333
        },
        "keyAccentLanguage": "faloumou"
      },
      {
        "code": 0,
        "type": "City",
        "enNameLanguage": "Doumbadougou",
        "location": {
          "lat": 8.583,
          "lng": -7.2
        },
        "keyAccentLanguage": "doumbadougou"
      },
      {
        "code": 0,
        "type": "City",
        "enNameLanguage": "Beredougou",
        "location": {
          "lat": 9.5,
          "lng": -7.417
        },
        "keyAccentLanguage": "beredougou"
      },
      {
        "code": 0,
        "type": "City",
        "enNameLanguage": "Bengo",
        "location": {
          "lat": 9.175,
          "lng": -7.799
        },
        "keyAccentLanguage": "bengo"
      },
      {
        "code": 0,
        "type": "City",
        "enNameLanguage": "Bako",
        "location": {
          "lat": 9.133,
          "lng": -7.61
        },
        "keyAccentLanguage": "bako"
      },
      {
        "code": 0,
        "type": "City",
        "enNameLanguage": "Dioronzo",
        "location": {
          "lat": 10.139,
          "lng": -7.956
        },
        "keyAccentLanguage": "dioronzo"
      },
      {
        "code": 0,
        "type": "City",
        "enNameLanguage": "Feremandougou",
        "location": {
          "lat": 8.952,
          "lng": -7.574
        },
        "keyAccentLanguage": "feremandougou"
      },
      {
        "code": 0,
        "type": "City",
        "enNameLanguage": "Goulia",
        "location": {
          "lat": 10.01,
          "lng": -7.203
        },
        "keyAccentLanguage": "goulia"
      },
      {
        "code": 0,
        "type": "City",
        "enNameLanguage": "Zebene",
        "location": {
          "lat": 9.314,
          "lng": -7.325
        },
        "keyAccentLanguage": "zebene"
      },
      {
        "code": 0,
        "type": "City",
        "enNameLanguage": "Biramadougou",
        "location": {
          "lat": 9.633,
          "lng": -8.017
        },
        "keyAccentLanguage": "biramadougou"
      },
      {
        "code": 0,
        "type": "City",
        "enNameLanguage": "Fangolo",
        "location": {
          "lat": 9.914,
          "lng": -6.909
        },
        "keyAccentLanguage": "fangolo"
      },
      {
        "code": 0,
        "type": "City",
        "enNameLanguage": "Segelo-Koro",
        "location": {
          "lat": 9.407,
          "lng": -7.151
        },
        "keyAccentLanguage": "segelo-koro"
      },
      {
        "code": 0,
        "type": "City",
        "enNameLanguage": "Gbongaa",
        "location": {
          "lat": 9.113,
          "lng": -6.889
        },
        "keyAccentLanguage": "gbongaa"
      },
      {
        "code": 0,
        "type": "City",
        "enNameLanguage": "Bogodougou",
        "location": {
          "lat": 9.869,
          "lng": -7.335
        },
        "keyAccentLanguage": "bogodougou"
      },
      {
        "code": 0,
        "type": "City",
        "enNameLanguage": "Nieneso",
        "location": {
          "lat": 9.211,
          "lng": -7.401
        },
        "keyAccentLanguage": "nieneso"
      },
      {
        "code": 0,
        "type": "City",
        "enNameLanguage": "Odienne",
        "location": {
          "lat": 9.509,
          "lng": -7.577
        },
        "keyAccentLanguage": "odienne"
      },
      {
        "code": 0,
        "type": "City",
        "enNameLanguage": "Badyouala",
        "location": {
          "lat": 9.506,
          "lng": -7.975
        },
        "keyAccentLanguage": "badyouala"
      },
      {
        "code": 0,
        "type": "City",
        "enNameLanguage": "Goueya",
        "location": {
          "lat": 10.303,
          "lng": -6.934
        },
        "keyAccentLanguage": "goueya"
      },
      {
        "code": 0,
        "type": "City",
        "enNameLanguage": "Wele",
        "location": {
          "lat": 10.351,
          "lng": -6.812
        },
        "keyAccentLanguage": "wele"
      },
      {
        "code": 0,
        "type": "City",
        "enNameLanguage": "Seydougou",
        "location": {
          "lat": 9.512,
          "lng": -7.976
        },
        "keyAccentLanguage": "seydougou"
      },
      {
        "code": 0,
        "type": "City",
        "enNameLanguage": "Diolala",
        "location": {
          "lat": 10.192,
          "lng": -7.344
        },
        "keyAccentLanguage": "diolala"
      },
      {
        "code": 0,
        "type": "City",
        "enNameLanguage": "Wahire",
        "location": {
          "lat": 10.127,
          "lng": -6.923
        },
        "keyAccentLanguage": "wahire"
      },
      {
        "code": 0,
        "type": "City",
        "enNameLanguage": "Bouroumasso",
        "location": {
          "lat": 9.682,
          "lng": -7.157
        },
        "keyAccentLanguage": "bouroumasso"
      },
      {
        "code": 0,
        "type": "City",
        "enNameLanguage": "Koroumba",
        "location": {
          "lat": 9.811,
          "lng": -7.105
        },
        "keyAccentLanguage": "koroumba"
      },
      {
        "code": 0,
        "type": "City",
        "enNameLanguage": "Kadiasso",
        "location": {
          "lat": 9.703,
          "lng": -6.962
        },
        "keyAccentLanguage": "kadiasso"
      },
      {
        "code": 0,
        "type": "City",
        "enNameLanguage": "Dyingele",
        "location": {
          "lat": 9.55,
          "lng": -7.133
        },
        "keyAccentLanguage": "dyingele"
      },
      {
        "code": 0,
        "type": "City",
        "enNameLanguage": "Tienko",
        "location": {
          "lat": 10.219,
          "lng": -7.485
        },
        "keyAccentLanguage": "tienko"
      },
      {
        "code": 0,
        "type": "City",
        "enNameLanguage": "Bwange",
        "location": {
          "lat": 9.283,
          "lng": -7.033
        },
        "keyAccentLanguage": "bwange"
      },
      {
        "code": 0,
        "type": "City",
        "enNameLanguage": "Sarakorodougou",
        "location": {
          "lat": 9.129,
          "lng": -7.528
        },
        "keyAccentLanguage": "sarakorodougou"
      },
      {
        "code": 0,
        "type": "City",
        "enNameLanguage": "Tiekorodougou",
        "location": {
          "lat": 9.026,
          "lng": -7.271
        },
        "keyAccentLanguage": "tiekorodougou"
      },
      {
        "code": 0,
        "type": "City",
        "enNameLanguage": "Maninian",
        "location": {
          "lat": 9.987,
          "lng": -7.831
        },
        "keyAccentLanguage": "maninian"
      },
      {
        "code": 0,
        "type": "City",
        "enNameLanguage": "Bonoro",
        "location": {
          "lat": 9.567,
          "lng": -7.483
        },
        "keyAccentLanguage": "bonoro"
      },
      {
        "code": 0,
        "type": "City",
        "enNameLanguage": "Tiefinzo",
        "location": {
          "lat": 10.408,
          "lng": -7.484
        },
        "keyAccentLanguage": "tiefinzo"
      },
      {
        "code": 0,
        "type": "City",
        "enNameLanguage": "Barala",
        "location": {
          "lat": 8.95,
          "lng": -7.617
        },
        "keyAccentLanguage": "barala"
      },
      {
        "code": 0,
        "type": "City",
        "enNameLanguage": "Doumba",
        "location": {
          "lat": 8.967,
          "lng": -7.333
        },
        "keyAccentLanguage": "doumba"
      },
      {
        "code": 0,
        "type": "City",
        "enNameLanguage": "Faberadougou",
        "location": {
          "lat": 8.783,
          "lng": -7.283
        },
        "keyAccentLanguage": "faberadougou"
      },
      {
        "code": 0,
        "type": "City",
        "enNameLanguage": "Diandeguela",
        "location": {
          "lat": 9.916,
          "lng": -7.816
        },
        "keyAccentLanguage": "diandeguela"
      },
      {
        "code": 0,
        "type": "City",
        "enNameLanguage": "Tora",
        "location": {
          "lat": 9.391,
          "lng": -6.938
        },
        "keyAccentLanguage": "tora"
      },
      {
        "code": 0,
        "type": "City",
        "enNameLanguage": "Dioulatiedougou",
        "location": {
          "lat": 8.965,
          "lng": -7.229
        },
        "keyAccentLanguage": "dioulatiedougou"
      },
      {
        "code": 0,
        "type": "City",
        "enNameLanguage": "Bokouna",
        "location": {
          "lat": 10.067,
          "lng": -7.5
        },
        "keyAccentLanguage": "bokouna"
      },
      {
        "code": 0,
        "type": "City",
        "enNameLanguage": "Tindikoro",
        "location": {
          "lat": 9.262,
          "lng": -7.145
        },
        "keyAccentLanguage": "tindikoro"
      },
      {
        "code": 0,
        "type": "City",
        "enNameLanguage": "Dyafanana",
        "location": {
          "lat": 9.21,
          "lng": -7.886
        },
        "keyAccentLanguage": "dyafanana"
      },
      {
        "code": 0,
        "type": "City",
        "enNameLanguage": "Mahandiana",
        "location": {
          "lat": 10.249,
          "lng": -6.687
        },
        "keyAccentLanguage": "mahandiana"
      },
      {
        "code": 0,
        "type": "City",
        "enNameLanguage": "Fafala",
        "location": {
          "lat": 10.242,
          "lng": -6.88
        },
        "keyAccentLanguage": "fafala"
      },
      {
        "code": 0,
        "type": "City",
        "enNameLanguage": "Balala",
        "location": {
          "lat": 9.445,
          "lng": -7.992
        },
        "keyAccentLanguage": "balala"
      },
      {
        "code": 0,
        "type": "City",
        "enNameLanguage": "Masadougou",
        "location": {
          "lat": 9.105,
          "lng": -7.381
        },
        "keyAccentLanguage": "masadougou"
      },
      {
        "code": 0,
        "type": "City",
        "enNameLanguage": "Kotoula",
        "location": {
          "lat": 10.115,
          "lng": -7.397
        },
        "keyAccentLanguage": "kotoula"
      },
      {
        "code": 0,
        "type": "City",
        "enNameLanguage": "Bagadya",
        "location": {
          "lat": 9.396,
          "lng": -7.609
        },
        "keyAccentLanguage": "bagadya"
      },
      {
        "code": 0,
        "type": "City",
        "enNameLanguage": "Bougouso",
        "location": {
          "lat": 9.259,
          "lng": -7.829
        },
        "keyAccentLanguage": "bougouso"
      },
      {
        "code": 0,
        "type": "City",
        "enNameLanguage": "Diori",
        "location": {
          "lat": 9.567,
          "lng": -6.8
        },
        "keyAccentLanguage": "diori"
      },
      {
        "code": 0,
        "type": "City",
        "enNameLanguage": "Nafadougou",
        "location": {
          "lat": 9.938,
          "lng": -7.562
        },
        "keyAccentLanguage": "nafadougou"
      },
      {
        "code": 0,
        "type": "City",
        "enNameLanguage": "Farala",
        "location": {
          "lat": 9.317,
          "lng": -7.499
        },
        "keyAccentLanguage": "farala"
      },
      {
        "code": 0,
        "type": "City",
        "enNameLanguage": "Doumbala",
        "location": {
          "lat": 9.881,
          "lng": -7.409
        },
        "keyAccentLanguage": "doumbala"
      },
      {
        "code": 0,
        "type": "City",
        "enNameLanguage": "Fasoronzo",
        "location": {
          "lat": 9.249,
          "lng": -7.739
        },
        "keyAccentLanguage": "fasoronzo"
      },
      {
        "code": 0,
        "type": "City",
        "enNameLanguage": "Basekodougou",
        "location": {
          "lat": 9.454,
          "lng": -7.582
        },
        "keyAccentLanguage": "basekodougou"
      },
      {
        "code": 0,
        "type": "City",
        "enNameLanguage": "Tomozomo",
        "location": {
          "lat": 9.867,
          "lng": -6.788
        },
        "keyAccentLanguage": "tomozomo"
      },
      {
        "code": 0,
        "type": "City",
        "enNameLanguage": "Sokoro",
        "location": {
          "lat": 10.196,
          "lng": -7.835
        },
        "keyAccentLanguage": "sokoro"
      },
      {
        "code": 0,
        "type": "City",
        "enNameLanguage": "Samakona",
        "location": {
          "lat": 9.967,
          "lng": -7.225
        },
        "keyAccentLanguage": "samakona"
      },
      {
        "code": 0,
        "type": "City",
        "enNameLanguage": "Niamina",
        "location": {
          "lat": 10.066,
          "lng": -7.679
        },
        "keyAccentLanguage": "niamina"
      },
      {
        "code": 0,
        "type": "City",
        "enNameLanguage": "Foula",
        "location": {
          "lat": 9.34,
          "lng": -7.793
        },
        "keyAccentLanguage": "foula"
      },
      {
        "code": 0,
        "type": "City",
        "enNameLanguage": "Djirila",
        "location": {
          "lat": 10.119,
          "lng": -7.618
        },
        "keyAccentLanguage": "djirila"
      },
      {
        "code": 0,
        "type": "City",
        "enNameLanguage": "Fiela",
        "location": {
          "lat": 9.953,
          "lng": -7.453
        },
        "keyAccentLanguage": "fiela"
      },
      {
        "code": 0,
        "type": "City",
        "enNameLanguage": "Dzeguetiela",
        "location": {
          "lat": 9.804,
          "lng": -7.209
        },
        "keyAccentLanguage": "dzeguetiela"
      },
      {
        "code": 0,
        "type": "City",
        "enNameLanguage": "Kaniasso",
        "location": {
          "lat": 9.824,
          "lng": -7.504
        },
        "keyAccentLanguage": "kaniasso"
      },
      {
        "code": 0,
        "type": "City",
        "enNameLanguage": "Fembiasso",
        "location": {
          "lat": 9.633,
          "lng": -6.933
        },
        "keyAccentLanguage": "fembiasso"
      },
      {
        "code": 0,
        "type": "City",
        "enNameLanguage": "Bouake",
        "location": {
          "lat": 9.617,
          "lng": -7.417
        },
        "keyAccentLanguage": "bouake"
      },
      {
        "code": 0,
        "type": "City",
        "enNameLanguage": "Samatiguila",
        "location": {
          "lat": 9.818,
          "lng": -7.567
        },
        "keyAccentLanguage": "samatiguila"
      },
      {
        "code": 0,
        "type": "City",
        "enNameLanguage": "Gbahalan",
        "location": {
          "lat": 9.584,
          "lng": -7.613
        },
        "keyAccentLanguage": "gbahalan"
      },
      {
        "code": 0,
        "type": "City",
        "enNameLanguage": "Tahara",
        "location": {
          "lat": 10.146,
          "lng": -7.129
        },
        "keyAccentLanguage": "tahara"
      },
      {
        "code": 0,
        "type": "City",
        "enNameLanguage": "Zandougou",
        "location": {
          "lat": 8.983,
          "lng": -7.457
        },
        "keyAccentLanguage": "zandougou"
      },
      {
        "code": 0,
        "type": "City",
        "enNameLanguage": "Ngoloblaso",
        "location": {
          "lat": 9.681,
          "lng": -7.235
        },
        "keyAccentLanguage": "ngoloblaso"
      },
      {
        "code": 0,
        "type": "City",
        "enNameLanguage": "Feredougou",
        "location": {
          "lat": 9.842,
          "lng": -7.75
        },
        "keyAccentLanguage": "feredougou"
      },
      {
        "code": 0,
        "type": "City",
        "enNameLanguage": "Seme",
        "location": {
          "lat": 10.166,
          "lng": -6.952
        },
        "keyAccentLanguage": "seme"
      },
      {
        "code": 0,
        "type": "City",
        "enNameLanguage": "Tieme",
        "location": {
          "lat": 9.546,
          "lng": -7.332
        },
        "keyAccentLanguage": "tieme"
      },
      {
        "code": 0,
        "type": "City",
        "enNameLanguage": "Farakoro",
        "location": {
          "lat": 9.445,
          "lng": -7.119
        },
        "keyAccentLanguage": "farakoro"
      },
      {
        "code": 0,
        "type": "City",
        "enNameLanguage": "Kourondougou",
        "location": {
          "lat": 9.321,
          "lng": -7.636
        },
        "keyAccentLanguage": "kourondougou"
      },
      {
        "code": 0,
        "type": "City",
        "enNameLanguage": "Ferefougoula",
        "location": {
          "lat": 9.283,
          "lng": -7.733
        },
        "keyAccentLanguage": "ferefougoula"
      },
      {
        "code": 0,
        "type": "City",
        "enNameLanguage": "Kabangoue",
        "location": {
          "lat": 10.134,
          "lng": -7.555
        },
        "keyAccentLanguage": "kabangoue"
      },
      {
        "code": 0,
        "type": "City",
        "enNameLanguage": "Geleban",
        "location": {
          "lat": 9.579,
          "lng": -8.129
        },
        "keyAccentLanguage": "geleban"
      },
      {
        "code": 0,
        "type": "City",
        "enNameLanguage": "Kimbirila",
        "location": {
          "lat": 9.704,
          "lng": -7.617
        },
        "keyAccentLanguage": "kimbirila"
      },
      {
        "code": 0,
        "type": "City",
        "enNameLanguage": "Sirana d'Odienne",
        "location": {
          "lat": 9.412,
          "lng": -7.838
        },
        "keyAccentLanguage": "sirana_d'odienne"
      },
      {
        "code": 0,
        "type": "City",
        "enNameLanguage": "Kanaso",
        "location": {
          "lat": 9.25,
          "lng": -7.612
        },
        "keyAccentLanguage": "kanaso"
      },
      {
        "code": 0,
        "type": "City",
        "enNameLanguage": "Farafing",
        "location": {
          "lat": 10.217,
          "lng": -6.8
        },
        "keyAccentLanguage": "farafing"
      },
      {
        "code": 0,
        "type": "City",
        "enNameLanguage": "Banankoro",
        "location": {
          "lat": 9.818,
          "lng": -7.386
        },
        "keyAccentLanguage": "banankoro"
      },
      {
        "code": 0,
        "type": "City",
        "enNameLanguage": "Sokorodougou",
        "location": {
          "lat": 9.025,
          "lng": -7.595
        },
        "keyAccentLanguage": "sokorodougou"
      },
      {
        "code": 0,
        "type": "City",
        "enNameLanguage": "Kere",
        "location": {
          "lat": 9.775,
          "lng": -7.714
        },
        "keyAccentLanguage": "kere"
      },
      {
        "code": 0,
        "type": "City",
        "enNameLanguage": "Gbanala",
        "location": {
          "lat": 9.53,
          "lng": -8.124
        },
        "keyAccentLanguage": "gbanala"
      },
      {
        "code": 0,
        "type": "City",
        "enNameLanguage": "Dierila",
        "location": {
          "lat": 10.09,
          "lng": -7.755
        },
        "keyAccentLanguage": "dierila"
      },
      {
        "code": 0,
        "type": "City",
        "enNameLanguage": "Lossingue",
        "location": {
          "lat": 9.441,
          "lng": -7.035
        },
        "keyAccentLanguage": "lossingue"
      },
      {
        "code": 0,
        "type": "City",
        "enNameLanguage": "Bara",
        "location": {
          "lat": 9.723,
          "lng": -7.554
        },
        "keyAccentLanguage": "bara"
      },
      {
        "code": 0,
        "type": "City",
        "enNameLanguage": "Madinani",
        "location": {
          "lat": 9.604,
          "lng": -6.947
        },
        "keyAccentLanguage": "madinani"
      },
      {
        "code": 0,
        "type": "City",
        "enNameLanguage": "Touba",
        "location": {
          "lat": 9.723,
          "lng": -7.395
        },
        "keyAccentLanguage": "touba"
      },
      {
        "code": 0,
        "type": "City",
        "enNameLanguage": "Farala",
        "location": {
          "lat": 9.317,
          "lng": -7.499
        },
        "keyAccentLanguage": "farala"
      },
      {
        "code": 0,
        "type": "City",
        "enNameLanguage": "Kimbirila",
        "location": {
          "lat": 9.704,
          "lng": -7.617
        },
        "keyAccentLanguage": "kimbirila"
      }
    ],
    "enNameLanguage": "Dengul",
    "keyAccentLanguage": "dengul"
  },
  {
    "code": 0,
    "type": "State",
    "location": {
      "lat": 5.871139299999999,
      "lng": -5.5617279
    },
    "districtList": [
      {
        "code": 0,
        "type": "City",
        "enNameLanguage": "Aouati",
        "location": {
          "lat": 5.876,
          "lng": -5.165
        },
        "keyAccentLanguage": "aouati"
      },
      {
        "code": 0,
        "type": "City",
        "enNameLanguage": "Daopa",
        "location": {
          "lat": 6.15,
          "lng": -5.871
        },
        "keyAccentLanguage": "daopa"
      },
      {
        "code": 0,
        "type": "City",
        "enNameLanguage": "Abodioupa",
        "location": {
          "lat": 6.05,
          "lng": -5.8
        },
        "keyAccentLanguage": "abodioupa"
      },
      {
        "code": 0,
        "type": "City",
        "enNameLanguage": "Abatoulilie",
        "location": {
          "lat": 5.995,
          "lng": -5.608
        },
        "keyAccentLanguage": "abatoulilie"
      },
      {
        "code": 0,
        "type": "City",
        "enNameLanguage": "Afridougou",
        "location": {
          "lat": 6.15,
          "lng": -5.95
        },
        "keyAccentLanguage": "afridougou"
      },
      {
        "code": 0,
        "type": "City",
        "enNameLanguage": "Basi",
        "location": {
          "lat": 6.267,
          "lng": -6.217
        },
        "keyAccentLanguage": "basi"
      },
      {
        "code": 0,
        "type": "City",
        "enNameLanguage": "Aboyo",
        "location": {
          "lat": 5.942,
          "lng": -5.816
        },
        "keyAccentLanguage": "aboyo"
      },
      {
        "code": 0,
        "type": "City",
        "enNameLanguage": "Banolilie II",
        "location": {
          "lat": 5.727,
          "lng": -5.572
        },
        "keyAccentLanguage": "banolilie_ii"
      },
      {
        "code": 0,
        "type": "City",
        "enNameLanguage": "Divo",
        "location": {
          "lat": 5.839,
          "lng": -5.36
        },
        "keyAccentLanguage": "divo"
      },
      {
        "code": 0,
        "type": "City",
        "enNameLanguage": "Banolilie I",
        "location": {
          "lat": 5.736,
          "lng": -5.558
        },
        "keyAccentLanguage": "banolilie_i"
      },
      {
        "code": 0,
        "type": "City",
        "enNameLanguage": "Betiayo",
        "location": {
          "lat": 6.03,
          "lng": -6.264
        },
        "keyAccentLanguage": "betiayo"
      },
      {
        "code": 0,
        "type": "City",
        "enNameLanguage": "Bangoredoukou",
        "location": {
          "lat": 5.283,
          "lng": -5.136
        },
        "keyAccentLanguage": "bangoredoukou"
      },
      {
        "code": 0,
        "type": "City",
        "enNameLanguage": "Yokoboue",
        "location": {
          "lat": 5.269,
          "lng": -5.111
        },
        "keyAccentLanguage": "yokoboue"
      },
      {
        "code": 0,
        "type": "City",
        "enNameLanguage": "Didoko",
        "location": {
          "lat": 6.017,
          "lng": -5.318
        },
        "keyAccentLanguage": "didoko"
      },
      {
        "code": 0,
        "type": "City",
        "enNameLanguage": "Koissizra",
        "location": {
          "lat": 6.287,
          "lng": -5.361
        },
        "keyAccentLanguage": "koissizra"
      },
      {
        "code": 0,
        "type": "City",
        "enNameLanguage": "Bakassou",
        "location": {
          "lat": 6.117,
          "lng": -5.167
        },
        "keyAccentLanguage": "bakassou"
      },
      {
        "code": 0,
        "type": "City",
        "enNameLanguage": "Bakeyo",
        "location": {
          "lat": 6.05,
          "lng": -6.112
        },
        "keyAccentLanguage": "bakeyo"
      },
      {
        "code": 0,
        "type": "City",
        "enNameLanguage": "Beheri",
        "location": {
          "lat": 5.88,
          "lng": -5.191
        },
        "keyAccentLanguage": "beheri"
      },
      {
        "code": 0,
        "type": "City",
        "enNameLanguage": "Bapa",
        "location": {
          "lat": 6.467,
          "lng": -5.833
        },
        "keyAccentLanguage": "bapa"
      },
      {
        "code": 0,
        "type": "City",
        "enNameLanguage": "Ahouanou Deux",
        "location": {
          "lat": 5.891,
          "lng": -5.152
        },
        "keyAccentLanguage": "ahouanou_deux"
      },
      {
        "code": 0,
        "type": "City",
        "enNameLanguage": "Barouyo",
        "location": {
          "lat": 6.117,
          "lng": -5.933
        },
        "keyAccentLanguage": "barouyo"
      },
      {
        "code": 0,
        "type": "City",
        "enNameLanguage": "Zokrobouo",
        "location": {
          "lat": 6.023,
          "lng": -6.034
        },
        "keyAccentLanguage": "zokrobouo"
      },
      {
        "code": 0,
        "type": "City",
        "enNameLanguage": "Godieko",
        "location": {
          "lat": 6.157,
          "lng": -5.697
        },
        "keyAccentLanguage": "godieko"
      },
      {
        "code": 0,
        "type": "City",
        "enNameLanguage": "Balepahoua",
        "location": {
          "lat": 6.4,
          "lng": -5.983
        },
        "keyAccentLanguage": "balepahoua"
      },
      {
        "code": 0,
        "type": "City",
        "enNameLanguage": "Abiadougou",
        "location": {
          "lat": 5.954,
          "lng": -5.291
        },
        "keyAccentLanguage": "abiadougou"
      },
      {
        "code": 0,
        "type": "City",
        "enNameLanguage": "Ouergayo",
        "location": {
          "lat": 6.315,
          "lng": -5.932
        },
        "keyAccentLanguage": "ouergayo"
      },
      {
        "code": 0,
        "type": "City",
        "enNameLanguage": "Guiberoua",
        "location": {
          "lat": 6.237,
          "lng": -6.166
        },
        "keyAccentLanguage": "guiberoua"
      },
      {
        "code": 0,
        "type": "City",
        "enNameLanguage": "Guitri",
        "location": {
          "lat": 5.517,
          "lng": -5.246
        },
        "keyAccentLanguage": "guitri"
      },
      {
        "code": 0,
        "type": "City",
        "enNameLanguage": "Gbeiri",
        "location": {
          "lat": 5.883,
          "lng": -5.202
        },
        "keyAccentLanguage": "gbeiri"
      },
      {
        "code": 0,
        "type": "City",
        "enNameLanguage": "Badiepa",
        "location": {
          "lat": 6.267,
          "lng": -5.817
        },
        "keyAccentLanguage": "badiepa"
      },
      {
        "code": 0,
        "type": "City",
        "enNameLanguage": "Doukouya",
        "location": {
          "lat": 6.419,
          "lng": -5.559
        },
        "keyAccentLanguage": "doukouya"
      },
      {
        "code": 0,
        "type": "City",
        "enNameLanguage": "Berieoa",
        "location": {
          "lat": 6.317,
          "lng": -6.133
        },
        "keyAccentLanguage": "berieoa"
      },
      {
        "code": 0,
        "type": "City",
        "enNameLanguage": "Danyoa",
        "location": {
          "lat": 6.255,
          "lng": -6.037
        },
        "keyAccentLanguage": "danyoa"
      },
      {
        "code": 0,
        "type": "City",
        "enNameLanguage": "Niambezaria",
        "location": {
          "lat": 5.672,
          "lng": -5.77
        },
        "keyAccentLanguage": "niambezaria"
      },
      {
        "code": 0,
        "type": "City",
        "enNameLanguage": "Bandamako",
        "location": {
          "lat": 6.117,
          "lng": -5.65
        },
        "keyAccentLanguage": "bandamako"
      },
      {
        "code": 0,
        "type": "City",
        "enNameLanguage": "Bibiepa",
        "location": {
          "lat": 6.35,
          "lng": -5.9
        },
        "keyAccentLanguage": "bibiepa"
      },
      {
        "code": 0,
        "type": "City",
        "enNameLanguage": "Baseoa",
        "location": {
          "lat": 6.135,
          "lng": -6.247
        },
        "keyAccentLanguage": "baseoa"
      },
      {
        "code": 0,
        "type": "City",
        "enNameLanguage": "Guepaouo",
        "location": {
          "lat": 6.472,
          "lng": -5.71
        },
        "keyAccentLanguage": "guepaouo"
      },
      {
        "code": 0,
        "type": "City",
        "enNameLanguage": "Bassaoua",
        "location": {
          "lat": 6.117,
          "lng": -5.65
        },
        "keyAccentLanguage": "bassaoua"
      },
      {
        "code": 0,
        "type": "City",
        "enNameLanguage": "Make",
        "location": {
          "lat": 5.215,
          "lng": -5.147
        },
        "keyAccentLanguage": "make"
      },
      {
        "code": 0,
        "type": "City",
        "enNameLanguage": "Logobia",
        "location": {
          "lat": 6.188,
          "lng": -5.773
        },
        "keyAccentLanguage": "logobia"
      },
      {
        "code": 0,
        "type": "City",
        "enNameLanguage": "Benkro",
        "location": {
          "lat": 6.483,
          "lng": -5.55
        },
        "keyAccentLanguage": "benkro"
      },
      {
        "code": 0,
        "type": "City",
        "enNameLanguage": "Gagnoa",
        "location": {
          "lat": 6.125,
          "lng": -5.94
        },
        "keyAccentLanguage": "gagnoa"
      },
      {
        "code": 0,
        "type": "City",
        "enNameLanguage": "Behiri",
        "location": {
          "lat": 5.65,
          "lng": -5.439
        },
        "keyAccentLanguage": "behiri"
      },
      {
        "code": 0,
        "type": "City",
        "enNameLanguage": "Agboro",
        "location": {
          "lat": 5.729,
          "lng": -5.488
        },
        "keyAccentLanguage": "agboro"
      },
      {
        "code": 0,
        "type": "City",
        "enNameLanguage": "Domaboue",
        "location": {
          "lat": 5.773,
          "lng": -5.743
        },
        "keyAccentLanguage": "domaboue"
      },
      {
        "code": 0,
        "type": "City",
        "enNameLanguage": "Anoumabou",
        "location": {
          "lat": 5.62,
          "lng": -5.113
        },
        "keyAccentLanguage": "anoumabou"
      },
      {
        "code": 0,
        "type": "City",
        "enNameLanguage": "Akridou",
        "location": {
          "lat": 5.628,
          "lng": -5.611
        },
        "keyAccentLanguage": "akridou"
      },
      {
        "code": 0,
        "type": "City",
        "enNameLanguage": "Babokoon-Appolo",
        "location": {
          "lat": 5.548,
          "lng": -5.344
        },
        "keyAccentLanguage": "babokoon-appolo"
      },
      {
        "code": 0,
        "type": "City",
        "enNameLanguage": "Beugrehoin II",
        "location": {
          "lat": 5.962,
          "lng": -5.755
        },
        "keyAccentLanguage": "beugrehoin_ii"
      },
      {
        "code": 0,
        "type": "City",
        "enNameLanguage": "Betrouhoin",
        "location": {
          "lat": 5.882,
          "lng": -5.856
        },
        "keyAccentLanguage": "betrouhoin"
      },
      {
        "code": 0,
        "type": "City",
        "enNameLanguage": "Agbaou",
        "location": {
          "lat": 6.083,
          "lng": -5.217
        },
        "keyAccentLanguage": "agbaou"
      },
      {
        "code": 0,
        "type": "City",
        "enNameLanguage": "Atonoya",
        "location": {
          "lat": 6.099,
          "lng": -6.011
        },
        "keyAccentLanguage": "atonoya"
      },
      {
        "code": 0,
        "type": "City",
        "enNameLanguage": "Bayota",
        "location": {
          "lat": 6.458,
          "lng": -5.957
        },
        "keyAccentLanguage": "bayota"
      },
      {
        "code": 0,
        "type": "City",
        "enNameLanguage": "Akroufla",
        "location": {
          "lat": 6.333,
          "lng": -5.483
        },
        "keyAccentLanguage": "akroufla"
      },
      {
        "code": 0,
        "type": "City",
        "enNameLanguage": "Bazalilie",
        "location": {
          "lat": 5.973,
          "lng": -5.442
        },
        "keyAccentLanguage": "bazalilie"
      },
      {
        "code": 0,
        "type": "City",
        "enNameLanguage": "Koseoa",
        "location": {
          "lat": 6.075,
          "lng": -6.294
        },
        "keyAccentLanguage": "koseoa"
      },
      {
        "code": 0,
        "type": "City",
        "enNameLanguage": "Daliguepalegnoa",
        "location": {
          "lat": 5.908,
          "lng": -5.964
        },
        "keyAccentLanguage": "daliguepalegnoa"
      },
      {
        "code": 0,
        "type": "City",
        "enNameLanguage": "Eremankono",
        "location": {
          "lat": 5.936,
          "lng": -5.033
        },
        "keyAccentLanguage": "eremankono"
      },
      {
        "code": 0,
        "type": "City",
        "enNameLanguage": "Bagaseoa",
        "location": {
          "lat": 6.194,
          "lng": -6.362
        },
        "keyAccentLanguage": "bagaseoa"
      },
      {
        "code": 0,
        "type": "City",
        "enNameLanguage": "Zangue",
        "location": {
          "lat": 6.431,
          "lng": -5.359
        },
        "keyAccentLanguage": "zangue"
      },
      {
        "code": 0,
        "type": "City",
        "enNameLanguage": "Amenaiboue",
        "location": {
          "lat": 5.751,
          "lng": -5.452
        },
        "keyAccentLanguage": "amenaiboue"
      },
      {
        "code": 0,
        "type": "City",
        "enNameLanguage": "Hire-Ouatta",
        "location": {
          "lat": 6.187,
          "lng": -5.291
        },
        "keyAccentLanguage": "hire-ouatta"
      },
      {
        "code": 0,
        "type": "City",
        "enNameLanguage": "Adielilie",
        "location": {
          "lat": 6.067,
          "lng": -5.483
        },
        "keyAccentLanguage": "adielilie"
      },
      {
        "code": 0,
        "type": "City",
        "enNameLanguage": "Bassipe",
        "location": {
          "lat": 5.199,
          "lng": -5.298
        },
        "keyAccentLanguage": "bassipe"
      },
      {
        "code": 0,
        "type": "City",
        "enNameLanguage": "Oume",
        "location": {
          "lat": 6.376,
          "lng": -5.424
        },
        "keyAccentLanguage": "oume"
      },
      {
        "code": 0,
        "type": "City",
        "enNameLanguage": "Laouda",
        "location": {
          "lat": 6.206,
          "lng": -5.708
        },
        "keyAccentLanguage": "laouda"
      },
      {
        "code": 0,
        "type": "City",
        "enNameLanguage": "Kabia",
        "location": {
          "lat": 6.079,
          "lng": -5.843
        },
        "keyAccentLanguage": "kabia"
      },
      {
        "code": 0,
        "type": "City",
        "enNameLanguage": "Kouta",
        "location": {
          "lat": 5.494,
          "lng": -5.239
        },
        "keyAccentLanguage": "kouta"
      },
      {
        "code": 0,
        "type": "City",
        "enNameLanguage": "Kokouezo",
        "location": {
          "lat": 6.228,
          "lng": -5.952
        },
        "keyAccentLanguage": "kokouezo"
      },
      {
        "code": 0,
        "type": "City",
        "enNameLanguage": "Lozoua",
        "location": {
          "lat": 5.196,
          "lng": -5.313
        },
        "keyAccentLanguage": "lozoua"
      },
      {
        "code": 0,
        "type": "City",
        "enNameLanguage": "Aparagra",
        "location": {
          "lat": 6.15,
          "lng": -5.15
        },
        "keyAccentLanguage": "aparagra"
      },
      {
        "code": 0,
        "type": "City",
        "enNameLanguage": "Balayo",
        "location": {
          "lat": 6.445,
          "lng": -6.007
        },
        "keyAccentLanguage": "balayo"
      },
      {
        "code": 0,
        "type": "City",
        "enNameLanguage": "Bientokro",
        "location": {
          "lat": 5.935,
          "lng": -6.162
        },
        "keyAccentLanguage": "bientokro"
      },
      {
        "code": 0,
        "type": "City",
        "enNameLanguage": "Bareguiparehoin",
        "location": {
          "lat": 6.017,
          "lng": -5.75
        },
        "keyAccentLanguage": "bareguiparehoin"
      },