[
  {
    "code": 0,
    "type": "State",
    "location": {
      "lat": 11.1542936,
      "lng": 42.7069057
    },
    "districtList": [
      {
        "code": 0,
        "type": "City",
        "enNameLanguage": "Daasbiyo",
        "location": {
          "lat": 11.2525523,
          "lng": 42.79961
        },
        "keyAccentLanguage": "daasbiyo"
      },
      {
        "code": 0,
        "type": "City",
        "enNameLanguage": "Ali Sabieh",
        "location": {
          "lat": 11.1542936,
          "lng": 42.7069057
        },
        "keyAccentLanguage": "ali_sabieh"
      },
      {
        "code": 0,
        "type": "City",
        "enNameLanguage": "`Ali Sabieh",
        "location": {
          "lat": 11.1542936,
          "lng": 42.7069057
        },
        "keyAccentLanguage": "`ali_sabieh"
      },
      {
        "code": 0,
        "type": "City",
        "enNameLanguage": "Holhol",
        "location": {
          "lat": 11.3078768,
          "lng": 42.92953230000001
        },
        "keyAccentLanguage": "holhol"
      },
      {
        "code": 0,
        "type": "City",
        "enNameLanguage": "Danan",
        "location": {
          "lat": 11.183333,
          "lng": 42.933333
        },
        "keyAccentLanguage": "danan"
      },
      {
        "code": 0,
        "type": "City",
        "enNameLanguage": "Digri",
        "location": {
          "lat": 11.1542936,
          "lng": 42.7069057
        },
        "keyAccentLanguage": "digri"
      },
      {
        "code": 0,
        "type": "City",
        "enNameLanguage": "Guistir",
        "location": {
          "lat": 11.0058333,
          "lng": 42.9625
        },
        "keyAccentLanguage": "guistir"
      },
      {
        "code": 0,
        "type": "City",
        "enNameLanguage": "`Ali `Adde",
        "location": {
          "lat": 11.1321009,
          "lng": 42.8913927
        },
        "keyAccentLanguage": "`ali_`adde"
      },
      {
        "code": 0,
        "type": "City",
        "enNameLanguage": "Goubetto",
        "location": {
          "lat": 11.4218128,
          "lng": 42.99987309999999
        },
        "keyAccentLanguage": "goubetto"
      },
      {
        "code": 0,
        "type": "City",
        "enNameLanguage": "Goubeto",
        "location": {
          "lat": 11.4218128,
          "lng": 42.99987309999999
        },
        "keyAccentLanguage": "goubeto"
      }
    ],
    "enNameLanguage": "Ali Sabieh",
    "keyAccentLanguage": "ali_sabieh"
  },
  {
    "code": 0,
    "type": "State",
    "location": {
      "lat": 39.1582421,
      "lng": 20.9876839
    },
    "districtList": [
      {
        "code": 0,
        "type": "City",
        "enNameLanguage": "Loyada",
        "location": {
          "lat": 11.4615657,
          "lng": 43.2500923
        },
        "keyAccentLanguage": "loyada"
      },
      {
        "code": 0,
        "type": "City",
        "enNameLanguage": "Damerdjog",
        "location": {
          "lat": 11.4870566,
          "lng": 43.1874148
        },
        "keyAccentLanguage": "damerdjog"
      },
      {
        "code": 0,
        "type": "City",
        "enNameLanguage": "Ouea",
        "location": {
          "lat": 11.501,
          "lng": 42.856
        },
        "keyAccentLanguage": "ouea"
      },
      {
        "code": 0,
        "type": "City",
        "enNameLanguage": "Arta",
        "location": {
          "lat": 11.522,
          "lng": 42.84
        },
        "keyAccentLanguage": "arta"
      }
    ],
    "enNameLanguage": "Arta",
    "keyAccentLanguage": "arta"
  },
  {
    "code": 0,
    "type": "State",
    "location": {
      "lat": 11.104,
      "lng": 42.372
    },
    "districtList": [
      {
        "code": 0,
        "type": "City",
        "enNameLanguage": "Galafi",
        "location": {
          "lat": 11.7168693,
          "lng": 41.8376077
        },
        "keyAccentLanguage": "galafi"
      },
      {
        "code": 0,
        "type": "City",
        "enNameLanguage": "Dikhil",
        "location": {
          "lat": 11.1054336,
          "lng": 42.3704744
        },
        "keyAccentLanguage": "dikhil"
      },
      {
        "code": 0,
        "type": "City",
        "enNameLanguage": "`As `Ela",
        "location": {
          "lat": 11.0070842,
          "lng": 42.1049475
        },
        "keyAccentLanguage": "`as_`ela"
      },
      {
        "code": 0,
        "type": "City",
        "enNameLanguage": "Mouloud",
        "location": {
          "lat": 11.1649598,
          "lng": 42.5043428
        },
        "keyAccentLanguage": "mouloud"
      },
      {
        "code": 0,
        "type": "City",
        "enNameLanguage": "As Ela",
        "location": {
          "lat": 11.0070842,
          "lng": 42.1049475
        },
        "keyAccentLanguage": "as_ela"
      },
      {
        "code": 0,
        "type": "City",
        "enNameLanguage": "Yoboki",
        "location": {
          "lat": 11.5092056,
          "lng": 42.1041441
        },
        "keyAccentLanguage": "yoboki"
      },
      {
        "code": 0,
        "type": "City",
        "enNameLanguage": "Kouta Bouyya",
        "location": {
          "lat": 11.0160279,
          "lng": 41.9772931
        },
        "keyAccentLanguage": "kouta_bouyya"
      },
      {
        "code": 0,
        "type": "City",
        "enNameLanguage": "Daoudayya",
        "location": {
          "lat": 11.1054336,
          "lng": 42.3704744
        },
        "keyAccentLanguage": "daoudayya"
      },
      {
        "code": 0,
        "type": "City",
        "enNameLanguage": "Tew`o",
        "location": {
          "lat": 11.4345145,
          "lng": 42.0571515
        },
        "keyAccentLanguage": "tew`o"
      },
      {
        "code": 0,
        "type": "City",
        "enNameLanguage": "Iskikkoma",
        "location": {
          "lat": 11.1054336,
          "lng": 42.3704744
        },
        "keyAccentLanguage": "iskikkoma"
      }
    ],
    "enNameLanguage": "Dikhil",
    "keyAccentLanguage": "dikhil"
  },
  {
    "code": 0,
    "type": "State",
    "location": {
      "lat": 11.825138,
      "lng": 42.590275
    },
    "districtList": [
      {
        "code": 0,
        "type": "City",
        "enNameLanguage": "Djibouti",
        "location": {
          "lat": 11.825138,
          "lng": 42.590275
        },
        "keyAccentLanguage": "djibouti"
      },
      {
        "code": 0,
        "type": "City",
        "enNameLanguage": "La Plaine",
        "location": {
          "lat": 11.825138,
          "lng": 42.590275
        },
        "keyAccentLanguage": "la_plaine"
      },
      {
        "code": 0,
        "type": "City",
        "enNameLanguage": "Ambouli",
        "location": {
          "lat": 11.5588749,
          "lng": 43.1463588
        },
        "keyAccentLanguage": "ambouli"
      },
      {
        "code": 0,
        "type": "City",
        "enNameLanguage": "Boulaws",
        "location": {
          "lat": 11.825138,
          "lng": 42.590275
        },
        "keyAccentLanguage": "boulaws"
      },
      {
        "code": 0,
        "type": "City",
        "enNameLanguage": "Dorale",
        "location": {
          "lat": 11.5830556,
          "lng": 43.0663889
        },
        "keyAccentLanguage": "dorale"
      }
    ],
    "enNameLanguage": "Djibouti",
    "keyAccentLanguage": "djibouti"
  },
  {
    "code": 0,
    "type": "State",
    "location": {
      "lat": 11.9647465,
      "lng": 43.2884071
    },
    "districtList": [
      {
        "code": 0,
        "type": "City",
        "enNameLanguage": "Obock",
        "location": {
          "lat": 11.9647465,
          "lng": 43.2884071
        },
        "keyAccentLanguage": "obock"
      },
      {
        "code": 0,
        "type": "City",
        "enNameLanguage": "Khor Angar",
        "location": {
          "lat": 12.3873234,
          "lng": 43.3347636
        },
        "keyAccentLanguage": "khor_angar"
      },
      {
        "code": 0,
        "type": "City",
        "enNameLanguage": "Khor `Angar",
        "location": {
          "lat": 12.3873234,
          "lng": 43.3347636
        },
        "keyAccentLanguage": "khor_`angar"
      },
      {
        "code": 0,
        "type": "City",
        "enNameLanguage": "Daddato",
        "location": {
          "lat": 12.3750341,
          "lng": 42.7117216
        },
        "keyAccentLanguage": "daddato"
      },
      {
        "code": 0,
        "type": "City",
        "enNameLanguage": "Fagal",
        "location": {
          "lat": 12.451106,
          "lng": 43.30219899999999
        },
        "keyAccentLanguage": "fagal"
      },
      {
        "code": 0,
        "type": "City",
        "enNameLanguage": "La`assa",
        "location": {
          "lat": 12.3641667,
          "lng": 43.1438889
        },
        "keyAccentLanguage": "la`assa"
      },
      {
        "code": 0,
        "type": "City",
        "enNameLanguage": "Medeho",
        "location": {
          "lat": 12.3895691,
          "lng": 43.0194897
        },
        "keyAccentLanguage": "medeho"
      },
      {
        "code": 0,
        "type": "City",
        "enNameLanguage": "Alaili Dadda`",
        "location": {
          "lat": 12.4073995,
          "lng": 42.9002878
        },
        "keyAccentLanguage": "alaili_dadda`"
      },
      {
        "code": 0,
        "type": "City",
        "enNameLanguage": "Moulhoule",
        "location": {
          "lat": 12.5897586,
          "lng": 43.194958
        },
        "keyAccentLanguage": "moulhoule"
      },
      {
        "code": 0,
        "type": "City",
        "enNameLanguage": "Alaili Dadda",
        "location": {
          "lat": 12.4073995,
          "lng": 42.9002878
        },
        "keyAccentLanguage": "alaili_dadda"
      },
      {
        "code": 0,
        "type": "City",
        "enNameLanguage": "Gaherre",
        "location": {
          "lat": 12.2858333,
          "lng": 43.3633333
        },
        "keyAccentLanguage": "gaherre"
      },
      {
        "code": 0,
        "type": "City",
        "enNameLanguage": "Sedorre",
        "location": {
          "lat": 12.3895691,
          "lng": 43.0194897
        },
        "keyAccentLanguage": "sedorre"
      },
      {
        "code": 0,
        "type": "City",
        "enNameLanguage": "Sidiha Monghella",
        "location": {
          "lat": 11.9647465,
          "lng": 43.2884071
        },
        "keyAccentLanguage": "sidiha_monghella"
      },
      {
        "code": 0,
        "type": "City",
        "enNameLanguage": "Bissidiro",
        "location": {
          "lat": 12.6428678,
          "lng": 42.9987458
        },
        "keyAccentLanguage": "bissidiro"
      },
      {
        "code": 0,
        "type": "City",
        "enNameLanguage": "Godorya",
        "location": {
          "lat": 12.2166667,
          "lng": 43.4
        },
        "keyAccentLanguage": "godorya"
      }
    ],
    "enNameLanguage": "Obock",
    "keyAccentLanguage": "obock"
  },
  {
    "code": 0,
    "type": "State",
    "location": {
      "lat": 11.7913106,
      "lng": 42.87962270000001
    },
    "districtList": [
      {
        "code": 0,
        "type": "City",
        "enNameLanguage": "Balho",
        "location": {
          "lat": 12.0592764,
          "lng": 42.1936866
        },
        "keyAccentLanguage": "balho"
      }
    ],
    "enNameLanguage": "Tadjourah",
    "keyAccentLanguage": "tadjourah"
  }
]