[
  {
    "code": 0,
    "type": "State",
    "location": {
      "lat": 12.1735243,
      "lng": -14.652952
    },
    "districtList": [
      {
        "code": 0,
        "type": "City",
        "enNameLanguage": "Bujeme",
        "location": {
          "lat": 12.1720266,
          "lng": -14.6568929
        },
        "keyAccentLanguage": "bujeme"
      },
      {
        "code": 0,
        "type": "City",
        "enNameLanguage": "Anambe",
        "location": {
          "lat": 12.1720266,
          "lng": -14.6568929
        },
        "keyAccentLanguage": "anambe"
      },
      {
        "code": 0,
        "type": "City",
        "enNameLanguage": "Aguira",
        "location": {
          "lat": 12.1720266,
          "lng": -14.6568929
        },
        "keyAccentLanguage": "aguira"
      },
      {
        "code": 0,
        "type": "City",
        "enNameLanguage": "Agua Verde",
        "location": {
          "lat": 12.1720266,
          "lng": -14.6568929
        },
        "keyAccentLanguage": "agua_verde"
      },
      {
        "code": 0,
        "type": "City",
        "enNameLanguage": "Bissamali",
        "location": {
          "lat": 12.1720266,
          "lng": -14.6568929
        },
        "keyAccentLanguage": "bissamali"
      },
      {
        "code": 0,
        "type": "City",
        "enNameLanguage": "Andom",
        "location": {
          "lat": 12.35,
          "lng": -14.7
        },
        "keyAccentLanguage": "andom"
      },
      {
        "code": 0,
        "type": "City",
        "enNameLanguage": "Bambadincazinho",
        "location": {
          "lat": 12.1720266,
          "lng": -14.6568929
        },
        "keyAccentLanguage": "bambadincazinho"
      },
      {
        "code": 0,
        "type": "City",
        "enNameLanguage": "Aldeia",
        "location": {
          "lat": 12.1720266,
          "lng": -14.6568929
        },
        "keyAccentLanguage": "aldeia"
      },
      {
        "code": 0,
        "type": "City",
        "enNameLanguage": "Benate",
        "location": {
          "lat": 12.1720266,
          "lng": -14.6568929
        },
        "keyAccentLanguage": "benate"
      },
      {
        "code": 0,
        "type": "City",
        "enNameLanguage": "Alimo",
        "location": {
          "lat": 12.116667,
          "lng": -14.583333
        },
        "keyAccentLanguage": "alimo"
      },
      {
        "code": 0,
        "type": "City",
        "enNameLanguage": "Biro",
        "location": {
          "lat": 12.1720266,
          "lng": -14.6568929
        },
        "keyAccentLanguage": "biro"
      },
      {
        "code": 0,
        "type": "City",
        "enNameLanguage": "Bancolene",
        "location": {
          "lat": 12.435894,
          "lng": -14.583316
        },
        "keyAccentLanguage": "bancolene"
      },
      {
        "code": 0,
        "type": "City",
        "enNameLanguage": "Bissaque",
        "location": {
          "lat": 12.1720266,
          "lng": -14.6568929
        },
        "keyAccentLanguage": "bissaque"
      },
      {
        "code": 0,
        "type": "City",
        "enNameLanguage": "Cahone",
        "location": {
          "lat": 12.1720266,
          "lng": -14.6568929
        },
        "keyAccentLanguage": "cahone"
      },
      {
        "code": 0,
        "type": "City",
        "enNameLanguage": "Belel",
        "location": {
          "lat": 12.1720266,
          "lng": -14.6568929
        },
        "keyAccentLanguage": "belel"
      },
      {
        "code": 0,
        "type": "City",
        "enNameLanguage": "Bacar Leli",
        "location": {
          "lat": 11.883333,
          "lng": -14.583333
        },
        "keyAccentLanguage": "bacar_leli"
      },
      {
        "code": 0,
        "type": "City",
        "enNameLanguage": "Bora",
        "location": {
          "lat": 12.1720266,
          "lng": -14.6568929
        },
        "keyAccentLanguage": "bora"
      },
      {
        "code": 0,
        "type": "City",
        "enNameLanguage": "Belal Umaro",
        "location": {
          "lat": 11.933333,
          "lng": -14.833333
        },
        "keyAccentLanguage": "belal_umaro"
      },
      {
        "code": 0,
        "type": "City",
        "enNameLanguage": "Bagadaje",
        "location": {
          "lat": 12.1720266,
          "lng": -14.6568929
        },
        "keyAccentLanguage": "bagadaje"
      },
      {
        "code": 0,
        "type": "City",
        "enNameLanguage": "Bafata",
        "location": {
          "lat": 12.1720266,
          "lng": -14.6568929
        },
        "keyAccentLanguage": "bafata"
      },
      {
        "code": 0,
        "type": "City",
        "enNameLanguage": "Bantael",
        "location": {
          "lat": 12.1720266,
          "lng": -14.6568929
        },
        "keyAccentLanguage": "bantael"
      },
      {
        "code": 0,
        "type": "City",
        "enNameLanguage": "Bide",
        "location": {
          "lat": 12.1720266,
          "lng": -14.6568929
        },
        "keyAccentLanguage": "bide"
      },
      {
        "code": 0,
        "type": "City",
        "enNameLanguage": "Biana",
        "location": {
          "lat": 12.1720266,
          "lng": -14.6568929
        },
        "keyAccentLanguage": "biana"
      },
      {
        "code": 0,
        "type": "City",
        "enNameLanguage": "Badumbo",
        "location": {
          "lat": 12.1720266,
          "lng": -14.6568929
        },
        "keyAccentLanguage": "badumbo"
      },
      {
        "code": 0,
        "type": "City",
        "enNameLanguage": "Bonjendem",
        "location": {
          "lat": 12.1720266,
          "lng": -14.6568929
        },
        "keyAccentLanguage": "bonjendem"
      },
      {
        "code": 0,
        "type": "City",
        "enNameLanguage": "Buro Sincha",
        "location": {
          "lat": 12.1720266,
          "lng": -14.6568929
        },
        "keyAccentLanguage": "buro_sincha"
      },
      {
        "code": 0,
        "type": "City",
        "enNameLanguage": "Anambe Balanta",
        "location": {
          "lat": 12.1069,
          "lng": -14.83124
        },
        "keyAccentLanguage": "anambe_balanta"
      },
      {
        "code": 0,
        "type": "City",
        "enNameLanguage": "Bairro Joli",
        "location": {
          "lat": 12.1720266,
          "lng": -14.6568929
        },
        "keyAccentLanguage": "bairro_joli"
      },
      {
        "code": 0,
        "type": "City",
        "enNameLanguage": "Bagingara",
        "location": {
          "lat": 12.1720266,
          "lng": -14.6568929
        },
        "keyAccentLanguage": "bagingara"
      },
      {
        "code": 0,
        "type": "City",
        "enNameLanguage": "Aliel",
        "location": {
          "lat": 12.1720266,
          "lng": -14.6568929
        },
        "keyAccentLanguage": "aliel"
      },
      {
        "code": 0,
        "type": "City",
        "enNameLanguage": "Banco",
        "location": {
          "lat": 12.1720266,
          "lng": -14.6568929
        },
        "keyAccentLanguage": "banco"
      },
      {
        "code": 0,
        "type": "City",
        "enNameLanguage": "Belel Gabi",
        "location": {
          "lat": 12.1720266,
          "lng": -14.6568929
        },
        "keyAccentLanguage": "belel_gabi"
      },
      {
        "code": 0,
        "type": "City",
        "enNameLanguage": "Aldeia de Cuor",
        "location": {
          "lat": 12.1720266,
          "lng": -14.6568929
        },
        "keyAccentLanguage": "aldeia_de_cuor"
      },
      {
        "code": 0,
        "type": "City",
        "enNameLanguage": "Camaracunda",
        "location": {
          "lat": 12.1720266,
          "lng": -14.6568929
        },
        "keyAccentLanguage": "camaracunda"
      },
      {
        "code": 0,
        "type": "City",
        "enNameLanguage": "Boido Embalo",
        "location": {
          "lat": 12.1720266,
          "lng": -14.6568929
        },
        "keyAccentLanguage": "boido_embalo"
      },
      {
        "code": 0,
        "type": "City",
        "enNameLanguage": "Bambadinca",
        "location": {
          "lat": 12.0116969,
          "lng": -14.8688126
        },
        "keyAccentLanguage": "bambadinca"
      },
      {
        "code": 0,
        "type": "City",
        "enNameLanguage": "Camancoto",
        "location": {
          "lat": 12.1720266,
          "lng": -14.6568929
        },
        "keyAccentLanguage": "camancoto"
      },
      {
        "code": 0,
        "type": "City",
        "enNameLanguage": "Bissau Novo",
        "location": {
          "lat": 12.1720266,
          "lng": -14.6568929
        },
        "keyAccentLanguage": "bissau_novo"
      },
      {
        "code": 0,
        "type": "City",
        "enNameLanguage": "Bani Siraila",
        "location": {
          "lat": 12.1720266,
          "lng": -14.6568929
        },
        "keyAccentLanguage": "bani_siraila"
      },
      {
        "code": 0,
        "type": "City",
        "enNameLanguage": "Dulombi",
        "location": {
          "lat": 11.8671454,
          "lng": -14.50436
        },
        "keyAccentLanguage": "dulombi"
      },
      {
        "code": 0,
        "type": "City",
        "enNameLanguage": "Barquege",
        "location": {
          "lat": 11.766667,
          "lng": -14.65
        },
        "keyAccentLanguage": "barquege"
      },
      {
        "code": 0,
        "type": "City",
        "enNameLanguage": "Bembelo",
        "location": {
          "lat": 12.3,
          "lng": -14.683333
        },
        "keyAccentLanguage": "bembelo"
      },
      {
        "code": 0,
        "type": "City",
        "enNameLanguage": "Bissamal",
        "location": {
          "lat": 12.1720266,
          "lng": -14.6568929
        },
        "keyAccentLanguage": "bissamal"
      },
      {
        "code": 0,
        "type": "City",
        "enNameLanguage": "Bijine",
        "location": {
          "lat": 12.1048442,
          "lng": -14.687936
        },
        "keyAccentLanguage": "bijine"
      },
      {
        "code": 0,
        "type": "City",
        "enNameLanguage": "Ca Ierofim",
        "location": {
          "lat": 12.1720266,
          "lng": -14.6568929
        },
        "keyAccentLanguage": "ca_ierofim"
      },
      {
        "code": 0,
        "type": "City",
        "enNameLanguage": "Cacha Fulbe",
        "location": {
          "lat": 12.1720266,
          "lng": -14.6568929
        },
        "keyAccentLanguage": "cacha_fulbe"
      },
      {
        "code": 0,
        "type": "City",
        "enNameLanguage": "Brincasse",
        "location": {
          "lat": 12.212211,
          "lng": -14.554459
        },
        "keyAccentLanguage": "brincasse"
      },
      {
        "code": 0,
        "type": "City",
        "enNameLanguage": "Banum",
        "location": {
          "lat": 12.1720266,
          "lng": -14.6568929
        },
        "keyAccentLanguage": "banum"
      },
      {
        "code": 0,
        "type": "City",
        "enNameLanguage": "Gamamudo",
        "location": {
          "lat": 12.272479,
          "lng": -14.730768
        },
        "keyAccentLanguage": "gamamudo"
      },
      {
        "code": 0,
        "type": "City",
        "enNameLanguage": "Buruntoni",
        "location": {
          "lat": 11.9,
          "lng": -14.933333
        },
        "keyAccentLanguage": "buruntoni"
      },
      {
        "code": 0,
        "type": "City",
        "enNameLanguage": "Barinha",
        "location": {
          "lat": 12.187447,
          "lng": -14.529395
        },
        "keyAccentLanguage": "barinha"
      },
      {
        "code": 0,
        "type": "City",
        "enNameLanguage": "Bambato",
        "location": {
          "lat": 12.517582,
          "lng": -14.58898
        },
        "keyAccentLanguage": "bambato"
      },
      {
        "code": 0,
        "type": "City",
        "enNameLanguage": "Budangar",
        "location": {
          "lat": 12.266667,
          "lng": -14.75
        },
        "keyAccentLanguage": "budangar"
      },
      {
        "code": 0,
        "type": "City",
        "enNameLanguage": "Canture",
        "location": {
          "lat": 12.0712396,
          "lng": -14.8980058
        },
        "keyAccentLanguage": "canture"
      },
      {
        "code": 0,
        "type": "City",
        "enNameLanguage": "Bantaja Assa",
        "location": {
          "lat": 12.05,
          "lng": -14.833333
        },
        "keyAccentLanguage": "bantaja_assa"
      },
      {
        "code": 0,
        "type": "City",
        "enNameLanguage": "Cambeidare",
        "location": {
          "lat": 12.1720266,
          "lng": -14.6568929
        },
        "keyAccentLanguage": "cambeidare"
      },
      {
        "code": 0,
        "type": "City",
        "enNameLanguage": "Bojabu",
        "location": {
          "lat": 12.1720266,
          "lng": -14.6568929
        },
        "keyAccentLanguage": "bojabu"
      },
      {
        "code": 0,
        "type": "City",
        "enNameLanguage": "Aliu Jai",
        "location": {
          "lat": 12.016667,
          "lng": -14.766667
        },
        "keyAccentLanguage": "aliu_jai"
      },
      {
        "code": 0,
        "type": "City",
        "enNameLanguage": "Camara",
        "location": {
          "lat": 12.1720266,
          "lng": -14.6568929
        },
        "keyAccentLanguage": "camara"
      },
      {
        "code": 0,
        "type": "City",
        "enNameLanguage": "Balinja",
        "location": {
          "lat": 12.283333,
          "lng": -14.616667
        },
        "keyAccentLanguage": "balinja"
      },
      {
        "code": 0,
        "type": "City",
        "enNameLanguage": "Cabele Mandinga",
        "location": {
          "lat": 12.1720266,
          "lng": -14.6568929
        },
        "keyAccentLanguage": "cabele_mandinga"
      },
      {
        "code": 0,
        "type": "City",
        "enNameLanguage": "Bantaja Mandinga",
        "location": {
          "lat": 12.433333,
          "lng": -14.85
        },
        "keyAccentLanguage": "bantaja_mandinga"
      },
      {
        "code": 0,
        "type": "City",
        "enNameLanguage": "Bissilao",
        "location": {
          "lat": 12.1720266,
          "lng": -14.6568929
        },
        "keyAccentLanguage": "bissilao"
      },
      {
        "code": 0,
        "type": "City",
        "enNameLanguage": "Bantaja Cuta",
        "location": {
          "lat": 12.433333,
          "lng": -14.85
        },
        "keyAccentLanguage": "bantaja_cuta"
      },
      {
        "code": 0,
        "type": "City",
        "enNameLanguage": "Ca Iero Sane",
        "location": {
          "lat": 12.1720266,
          "lng": -14.6568929
        },
        "keyAccentLanguage": "ca_iero_sane"
      },
      {
        "code": 0,
        "type": "City",
        "enNameLanguage": "Buntunsum",
        "location": {
          "lat": 12.051612,
          "lng": -14.659118
        },
        "keyAccentLanguage": "buntunsum"
      },
      {
        "code": 0,
        "type": "City",
        "enNameLanguage": "Camadudo",
        "location": {
          "lat": 12.166667,
          "lng": -14.5
        },
        "keyAccentLanguage": "camadudo"
      },
      {
        "code": 0,
        "type": "City",
        "enNameLanguage": "Xime",
        "location": {
          "lat": 11.96213,
          "lng": -14.9349
        },
        "keyAccentLanguage": "xime"
      },
      {
        "code": 0,
        "type": "City",
        "enNameLanguage": "Cambara Boido",
        "location": {
          "lat": 12.1720266,
          "lng": -14.6568929
        },
        "keyAccentLanguage": "cambara_boido"
      },
      {
        "code": 0,
        "type": "City",
        "enNameLanguage": "Chumael",
        "location": {
          "lat": 11.6820187,
          "lng": -14.6500371
        },
        "keyAccentLanguage": "chumael"
      },
      {
        "code": 0,
        "type": "City",
        "enNameLanguage": "Mamaconom",
        "location": {
          "lat": 12.005357,
          "lng": -14.6762738
        },
        "keyAccentLanguage": "mamaconom"
      },
      {
        "code": 0,
        "type": "City",
        "enNameLanguage": "Cambasse",
        "location": {
          "lat": 12.1720266,
          "lng": -14.6568929
        },
        "keyAccentLanguage": "cambasse"
      },
      {
        "code": 0,
        "type": "City",
        "enNameLanguage": "Bure",
        "location": {
          "lat": 12.1720266,
          "lng": -14.6568929
        },
        "keyAccentLanguage": "bure"
      },
      {
        "code": 0,
        "type": "City",
        "enNameLanguage": "Xitole",
        "location": {
          "lat": 11.73342,
          "lng": -14.81541
        },
        "keyAccentLanguage": "xitole"
      },
      {
        "code": 0,
        "type": "City",
        "enNameLanguage": "Bolo",
        "location": {
          "lat": 12.1720266,
          "lng": -14.6568929
        },
        "keyAccentLanguage": "bolo"
      },
      {
        "code": 0,
        "type": "City",
        "enNameLanguage": "Cachanco",
        "location": {
          "lat": 12.1720266,
          "lng": -14.6568929
        },
        "keyAccentLanguage": "cachanco"
      },
      {
        "code": 0,
        "type": "City",
        "enNameLanguage": "Bunancar",
        "location": {
          "lat": 12.1720266,
          "lng": -14.6568929
        },
        "keyAccentLanguage": "bunancar"
      },
      {
        "code": 0,
        "type": "City",
        "enNameLanguage": "Bombocunda",
        "location": {
          "lat": 12.1720266,
          "lng": -14.6568929
        },
        "keyAccentLanguage": "bombocunda"
      },
      {
        "code": 0,
        "type": "City",
        "enNameLanguage": "Bonhama",
        "location": {
          "lat": 12.1720266,
          "lng": -14.6568929
        },
        "keyAccentLanguage": "bonhama"
      },
      {
        "code": 0,
        "type": "City",
        "enNameLanguage": "Cafia",
        "location": {
          "lat": 12.1792339,
          "lng": -14.846108
        },
        "keyAccentLanguage": "cafia"
      },
      {
        "code": 0,
        "type": "City",
        "enNameLanguage": "Bonere",
        "location": {
          "lat": 11.714306,
          "lng": -14.648461
        },
        "keyAccentLanguage": "bonere"
      },
      {
        "code": 0,
        "type": "City",
        "enNameLanguage": "Bojo Fulbe",
        "location": {
          "lat": 12.1720266,
          "lng": -14.6568929
        },
        "keyAccentLanguage": "bojo_fulbe"
      },
      {
        "code": 0,
        "type": "City",
        "enNameLanguage": "Boisanuma",
        "location": {
          "lat": 12.1720266,
          "lng": -14.6568929
        },
        "keyAccentLanguage": "boisanuma"
      },
      {
        "code": 0,
        "type": "City",
        "enNameLanguage": "Bundojide",
        "location": {
          "lat": 12.533333,
          "lng": -14.55
        },
        "keyAccentLanguage": "bundojide"
      },
      {
        "code": 0,
        "type": "City",
        "enNameLanguage": "Cabufara",
        "location": {
          "lat": 12.1720266,
          "lng": -14.6568929
        },
        "keyAccentLanguage": "cabufara"
      },
      {
        "code": 0,
        "type": "City",
        "enNameLanguage": "Bucol",
        "location": {
          "lat": 12.135386,
          "lng": -14.857411
        },
        "keyAccentLanguage": "bucol"
      },
      {
        "code": 0,
        "type": "City",
        "enNameLanguage": "Bude",
        "location": {
          "lat": 12.1720266,
          "lng": -14.6568929
        },
        "keyAccentLanguage": "bude"
      },
      {
        "code": 0,
        "type": "City",
        "enNameLanguage": "Bonco",
        "location": {
          "lat": 12.6052766,
          "lng": -14.7354989
        },
        "keyAccentLanguage": "bonco"
      },
      {
        "code": 0,
        "type": "City",
        "enNameLanguage": "Cambem",
        "location": {
          "lat": 12.1720266,
          "lng": -14.6568929
        },
        "keyAccentLanguage": "cambem"
      },
      {
        "code": 0,
        "type": "City",
        "enNameLanguage": "Cajuto",
        "location": {
          "lat": 12.2347304,
          "lng": -14.6219833
        },
        "keyAccentLanguage": "cajuto"
      },
      {
        "code": 0,
        "type": "City",
        "enNameLanguage": "Cambembe",
        "location": {
          "lat": 12.1720266,
          "lng": -14.6568929
        },
        "keyAccentLanguage": "cambembe"
      },
      {
        "code": 0,
        "type": "City",
        "enNameLanguage": "Camassaba",
        "location": {
          "lat": 12.266667,
          "lng": -14.516667
        },
        "keyAccentLanguage": "camassaba"
      },
      {
        "code": 0,
        "type": "City",
        "enNameLanguage": "Fajonquito",
        "location": {
          "lat": 12.5273761,
          "lng": -14.7506351
        },
        "keyAccentLanguage": "fajonquito"
      },
      {
        "code": 0,
        "type": "City",
        "enNameLanguage": "Galomaro",
        "location": {
          "lat": 11.9545664,
          "lng": -14.6383777
        },
        "keyAccentLanguage": "galomaro"
      },
      {
        "code": 0,
        "type": "City",
        "enNameLanguage": "Camassira",
        "location": {
          "lat": 12.1720266,
          "lng": -14.6568929
        },
        "keyAccentLanguage": "camassira"
      },
      {
        "code": 0,
        "type": "City",
        "enNameLanguage": "Cambara Nhaco",
        "location": {
          "lat": 12.1720266,
          "lng": -14.6568929
        },
        "keyAccentLanguage": "cambara_nhaco"
      },
      {
        "code": 0,
        "type": "City",
        "enNameLanguage": "Sare Bacar",
        "location": {
          "lat": 12.58255,
          "lng": -14.4694186
        },
        "keyAccentLanguage": "sare_bacar"
      },
      {
        "code": 0,
        "type": "City",
        "enNameLanguage": "Cacha Djabe",
        "location": {
          "lat": 12.1720266,
          "lng": -14.6568929
        },
        "keyAccentLanguage": "cacha_djabe"
      },
      {
        "code": 0,
        "type": "City",
        "enNameLanguage": "Geba",
        "location": {
          "lat": 12.1720266,
          "lng": -14.6568929
        },
        "keyAccentLanguage": "geba"
      },
      {
        "code": 0,
        "type": "City",
        "enNameLanguage": "Contuboel",
        "location": {
          "lat": 12.3869507,
          "lng": -14.5721844
        },
        "keyAccentLanguage": "contuboel"
      }
    ],
    "enNameLanguage": "Bafatá",
    "keyAccentLanguage": "bafatá"
  },
  {
    "code": 0,
    "type": "State",
    "location": {
      "lat": 19.1667755,
      "lng": -96.1183152
    },
    "districtList": [
      {
        "code": 0,
        "type": "City",
        "enNameLanguage": "Jal",
        "location": {
          "lat": 20.6595382,
          "lng": -103.3494376
        },
        "keyAccentLanguage": "jal"
      },
      {
        "code": 0,
        "type": "City",
        "enNameLanguage": "Bilma",
        "location": {
          "lat": 18.6930645,
          "lng": 12.9177115
        },
        "keyAccentLanguage": "bilma"
      },
      {
        "code": 0,
        "type": "City",
        "enNameLanguage": "Bissa",
        "location": {
          "lat": 11.8632196,
          "lng": -15.5843227
        },
        "keyAccentLanguage": "bissa"
      },
      {
        "code": 0,
        "type": "City",
        "enNameLanguage": "Capunga",
        "location": {
          "lat": 11.9,
          "lng": -15.7
        },
        "keyAccentLanguage": "capunga"
      },
      {
        "code": 0,
        "type": "City",
        "enNameLanguage": "Bucomil",
        "location": {
          "lat": 11.875006,
          "lng": -15.904839
        },
        "keyAccentLanguage": "bucomil"
      },
      {
        "code": 0,
        "type": "City",
        "enNameLanguage": "Girota",
        "location": {
          "lat": 11.95158,
          "lng": -15.65082
        },
        "keyAccentLanguage": "girota"
      },
      {
        "code": 0,
        "type": "City",
        "enNameLanguage": "Ilonde",
        "location": {
          "lat": 11.89377,
          "lng": -15.7583
        },
        "keyAccentLanguage": "ilonde"
      },
      {
        "code": 0,
        "type": "City",
        "enNameLanguage": "Ponta Alfredo Neves",
        "location": {
          "lat": 11.8814236,
          "lng": -15.6626189
        },
        "keyAccentLanguage": "ponta_alfredo_neves"
      },
      {
        "code": 0,
        "type": "City",
        "enNameLanguage": "Dorce",
        "location": {
          "lat": 11.810994,
          "lng": -15.899111
        },
        "keyAccentLanguage": "dorce"
      },
      {
        "code": 0,
        "type": "City",
        "enNameLanguage": "Bissauzinho",
        "location": {
          "lat": 11.9254318,
          "lng": -15.806875
        },
        "keyAccentLanguage": "bissauzinho"
      },
      {
        "code": 0,
        "type": "City",
        "enNameLanguage": "Cumano",
        "location": {
          "lat": 12.003173,
          "lng": -15.663965
        },
        "keyAccentLanguage": "cumano"
      },
      {
        "code": 0,
        "type": "City",
        "enNameLanguage": "Bissaquil",
        "location": {
          "lat": 11.898984,
          "lng": -15.6483029
        },
        "keyAccentLanguage": "bissaquil"
      },
      {
        "code": 0,
        "type": "City",
        "enNameLanguage": "Bejila",
        "location": {
          "lat": 42.4548309,
          "lng": 18.6551875
        },
        "keyAccentLanguage": "bejila"
      },
      {
        "code": 0,
        "type": "City",
        "enNameLanguage": "Ponta Crato",
        "location": {
          "lat": -7.229957199999999,
          "lng": -39.4122984
        },
        "keyAccentLanguage": "ponta_crato"
      },
      {
        "code": 0,
        "type": "City",
        "enNameLanguage": "Janglar",
        "location": {
          "lat": 11.970661,
          "lng": -15.78195
        },
        "keyAccentLanguage": "janglar"
      },
      {
        "code": 0,
        "type": "City",
        "enNameLanguage": "Ponta California",
        "location": {
          "lat": 36.778261,
          "lng": -119.4179324
        },
        "keyAccentLanguage": "ponta_california"
      },
      {
        "code": 0,
        "type": "City",
        "enNameLanguage": "Imbassina",
        "location": {
          "lat": 11.9323219,
          "lng": -15.619923
        },
        "keyAccentLanguage": "imbassina"
      },
      {
        "code": 0,
        "type": "City",
        "enNameLanguage": "Ondame",
        "location": {
          "lat": 11.7725326,
          "lng": -15.9307252
        },
        "keyAccentLanguage": "ondame"
      },
      {
        "code": 0,
        "type": "City",
        "enNameLanguage": "Pefine",
        "location": {
          "lat": 11.851039,
          "lng": -15.691389
        },
        "keyAccentLanguage": "pefine"
      },
      {
        "code": 0,
        "type": "City",
        "enNameLanguage": "Ponta Cabral",
        "location": {
          "lat": 11.966667,
          "lng": -15.85
        },
        "keyAccentLanguage": "ponta_cabral"
      },
      {
        "code": 0,
        "type": "City",
        "enNameLanguage": "Prabis",
        "location": {
          "lat": 11.7999009,
          "lng": -15.7439194
        },
        "keyAccentLanguage": "prabis"
      },
      {
        "code": 0,
        "type": "City",
        "enNameLanguage": "Petora",
        "location": {
          "lat": 11.935856,
          "lng": -15.71315
        },
        "keyAccentLanguage": "petora"
      },
      {
        "code": 0,
        "type": "City",
        "enNameLanguage": "Safim",
        "location": {
          "lat": 11.9438068,
          "lng": -15.6441852
        },
        "keyAccentLanguage": "safim"
      },
      {
        "code": 0,
        "type": "City",
        "enNameLanguage": "Pinhossenol",
        "location": {
          "lat": 11.933333,
          "lng": -15.8
        },
        "keyAccentLanguage": "pinhossenol"
      },
      {
        "code": 0,
        "type": "City",
        "enNameLanguage": "Ponta Gardete",
        "location": {
          "lat": 11.8276068,
          "lng": -15.6691136
        },
        "keyAccentLanguage": "ponta_gardete"
      },
      {
        "code": 0,
        "type": "City",
        "enNameLanguage": "Quinhamel",
        "location": {
          "lat": 11.8942426,
          "lng": -15.8508054
        },
        "keyAccentLanguage": "quinhamel"
      },
      {
        "code": 0,
        "type": "City",
        "enNameLanguage": "Ponta Boa Esperanca",
        "location": {
          "lat": 12.416667,
          "lng": -15.083333
        },
        "keyAccentLanguage": "ponta_boa_esperanca"
      },
      {
        "code": 0,
        "type": "City",
        "enNameLanguage": "Ome",
        "location": {
          "lat": 11.9568619,
          "lng": -15.785322
        },
        "keyAccentLanguage": "ome"
      },
      {
        "code": 0,
        "type": "City",
        "enNameLanguage": "Ponta Adolfo Ramos",
        "location": {
          "lat": 11.973839,
          "lng": -15.688983
        },
        "keyAccentLanguage": "ponta_adolfo_ramos"
      },
      {
        "code": 0,
        "type": "City",
        "enNameLanguage": "Ensalma",
        "location": {
          "lat": 11.982227,
          "lng": -15.637295
        },
        "keyAccentLanguage": "ensalma"
      },
      {
        "code": 0,
        "type": "City",
        "enNameLanguage": "Cupedo",
        "location": {
          "lat": 11.833,
          "lng": -15.9
        },
        "keyAccentLanguage": "cupedo"
      },
      {
        "code": 0,
        "type": "City",
        "enNameLanguage": "Bunau",
        "location": {
          "lat": 11.817,
          "lng": -15.717
        },
        "keyAccentLanguage": "bunau"
      },
      {
        "code": 0,
        "type": "City",
        "enNameLanguage": "Brene Papel",
        "location": {
          "lat": 11.883,
          "lng": -15.65
        },
        "keyAccentLanguage": "brene_papel"
      },
      {
        "code": 0,
        "type": "City",
        "enNameLanguage": "Petate",
        "location": {
          "lat": 11.8,
          "lng": -15.75
        },
        "keyAccentLanguage": "petate"
      },
      {
        "code": 0,
        "type": "City",
        "enNameLanguage": "Bele",
        "location": {
          "lat": 11.833,
          "lng": -15.767
        },
        "keyAccentLanguage": "bele"
      },
      {
        "code": 0,
        "type": "City",
        "enNameLanguage": "Impele",
        "location": {
          "lat": 11.983,
          "lng": -15.65
        },
        "keyAccentLanguage": "impele"
      },
      {
        "code": 0,
        "type": "City",
        "enNameLanguage": "Blom",
        "location": {
          "lat": 11.783,
          "lng": -15.9
        },
        "keyAccentLanguage": "blom"
      },
      {
        "code": 0,
        "type": "City",
        "enNameLanguage": "Canom",
        "location": {
          "lat": 11.867,
          "lng": -15.65
        },
        "keyAccentLanguage": "canom"
      },
      {
        "code": 0,
        "type": "City",
        "enNameLanguage": "Butafete",
        "location": {
          "lat": 11.833,
          "lng": -15.767
        },
        "keyAccentLanguage": "butafete"
      },
      {
        "code": 0,
        "type": "City",
        "enNameLanguage": "Ponta Joao Carlos",
        "location": {
          "lat": 11.85,
          "lng": -15.75
        },
        "keyAccentLanguage": "ponta_joao_carlos"
      },
      {
        "code": 0,
        "type": "City",
        "enNameLanguage": "Goto",
        "location": {
          "lat": 11.833,
          "lng": -15.767
        },
        "keyAccentLanguage": "goto"
      },
      {
        "code": 0,
        "type": "City",
        "enNameLanguage": "Ponta Rocha",
        "location": {
          "lat": 11.933,
          "lng": -15.65
        },
        "keyAccentLanguage": "ponta_rocha"
      },
      {
        "code": 0,
        "type": "City",
        "enNameLanguage": "Ponta Paixao",
        "location": {
          "lat": 11.85,
          "lng": -15.667
        },
        "keyAccentLanguage": "ponta_paixao"
      },
      {
        "code": 0,
        "type": "City",
        "enNameLanguage": "Brene Mancanha",
        "location": {
          "lat": 11.883,
          "lng": -15.667
        },
        "keyAccentLanguage": "brene_mancanha"
      },
      {
        "code": 0,
        "type": "City",
        "enNameLanguage": "Ponta Sanha",
        "location": {
          "lat": 11.883,
          "lng": -15.683
        },
        "keyAccentLanguage": "ponta_sanha"
      },
      {
        "code": 0,
        "type": "City",
        "enNameLanguage": "Ponta Adelino",
        "location": {
          "lat": 11.883,
          "lng": -15.65
        },
        "keyAccentLanguage": "ponta_adelino"
      },
      {
        "code": 0,
        "type": "City",
        "enNameLanguage": "Ponta da Negado",
        "location": {
          "lat": 11.883,
          "lng": -15.8
        },
        "keyAccentLanguage": "ponta_da_negado"
      },
      {
        "code": 0,
        "type": "City",
        "enNameLanguage": "Com",
        "location": {
          "lat": 11.817,
          "lng": -15.717
        },
        "keyAccentLanguage": "com"
      },
      {
        "code": 0,
        "type": "City",
        "enNameLanguage": "Pandim",
        "location": {
          "lat": 11.883,
          "lng": -15.9
        },
        "keyAccentLanguage": "pandim"
      },
      {
        "code": 0,
        "type": "City",
        "enNameLanguage": "Ponta Jose da Silva",
        "location": {
          "lat": 11.883,
          "lng": -15.717
        },
        "keyAccentLanguage": "ponta_jose_da_silva"
      },
      {
        "code": 0,
        "type": "City",
        "enNameLanguage": "Ponta Isaac",
        "location": {
          "lat": 11.85,
          "lng": -15.817
        },
        "keyAccentLanguage": "ponta_isaac"
      },
      {
        "code": 0,
        "type": "City",
        "enNameLanguage": "Ponta Benjamim Correia",
        "location": {
          "lat": 11.817,
          "lng": -15.717
        },
        "keyAccentLanguage": "ponta_benjamim_correia"
      },
      {
        "code": 0,
        "type": "City",
        "enNameLanguage": "Ponta Augusto Soares",
        "location": {
          "lat": 11.917,
          "lng": -15.733
        },
        "keyAccentLanguage": "ponta_augusto_soares"
      },
      {
        "code": 0,
        "type": "City",
        "enNameLanguage": "Prite",
        "location": {
          "lat": 11.833,
          "lng": -15.767
        },
        "keyAccentLanguage": "prite"
      },
      {
        "code": 0,
        "type": "City",
        "enNameLanguage": "Mua",
        "location": {
          "lat": 11.8,
          "lng": -15.733
        },
        "keyAccentLanguage": "mua"
      },
      {
        "code": 0,
        "type": "City",
        "enNameLanguage": "Ponta Ricardo Soares",
        "location": {
          "lat": 11.9,
          "lng": -15.783
        },
        "keyAccentLanguage": "ponta_ricardo_soares"
      },
      {
        "code": 0,
        "type": "City",
        "enNameLanguage": "Ponta Adriano",
        "location": {
          "lat": 11.967,
          "lng": -15.633
        },
        "keyAccentLanguage": "ponta_adriano"
      },
      {
        "code": 0,
        "type": "City",
        "enNameLanguage": "Insiquil",
        "location": {
          "lat": 11.817,
          "lng": -15.767
        },
        "keyAccentLanguage": "insiquil"
      },
      {
        "code": 0,
        "type": "City",
        "enNameLanguage": "Carango",
        "location": {
          "lat": 11.85,
          "lng": -15.667
        },
        "keyAccentLanguage": "carango"
      },
      {
        "code": 0,
        "type": "City",
        "enNameLanguage": "Pasta",
        "location": {
          "lat": 11.833,
          "lng": -15.767
        },
        "keyAccentLanguage": "pasta"
      },
      {
        "code": 0,
        "type": "City",
        "enNameLanguage": "Buta",
        "location": {
          "lat": 11.833,
          "lng": -15.75
        },
        "keyAccentLanguage": "buta"
      },
      {
        "code": 0,
        "type": "City",
        "enNameLanguage": "Oco",
        "location": {
          "lat": 11.8,
          "lng": -15.7
        },
        "keyAccentLanguage": "oco"
      },
      {
        "code": 0,
        "type": "City",
        "enNameLanguage": "Ponte Movel",
        "location": {
          "lat": 11.983,
          "lng": -15.633
        },
        "keyAccentLanguage": "ponte_movel"
      },
      {
        "code": 0,
        "type": "City",
        "enNameLanguage": "Jogro",
        "location": {
          "lat": 11.85,
          "lng": -15.767
        },
        "keyAccentLanguage": "jogro"
      },
      {
        "code": 0,
        "type": "City",
        "enNameLanguage": "Abigna",
        "location": {
          "lat": 11.883,
          "lng": -15.783
        },
        "keyAccentLanguage": "abigna"
      },
      {
        "code": 0,
        "type": "City",
        "enNameLanguage": "Enchude",
        "location": {
          "lat": 11.883,
          "lng": -15.75
        },
        "keyAccentLanguage": "enchude"
      },
      {
        "code": 0,
        "type": "City",
        "enNameLanguage": "Binar",
        "location": {
          "lat": 11.95,
          "lng": -15.7
        },
        "keyAccentLanguage": "binar"
      },
      {
        "code": 0,
        "type": "City",
        "enNameLanguage": "Plaque",
        "location": {
          "lat": 11.883,
          "lng": -15.65
        },
        "keyAccentLanguage": "plaque"
      },
      {
        "code": 0,
        "type": "City",
        "enNameLanguage": "Ponta Rapaz",
        "location": {
          "lat": 11.883,
          "lng": -15.717
        },
        "keyAccentLanguage": "ponta_rapaz"
      },
      {
        "code": 0,
        "type": "City",
        "enNameLanguage": "Engenegane",
        "location": {
          "lat": 11.95,
          "lng": -15.667
        },
        "keyAccentLanguage": "engenegane"
      },
      {
        "code": 0,
        "type": "City",
        "enNameLanguage": "Blimate",
        "location": {
          "lat": 11.883,
          "lng": -15.733
        },
        "keyAccentLanguage": "blimate"
      },
      {
        "code": 0,
        "type": "City",
        "enNameLanguage": "Cubisseco",
        "location": {
          "lat": 11.833,
          "lng": -15.667
        },
        "keyAccentLanguage": "cubisseco"
      },
      {
        "code": 0,
        "type": "City",
        "enNameLanguage": "Blimblim",
        "location": {
          "lat": 11.783,
          "lng": -15.933
        },
        "keyAccentLanguage": "blimblim"
      },
      {
        "code": 0,
        "type": "City",
        "enNameLanguage": "Gomine",
        "location": {
          "lat": 11.85,
          "lng": -15.717
        },
        "keyAccentLanguage": "gomine"
      },
      {
        "code": 0,
        "type": "City",
        "enNameLanguage": "Ponta Ondi Vieira",
        "location": {
          "lat": 11.9,
          "lng": -15.733
        },
        "keyAccentLanguage": "ponta_ondi_vieira"
      },
      {
        "code": 0,
        "type": "City",
        "enNameLanguage": "Ponta Vermelha",
        "location": {
          "lat": 11.817,
          "lng": -15.833
        },
        "keyAccentLanguage": "ponta_vermelha"
      },
      {
        "code": 0,
        "type": "City",
        "enNameLanguage": "Inticlim",
        "location": {
          "lat": 11.983,
          "lng": -15.667
        },
        "keyAccentLanguage": "inticlim"
      },
      {
        "code": 0,
        "type": "City",
        "enNameLanguage": "Bunglar",
        "location": {
          "lat": 11.8,
          "lng": -15.717
        },
        "keyAccentLanguage": "bunglar"
      },
      {
        "code": 0,
        "type": "City",
        "enNameLanguage": "Ponta Honorio",
        "location": {
          "lat": 11.817,
          "lng": -15.833
        },
        "keyAccentLanguage": "ponta_honorio"
      },
      {
        "code": 0,
        "type": "City",
        "enNameLanguage": "Enterramento",
        "location": {
          "lat": 11.867,
          "lng": -15.65
        },
        "keyAccentLanguage": "enterramento"
      },
      {
        "code": 0,
        "type": "City",
        "enNameLanguage": "Picete",
        "location": {
          "lat": 11.817,
          "lng": -15.717
        },
        "keyAccentLanguage": "picete"
      },
      {
        "code": 0,
        "type": "City",
        "enNameLanguage": "Ponta Joaquim Pereira",
        "location": {
          "lat": 11.817,
          "lng": -15.683
        },
        "keyAccentLanguage": "ponta_joaquim_pereira"
      },
      {
        "code": 0,
        "type": "City",
        "enNameLanguage": "Incumba",
        "location": {
          "lat": 11.8,
          "lng": -15.75
        },
        "keyAccentLanguage": "incumba"
      },
      {
        "code": 0,
        "type": "City",
        "enNameLanguage": "Ponta Corrente",
        "location": {
          "lat": 11.9,
          "lng": -15.783
        },
        "keyAccentLanguage": "ponta_corrente"
      },
      {
        "code": 0,
        "type": "City",
        "enNameLanguage": "Petoro",
        "location": {
          "lat": 11.867,
          "lng": -15.65
        },
        "keyAccentLanguage": "petoro"
      },
      {
        "code": 0,
        "type": "City",
        "enNameLanguage": "Pequeje",
        "location": {
          "lat": 11.85,
          "lng": -15.767
        },
        "keyAccentLanguage": "pequeje"
      },
      {
        "code": 0,
        "type": "City",
        "enNameLanguage": "Betesga",
        "location": {
          "lat": 11.833,
          "lng": -15.75
        },
        "keyAccentLanguage": "betesga"
      },
      {
        "code": 0,
        "type": "City",
        "enNameLanguage": "Gorse",
        "location": {
          "lat": 11.9,
          "lng": -15.85
        },
        "keyAccentLanguage": "gorse"
      },
      {
        "code": 0,
        "type": "City",
        "enNameLanguage": "Branco",
        "location": {
          "lat": 11.8,
          "lng": -15.75
        },
        "keyAccentLanguage": "branco"
      },
      {
        "code": 0,
        "type": "City",
        "enNameLanguage": "Ponta Compito",
        "location": {
          "lat": 11.817,
          "lng": -15.833
        },
        "keyAccentLanguage": "ponta_compito"
      },
      {
        "code": 0,
        "type": "City",
        "enNameLanguage": "Ponta Monte Cristo",
        "location": {
          "lat": 11.95,
          "lng": -15.633
        },
        "keyAccentLanguage": "ponta_monte_cristo"
      },
      {
        "code": 0,
        "type": "City",
        "enNameLanguage": "Gua",
        "location": {
          "lat": 11.9,
          "lng": -15.633
        },
        "keyAccentLanguage": "gua"
      },
      {
        "code": 0,
        "type": "City",
        "enNameLanguage": "Pacaque",
        "location": {
          "lat": 11.817,
          "lng": -15.767
        },
        "keyAccentLanguage": "pacaque"
      },
      {
        "code": 0,
        "type": "City",
        "enNameLanguage": "Ponta Vicente de Mata",
        "location": {
          "lat": 11.933,
          "lng": -15.7
        },
        "keyAccentLanguage": "ponta_vicente_de_mata"
      },
      {
        "code": 0,
        "type": "City",
        "enNameLanguage": "Marim",
        "location": {
          "lat": 11.85,
          "lng": -15.667
        },
        "keyAccentLanguage": "marim"
      },
      {
        "code": 0,
        "type": "City",
        "enNameLanguage": "Ponta Augusto Correia",
        "location": {
          "lat": 11.9,
          "lng": -15.733
        },
        "keyAccentLanguage": "ponta_augusto_correia"
      },
      {
        "code": 0,
        "type": "City",
        "enNameLanguage": "Ponta Piniz",
        "location": {
          "lat": 11.917,
          "lng": -15.683
        },
        "keyAccentLanguage": "ponta_piniz"
      },
      {
        "code": 0,
        "type": "City",
        "enNameLanguage": "Blunde",
        "location": {
          "lat": 11.8,
          "lng": -15.733
        },
        "keyAccentLanguage": "blunde"
      },
      {
        "code": 0,
        "type": "City",
        "enNameLanguage": "Quecene",
        "location": {
          "lat": 11.883,
          "lng": -15.917
        },
        "keyAccentLanguage": "quecene"
      },
      {
        "code": 0,
        "type": "City",
        "enNameLanguage": "Naga",
        "location": {
          "lat": 11.817,
          "lng": -15.683
        },
        "keyAccentLanguage": "naga"
      }
    ],
    "enNameLanguage": "Biombo",
    "keyAccentLanguage": "biombo"
  },
  {
    "code": 0,
    "type": "State",
    "location": {
      "lat": 11.8816553,
      "lng": -15.6177942
    },
    "districtList": [
      {
        "code": 0,
        "type": "City",
        "enNameLanguage": "Quetene",
        "location": {
          "lat": 11.8632196,
          "lng": -15.5843227
        },
        "keyAccentLanguage": "quetene"
      },
      {
        "code": 0,
        "type": "City",
        "enNameLanguage": "Querique",
        "location": {
          "lat": 11.8632196,
          "lng": -15.5843227
        },
        "keyAccentLanguage": "querique"
      },
      {
        "code": 0,
        "type": "City",
        "enNameLanguage": "Cuio",
        "location": {
          "lat": 11.8632196,
          "lng": -15.5843227
        },
        "keyAccentLanguage": "cuio"
      },
      {
        "code": 0,
        "type": "City",
        "enNameLanguage": "Impatemane Papel",
        "location": {
          "lat": 11.8632196,
          "lng": -15.5843227
        },
        "keyAccentLanguage": "impatemane_papel"
      },
      {
        "code": 0,
        "type": "City",
        "enNameLanguage": "Empanja",
        "location": {
          "lat": 11.8632196,
          "lng": -15.5843227
        },
        "keyAccentLanguage": "empanja"
      },
      {
        "code": 0,
        "type": "City",
        "enNameLanguage": "Ponta Gomes",
        "location": {
          "lat": 11.8632196,
          "lng": -15.5843227
        },
        "keyAccentLanguage": "ponta_gomes"
      },
      {
        "code": 0,
        "type": "City",
        "enNameLanguage": "Achada do Burro",
        "location": {
          "lat": 11.8632196,
          "lng": -15.5843227
        },
        "keyAccentLanguage": "achada_do_burro"
      },
      {
        "code": 0,
        "type": "City",
        "enNameLanguage": "Caliquir",
        "location": {
          "lat": 11.8632196,
          "lng": -15.5843227
        },
        "keyAccentLanguage": "caliquir"
      },
      {
        "code": 0,
        "type": "City",
        "enNameLanguage": "Coco",
        "location": {
          "lat": 11.8632196,
          "lng": -15.5843227
        },
        "keyAccentLanguage": "coco"
      },
      {
        "code": 0,
        "type": "City",
        "enNameLanguage": "Bono",
        "location": {
          "lat": 11.8632196,
          "lng": -15.5843227
        },
        "keyAccentLanguage": "bono"
      },
      {
        "code": 0,
        "type": "City",
        "enNameLanguage": "Insa",
        "location": {
          "lat": 11.8632196,
          "lng": -15.5843227
        },
        "keyAccentLanguage": "insa"
      },
      {
        "code": 0,
        "type": "City",
        "enNameLanguage": "Dutebor",
        "location": {
          "lat": 11.8632196,
          "lng": -15.5843227
        },
        "keyAccentLanguage": "dutebor"
      },
      {
        "code": 0,
        "type": "City",
        "enNameLanguage": "Cassina Papel",
        "location": {
          "lat": 11.8632196,
          "lng": -15.5843227
        },
        "keyAccentLanguage": "cassina_papel"
      },
      {
        "code": 0,
        "type": "City",
        "enNameLanguage": "Cassina Mancanha",
        "location": {
          "lat": 11.8632196,
          "lng": -15.5843227
        },
        "keyAccentLanguage": "cassina_mancanha"
      },
      {
        "code": 0,
        "type": "City",
        "enNameLanguage": "Bra",
        "location": {
          "lat": 11.8687948,
          "lng": -15.6251246
        },
        "keyAccentLanguage": "bra"
      },
      {
        "code": 0,
        "type": "City",
        "enNameLanguage": "Penha",
        "location": {
          "lat": 11.8632196,
          "lng": -15.5843227
        },
        "keyAccentLanguage": "penha"
      },
      {
        "code": 0,
        "type": "City",
        "enNameLanguage": "Bissau",
        "location": {
          "lat": 11.8632196,
          "lng": -15.5843227
        },
        "keyAccentLanguage": "bissau"
      },
      {
        "code": 0,
        "type": "City",
        "enNameLanguage": "Crim",
        "location": {
          "lat": 11.8632196,
          "lng": -15.5843227
        },
        "keyAccentLanguage": "crim"
      },
      {
        "code": 0,
        "type": "City",
        "enNameLanguage": "Dutebandim",
        "location": {
          "lat": 11.8632196,
          "lng": -15.5843227
        },
        "keyAccentLanguage": "dutebandim"
      },
      {
        "code": 0,
        "type": "City",
        "enNameLanguage": "Buqueje",
        "location": {
          "lat": 11.8632196,
          "lng": -15.5843227
        },
        "keyAccentLanguage": "buqueje"
      },
      {
        "code": 0,
        "type": "City",
        "enNameLanguage": "Jolo Papel",
        "location": {
          "lat": 11.8632196,
          "lng": -15.5843227
        },
        "keyAccentLanguage": "jolo_papel"
      },
      {
        "code": 0,
        "type": "City",
        "enNameLanguage": "Bambadinca Balanta",
        "location": {
          "lat": 12.0116969,
          "lng": -14.8688126
        },
        "keyAccentLanguage": "bambadinca_balanta"
      },
      {
        "code": 0,
        "type": "City",
        "enNameLanguage": "Jolo Balanta",
        "location": {
          "lat": 11.8632196,
          "lng": -15.5843227
        },
        "keyAccentLanguage": "jolo_balanta"
      },
      {
        "code": 0,
        "type": "City",
        "enNameLanguage": "Campo Antigo",
        "location": {
          "lat": 11.8632196,
          "lng": -15.5843227
        },
        "keyAccentLanguage": "campo_antigo"
      },
      {
        "code": 0,
        "type": "City",
        "enNameLanguage": "Piana",
        "location": {
          "lat": 42.23826469999999,
          "lng": 8.6366351
        },
        "keyAccentLanguage": "piana"
      },
      {
        "code": 0,
        "type": "City",
        "enNameLanguage": "Taquir",
        "location": {
          "lat": 11.8632196,
          "lng": -15.5843227
        },
        "keyAccentLanguage": "taquir"
      },
      {
        "code": 0,
        "type": "City",
        "enNameLanguage": "Pedreira",
        "location": {
          "lat": 11.87468,
          "lng": -15.588109
        },
        "keyAccentLanguage": "pedreira"
      },
      {
        "code": 0,
        "type": "City",
        "enNameLanguage": "Ponta Amorim",
        "location": {
          "lat": 11.8632196,
          "lng": -15.5843227
        },
        "keyAccentLanguage": "ponta_amorim"
      },
      {
        "code": 0,
        "type": "City",
        "enNameLanguage": "Ponta Vasconcelos",
        "location": {
          "lat": 11.8632196,
          "lng": -15.5843227
        },
        "keyAccentLanguage": "ponta_vasconcelos"
      },
      {
        "code": 0,
        "type": "City",
        "enNameLanguage": "Pabijaro",
        "location": {
          "lat": 11.8632196,
          "lng": -15.5843227
        },
        "keyAccentLanguage": "pabijaro"
      },
      {
        "code": 0,
        "type": "City",
        "enNameLanguage": "Bambadinca Mancanha",
        "location": {
          "lat": 11.8632196,
          "lng": -15.5843227
        },
        "keyAccentLanguage": "bambadinca_mancanha"
      },
      {
        "code": 0,
        "type": "City",
        "enNameLanguage": "Querim",
        "location": {
          "lat": 15.717681,
          "lng": 73.7052968
        },
        "keyAccentLanguage": "querim"
      },
      {
        "code": 0,
        "type": "City",
        "enNameLanguage": "Cupelao",
        "location": {
          "lat": 11.8632196,
          "lng": -15.5843227
        },
        "keyAccentLanguage": "cupelao"
      },
      {
        "code": 0,
        "type": "City",
        "enNameLanguage": "Reino de Intim",
        "location": {
          "lat": 11.8632196,
          "lng": -15.5843227
        },
        "keyAccentLanguage": "reino_de_intim"
      },
      {
        "code": 0,
        "type": "City",
        "enNameLanguage": "Nova Co",
        "location": {
          "lat": 11.8632196,
          "lng": -15.5843227
        },
        "keyAccentLanguage": "nova_co"
      },
      {
        "code": 0,
        "type": "City",
        "enNameLanguage": "Cajila",
        "location": {
          "lat": 11.886449,
          "lng": -15.6139869
        },
        "keyAccentLanguage": "cajila"
      },
      {
        "code": 0,
        "type": "City",
        "enNameLanguage": "Ponta Teixeira",
        "location": {
          "lat": 11.8632196,
          "lng": -15.5843227
        },
        "keyAccentLanguage": "ponta_teixeira"
      },
      {
        "code": 0,
        "type": "City",
        "enNameLanguage": "Ponta Bernardo Soares",
        "location": {
          "lat": 11.8632196,
          "lng": -15.5843227
        },
        "keyAccentLanguage": "ponta_bernardo_soares"
      },
      {
        "code": 0,
        "type": "City",
        "enNameLanguage": "Ponta Amancio",
        "location": {
          "lat": 11.8632196,
          "lng": -15.5843227
        },
        "keyAccentLanguage": "ponta_amancio"
      },
      {
        "code": 0,
        "type": "City",
        "enNameLanguage": "Ponta Manuel das Aguas",
        "location": {
          "lat": 11.8632196,
          "lng": -15.5843227
        },
        "keyAccentLanguage": "ponta_manuel_das_aguas"
      },
      {
        "code": 0,
        "type": "City",
        "enNameLanguage": "Ga Beafada",
        "location": {
          "lat": 11.8632196,
          "lng": -15.5843227
        },
        "keyAccentLanguage": "ga_beafada"
      },
      {
        "code": 0,
        "type": "City",
        "enNameLanguage": "Reino de Antula",
        "location": {
          "lat": 11.8969747,
          "lng": -15.5914071
        },
        "keyAccentLanguage": "reino_de_antula"
      },
      {
        "code": 0,
        "type": "City",
        "enNameLanguage": "Ponta Luis Gomes",
        "location": {
          "lat": 11.8632196,
          "lng": -15.5843227
        },
        "keyAccentLanguage": "ponta_luis_gomes"
      },
      {
        "code": 0,
        "type": "City",
        "enNameLanguage": "Ponta Augusto Rosario",
        "location": {
          "lat": 11.8632196,
          "lng": -15.5843227
        },
        "keyAccentLanguage": "ponta_augusto_rosario"
      },
      {
        "code": 0,
        "type": "City",
        "enNameLanguage": "Praca de Bandim",
        "location": {
          "lat": 11.8510814,
          "lng": -15.5958047
        },
        "keyAccentLanguage": "praca_de_bandim"
      },
      {
        "code": 0,
        "type": "City",
        "enNameLanguage": "Ponta Mariano",
        "location": {
          "lat": 11.8807108,
          "lng": -15.620895
        },
        "keyAccentLanguage": "ponta_mariano"
      },
      {
        "code": 0,
        "type": "City",
        "enNameLanguage": "Querunguel Papel",
        "location": {
          "lat": 11.8632196,
          "lng": -15.5843227
        },
        "keyAccentLanguage": "querunguel_papel"
      },
      {
        "code": 0,
        "type": "City",
        "enNameLanguage": "Quelele",
        "location": {
          "lat": 11.8492701,
          "lng": -15.6280569
        },
        "keyAccentLanguage": "quelele"
      },
      {
        "code": 0,
        "type": "City",
        "enNameLanguage": "Impatemane Balanta",
        "location": {
          "lat": 11.8835073,
          "lng": -15.620037
        },
        "keyAccentLanguage": "impatemane_balanta"
      },
      {
        "code": 0,
        "type": "City",
        "enNameLanguage": "Mindara",
        "location": {
          "lat": 11.8572635,
          "lng": -15.5965376
        },
        "keyAccentLanguage": "mindara"
      },
      {
        "code": 0,
        "type": "City",
        "enNameLanguage": "Reino de Bandim",
        "location": {
          "lat": 11.8510814,
          "lng": -15.5958047
        },
        "keyAccentLanguage": "reino_de_bandim"
      },
      {
        "code": 0,
        "type": "City",
        "enNameLanguage": "Contumo",
        "location": {
          "lat": -38.01645269999999,
          "lng": -73.2311031
        },
        "keyAccentLanguage": "contumo"
      },
      {
        "code": 0,
        "type": "City",
        "enNameLanguage": "Querunguel Mancanha",
        "location": {
          "lat": 11.8813926,
          "lng": -15.6280753
        },
        "keyAccentLanguage": "querunguel_mancanha"
      },
      {
        "code": 0,
        "type": "City",
        "enNameLanguage": "Santa Luzia",
        "location": {
          "lat": 11.8711807,
          "lng": -15.5888419
        },
        "keyAccentLanguage": "santa_luzia"
      },
      {
        "code": 0,
        "type": "City",
        "enNameLanguage": "Reino de Bor",
        "location": {
          "lat": 11.85,
          "lng": -15.633
        },
        "keyAccentLanguage": "reino_de_bor"
      }
    ],
    "enNameLanguage": "Bissau",
    "keyAccentLanguage": "bissau"
  },
  {
    "code": 0,
    "type": "State",
    "location": {
      "lat": 11.5770712,
      "lng": -15.4800382
    },
    "districtList": [
      {
        "code": 0,
        "type": "City",
        "enNameLanguage": "Etiogo",
        "location": {
          "lat": 11.5770712,
          "lng": -15.4800382
        },
        "keyAccentLanguage": "etiogo"
      },
      {
        "code": 0,
        "type": "City",
        "enNameLanguage": "Cuchame",
        "location": {
          "lat": 11.5770712,
          "lng": -15.4800382
        },
        "keyAccentLanguage": "cuchame"
      },
      {
        "code": 0,
        "type": "City",
        "enNameLanguage": "Ametite",
        "location": {
          "lat": 11.484534,
          "lng": -15.677127
        },
        "keyAccentLanguage": "ametite"
      },
      {
        "code": 0,
        "type": "City",
        "enNameLanguage": "Abene",
        "location": {
          "lat": 11.166667,
          "lng": -15.966667
        },
        "keyAccentLanguage": "abene"
      },
      {
        "code": 0,
        "type": "City",
        "enNameLanguage": "Ampincha",
        "location": {
          "lat": 11.514154,
          "lng": -16.177507
        },
        "keyAccentLanguage": "ampincha"
      },
      {
        "code": 0,
        "type": "City",
        "enNameLanguage": "Acuno",
        "location": {
          "lat": 11.5770712,
          "lng": -15.4800382
        },
        "keyAccentLanguage": "acuno"
      },
      {
        "code": 0,
        "type": "City",
        "enNameLanguage": "Amboje",
        "location": {
          "lat": 11.508777,
          "lng": -16.179462
        },
        "keyAccentLanguage": "amboje"
      },
      {
        "code": 0,
        "type": "City",
        "enNameLanguage": "Binte",
        "location": {
          "lat": 11.48607,
          "lng": -16.238009
        },
        "keyAccentLanguage": "binte"
      },
      {
        "code": 0,
        "type": "City",
        "enNameLanguage": "Acajiriba",
        "location": {
          "lat": 11.5770712,
          "lng": -15.4800382
        },
        "keyAccentLanguage": "acajiriba"
      },
      {
        "code": 0,
        "type": "City",
        "enNameLanguage": "Acuminca",
        "location": {
          "lat": 11.530936,
          "lng": -16.401103
        },
        "keyAccentLanguage": "acuminca"
      },
      {
        "code": 0,
        "type": "City",
        "enNameLanguage": "Angumpa",
        "location": {
          "lat": 11.5770712,
          "lng": -15.4800382
        },
        "keyAccentLanguage": "angumpa"
      },
      {
        "code": 0,
        "type": "City",
        "enNameLanguage": "Bine",
        "location": {
          "lat": 11.5770712,
          "lng": -15.4800382
        },
        "keyAccentLanguage": "bine"
      },
      {
        "code": 0,
        "type": "City",
        "enNameLanguage": "Anaburu",
        "location": {
          "lat": 11.5770712,
          "lng": -15.4800382
        },
        "keyAccentLanguage": "anaburu"
      },
      {
        "code": 0,
        "type": "City",
        "enNameLanguage": "Bissante",
        "location": {
          "lat": 11.5770712,
          "lng": -15.4800382
        },
        "keyAccentLanguage": "bissante"
      },
      {
        "code": 0,
        "type": "City",
        "enNameLanguage": "Ameta",
        "location": {
          "lat": 11.213781,
          "lng": -15.878366
        },
        "keyAccentLanguage": "ameta"
      },
      {
        "code": 0,
        "type": "City",
        "enNameLanguage": "Bichau",
        "location": {
          "lat": 11.556583,
          "lng": -16.287359
        },
        "keyAccentLanguage": "bichau"
      },
      {
        "code": 0,
        "type": "City",
        "enNameLanguage": "Anane",
        "location": {
          "lat": 11.2585,
          "lng": -16.172717
        },
        "keyAccentLanguage": "anane"
      },
      {
        "code": 0,
        "type": "City",
        "enNameLanguage": "Cabua",
        "location": {
          "lat": 11.5770712,
          "lng": -15.4800382
        },
        "keyAccentLanguage": "cabua"
      },
      {
        "code": 0,
        "type": "City",
        "enNameLanguage": "Areia Branca",
        "location": {
          "lat": -4.952417899999999,
          "lng": -37.1278947
        },
        "keyAccentLanguage": "areia_branca"
      },
      {
        "code": 0,
        "type": "City",
        "enNameLanguage": "Bolama",
        "location": {
          "lat": 11.5770712,
          "lng": -15.4800382
        },
        "keyAccentLanguage": "bolama"
      },
      {
        "code": 0,
        "type": "City",
        "enNameLanguage": "Ancopate",
        "location": {
          "lat": 11.5770712,
          "lng": -15.4800382
        },
        "keyAccentLanguage": "ancopate"
      },
      {
        "code": 0,
        "type": "City",
        "enNameLanguage": "Aniguna",
        "location": {
          "lat": 11.5770712,
          "lng": -15.4800382
        },
        "keyAccentLanguage": "aniguna"
      },
      {
        "code": 0,
        "type": "City",
        "enNameLanguage": "Anga",
        "location": {
          "lat": 11.524286,
          "lng": -15.998184
        },
        "keyAccentLanguage": "anga"
      },
      {
        "code": 0,
        "type": "City",
        "enNameLanguage": "Ancaname",
        "location": {
          "lat": 11.5770712,
          "lng": -15.4800382
        },
        "keyAccentLanguage": "ancaname"
      },
      {
        "code": 0,
        "type": "City",
        "enNameLanguage": "Ancoronho",
        "location": {
          "lat": 11.5770712,
          "lng": -15.4800382
        },
        "keyAccentLanguage": "ancoronho"
      },
      {
        "code": 0,
        "type": "City",
        "enNameLanguage": "Anor",
        "location": {
          "lat": 11.082072,
          "lng": -16.226082
        },
        "keyAccentLanguage": "anor"
      },
      {
        "code": 0,
        "type": "City",
        "enNameLanguage": "Auja",
        "location": {
          "lat": 11.5770712,
          "lng": -15.4800382
        },
        "keyAccentLanguage": "auja"
      },
      {
        "code": 0,
        "type": "City",
        "enNameLanguage": "Ambeno",
        "location": {
          "lat": 11.198342,
          "lng": -15.745696
        },
        "keyAccentLanguage": "ambeno"
      },
      {
        "code": 0,
        "type": "City",
        "enNameLanguage": "Anecuene",
        "location": {
          "lat": 11.170527,
          "lng": -16.0317839
        },
        "keyAccentLanguage": "anecuene"
      },
      {
        "code": 0,
        "type": "City",
        "enNameLanguage": "Ancajibe",
        "location": {
          "lat": 11.5770712,
          "lng": -15.4800382
        },
        "keyAccentLanguage": "ancajibe"
      },
      {
        "code": 0,
        "type": "City",
        "enNameLanguage": "Angojiga",
        "location": {
          "lat": 11.281742,
          "lng": -15.670441
        },
        "keyAccentLanguage": "angojiga"
      },
      {
        "code": 0,
        "type": "City",
        "enNameLanguage": "Ancamona",
        "location": {
          "lat": 11.460011,
          "lng": -16.032888
        },
        "keyAccentLanguage": "ancamona"
      },
      {
        "code": 0,
        "type": "City",
        "enNameLanguage": "Abu",
        "location": {
          "lat": 11.5770712,
          "lng": -15.4800382
        },
        "keyAccentLanguage": "abu"
      },
      {
        "code": 0,
        "type": "City",
        "enNameLanguage": "Acoco",
        "location": {
          "lat": 11.466667,
          "lng": -15.916667
        },
        "keyAccentLanguage": "acoco"
      },
      {
        "code": 0,
        "type": "City",
        "enNameLanguage": "Ancumbo",
        "location": {
          "lat": 11.310287,
          "lng": -16.0902439
        },
        "keyAccentLanguage": "ancumbo"
      },
      {
        "code": 0,
        "type": "City",
        "enNameLanguage": "Ambereno",
        "location": {
          "lat": 11.5770712,
          "lng": -15.4800382
        },
        "keyAccentLanguage": "ambereno"
      },
      {
        "code": 0,
        "type": "City",
        "enNameLanguage": "Bijana",
        "location": {
          "lat": 11.5770712,
          "lng": -15.4800382
        },
        "keyAccentLanguage": "bijana"
      },
      {
        "code": 0,
        "type": "City",
        "enNameLanguage": "Calmancunda",
        "location": {
          "lat": 11.5770712,
          "lng": -15.4800382
        },
        "keyAccentLanguage": "calmancunda"
      },
      {
        "code": 0,
        "type": "City",
        "enNameLanguage": "Ambacana",
        "location": {
          "lat": 11.450073,
          "lng": -15.723588
        },
        "keyAccentLanguage": "ambacana"
      },
      {
        "code": 0,
        "type": "City",
        "enNameLanguage": "Botai",
        "location": {
          "lat": 11.583333,
          "lng": -15.966667
        },
        "keyAccentLanguage": "botai"
      },
      {
        "code": 0,
        "type": "City",
        "enNameLanguage": "Bolama de Baixo",
        "location": {
          "lat": 11.5238808,
          "lng": -15.6144956
        },
        "keyAccentLanguage": "bolama_de_baixo"
      },
      {
        "code": 0,
        "type": "City",
        "enNameLanguage": "Bubaque",
        "location": {
          "lat": 11.3000636,
          "lng": -15.830986
        },
        "keyAccentLanguage": "bubaque"
      },
      {
        "code": 0,
        "type": "City",
        "enNameLanguage": "Anhimango",
        "location": {
          "lat": 11.5770712,
          "lng": -15.4800382
        },
        "keyAccentLanguage": "anhimango"
      },
      {
        "code": 0,
        "type": "City",
        "enNameLanguage": "Bedache",
        "location": {
          "lat": 11.5205559,
          "lng": -16.366191
        },
        "keyAccentLanguage": "bedache"
      },
      {
        "code": 0,
        "type": "City",
        "enNameLanguage": "Equinar",
        "location": {
          "lat": 11.5770712,
          "lng": -15.4800382
        },
        "keyAccentLanguage": "equinar"
      },
      {
        "code": 0,
        "type": "City",
        "enNameLanguage": "Entomane",
        "location": {
          "lat": 11.5770712,
          "lng": -15.4800382
        },
        "keyAccentLanguage": "entomane"
      },
      {
        "code": 0,
        "type": "City",
        "enNameLanguage": "Betelhe",
        "location": {
          "lat": 11.50044,
          "lng": -16.304876
        },
        "keyAccentLanguage": "betelhe"
      },
      {
        "code": 0,
        "type": "City",
        "enNameLanguage": "Ancaninho",
        "location": {
          "lat": 11.5770712,
          "lng": -15.4800382
        },
        "keyAccentLanguage": "ancaninho"
      },
      {
        "code": 0,
        "type": "City",
        "enNameLanguage": "Acubede",
        "location": {
          "lat": 11.498106,
          "lng": -16.293564
        },
        "keyAccentLanguage": "acubede"
      },
      {
        "code": 0,
        "type": "City",
        "enNameLanguage": "Ancopado",
        "location": {
          "lat": 11.041041,
          "lng": -16.144211
        },
        "keyAccentLanguage": "ancopado"
      },
      {
        "code": 0,
        "type": "City",
        "enNameLanguage": "Ambuduco",
        "location": {
          "lat": 11.2483419,
          "lng": -15.729029
        },
        "keyAccentLanguage": "ambuduco"
      },
      {
        "code": 0,
        "type": "City",
        "enNameLanguage": "Angaura",
        "location": {
          "lat": 23.535919,
          "lng": 90.78359259999999
        },
        "keyAccentLanguage": "angaura"
      },
      {
        "code": 0,
        "type": "City",
        "enNameLanguage": "Egara",
        "location": {
          "lat": 11.297086,
          "lng": -16.438584
        },
        "keyAccentLanguage": "egara"
      },
      {
        "code": 0,
        "type": "City",
        "enNameLanguage": "Catende",
        "location": {
          "lat": 11.45,
          "lng": -15.983333
        },
        "keyAccentLanguage": "catende"
      },
      {
        "code": 0,
        "type": "City",
        "enNameLanguage": "Cuiane",
        "location": {
          "lat": 11.483478,
          "lng": -16.012205
        },
        "keyAccentLanguage": "cuiane"
      },
      {
        "code": 0,
        "type": "City",
        "enNameLanguage": "Casseque",
        "location": {
          "lat": 11.5628303,
          "lng": -15.4818694
        },
        "keyAccentLanguage": "casseque"
      },
      {
        "code": 0,
        "type": "City",
        "enNameLanguage": "Angodigo",
        "location": {
          "lat": 11.226546,
          "lng": -16.198704
        },
        "keyAccentLanguage": "angodigo"
      },
      {
        "code": 0,
        "type": "City",
        "enNameLanguage": "Cabuno",
        "location": {
          "lat": 11.23464,
          "lng": -16.2358939
        },
        "keyAccentLanguage": "cabuno"
      },
      {
        "code": 0,
        "type": "City",
        "enNameLanguage": "Angumba",
        "location": {
          "lat": 11.288792,
          "lng": -15.683224
        },
        "keyAccentLanguage": "angumba"
      },
      {
        "code": 0,
        "type": "City",
        "enNameLanguage": "Ancano",
        "location": {
          "lat": 11.461784,
          "lng": -15.659304
        },
        "keyAccentLanguage": "ancano"
      },
      {
        "code": 0,
        "type": "City",
        "enNameLanguage": "Anipoco",
        "location": {
          "lat": 11.576476,
          "lng": -16.282644
        },
        "keyAccentLanguage": "anipoco"
      },
      {
        "code": 0,
        "type": "City",
        "enNameLanguage": "Caboupa Cabral",
        "location": {
          "lat": 11.5733752,
          "lng": -15.5225259
        },
        "keyAccentLanguage": "caboupa_cabral"
      },
      {
        "code": 0,
        "type": "City",
        "enNameLanguage": "Caboupa Mendonca",
        "location": {
          "lat": 11.576409,
          "lng": -15.5111705
        },
        "keyAccentLanguage": "caboupa_mendonca"
      },
      {
        "code": 0,
        "type": "City",
        "enNameLanguage": "Ambiur",
        "location": {
          "lat": 11.5770712,
          "lng": -15.4800382
        },
        "keyAccentLanguage": "ambiur"
      },
      {
        "code": 0,
        "type": "City",
        "enNameLanguage": "Ancalhe",
        "location": {
          "lat": 11.317042,
          "lng": -16.117952
        },
        "keyAccentLanguage": "ancalhe"
      },
      {
        "code": 0,
        "type": "City",
        "enNameLanguage": "Eticoba",
        "location": {
          "lat": 11.357837,
          "lng": -15.864696
        },
        "keyAccentLanguage": "eticoba"
      },
      {
        "code": 0,
        "type": "City",
        "enNameLanguage": "Acanho",
        "location": {
          "lat": 11.161039,
          "lng": -15.928378
        },
        "keyAccentLanguage": "acanho"
      },
      {
        "code": 0,
        "type": "City",
        "enNameLanguage": "Ancaquia",
        "location": {
          "lat": 11.136674,
          "lng": -16.1061039
        },
        "keyAccentLanguage": "ancaquia"
      },
      {
        "code": 0,
        "type": "City",
        "enNameLanguage": "Eticodeba",
        "location": {
          "lat": 11.172812,
          "lng": -15.944739
        },
        "keyAccentLanguage": "eticodeba"
      },
      {
        "code": 0,
        "type": "City",
        "enNameLanguage": "Agongo de Eguba",
        "location": {
          "lat": 11.3510519,
          "lng": -16.0372309
        },
        "keyAccentLanguage": "agongo_de_eguba"
      },
      {
        "code": 0,
        "type": "City",
        "enNameLanguage": "Canema",
        "location": {
          "lat": 11.5582125,
          "lng": -15.5349812
        },
        "keyAccentLanguage": "canema"
      },
      {
        "code": 0,
        "type": "City",
        "enNameLanguage": "Canema Bijago",
        "location": {
          "lat": 11.5582125,
          "lng": -15.5349812
        },
        "keyAccentLanguage": "canema_bijago"
      },
      {
        "code": 0,
        "type": "City",
        "enNameLanguage": "Ambeduco",
        "location": {
          "lat": 11.28684,
          "lng": -16.195765
        },
        "keyAccentLanguage": "ambeduco"
      },
      {
        "code": 0,
        "type": "City",
        "enNameLanguage": "Anchorupe",
        "location": {
          "lat": 11.5770712,
          "lng": -15.4800382
        },
        "keyAccentLanguage": "anchorupe"
      },
      {
        "code": 0,
        "type": "City",
        "enNameLanguage": "Eguba",
        "location": {
          "lat": 11.3510519,
          "lng": -16.0372309
        },
        "keyAccentLanguage": "eguba"
      },
      {
        "code": 0,
        "type": "City",
        "enNameLanguage": "Ancagume",
        "location": {
          "lat": 11.107169,
          "lng": -16.152228
        },
        "keyAccentLanguage": "ancagume"
      },
      {
        "code": 0,
        "type": "City",
        "enNameLanguage": "Etinhoque",
        "location": {
          "lat": 11.0690139,
          "lng": -16.160172
        },
        "keyAccentLanguage": "etinhoque"
      },
      {
        "code": 0,
        "type": "City",
        "enNameLanguage": "Calege",
        "location": {
          "lat": 11.5223995,
          "lng": -15.5816962
        },
        "keyAccentLanguage": "calege"
      },
      {
        "code": 0,
        "type": "City",
        "enNameLanguage": "Chedia",
        "location": {
          "lat": 11.567795,
          "lng": -15.925561
        },
        "keyAccentLanguage": "chedia"
      },
      {
        "code": 0,
        "type": "City",
        "enNameLanguage": "Eguebe",
        "location": {
          "lat": 11.349053,
          "lng": -15.878901
        },
        "keyAccentLanguage": "eguebe"
      },
      {
        "code": 0,
        "type": "City",
        "enNameLanguage": "Eticoga",
        "location": {
          "lat": 11.150102,
          "lng": -16.128466
        },
        "keyAccentLanguage": "eticoga"
      },
      {
        "code": 0,
        "type": "City",
        "enNameLanguage": "Bijante",
        "location": {
          "lat": 11.2848772,
          "lng": -15.8338001
        },
        "keyAccentLanguage": "bijante"
      },
      {
        "code": 0,
        "type": "City",
        "enNameLanguage": "Cassucai",
        "location": {
          "lat": 11.569774,
          "lng": -15.487363
        },
        "keyAccentLanguage": "cassucai"
      },
      {
        "code": 0,
        "type": "City",
        "enNameLanguage": "Bolama Nova",
        "location": {
          "lat": 11.583,
          "lng": -15.483
        },
        "keyAccentLanguage": "bolama_nova"
      },
      {
        "code": 0,
        "type": "City",
        "enNameLanguage": "Ancadona",
        "location": {
          "lat": 11.233,
          "lng": -16.183
        },
        "keyAccentLanguage": "ancadona"
      },
      {
        "code": 0,
        "type": "City",
        "enNameLanguage": "Ancabasse",
        "location": {
          "lat": 11.25,
          "lng": -15.883
        },
        "keyAccentLanguage": "ancabasse"
      },
      {
        "code": 0,
        "type": "City",
        "enNameLanguage": "Arranja a Vida de Cima",
        "location": {
          "lat": 11.55,
          "lng": -15.533
        },
        "keyAccentLanguage": "arranja_a_vida_de_cima"
      },
      {
        "code": 0,
        "type": "City",
        "enNameLanguage": "Casa Nova",
        "location": {
          "lat": 11.583,
          "lng": -15.483
        },
        "keyAccentLanguage": "casa_nova"
      },
      {
        "code": 0,
        "type": "City",
        "enNameLanguage": "Agongo de Coreto",
        "location": {
          "lat": 11.517,
          "lng": -16.383
        },
        "keyAccentLanguage": "agongo_de_coreto"
      },
      {
        "code": 0,
        "type": "City",
        "enNameLanguage": "Ancadaque",
        "location": {
          "lat": 11.467,
          "lng": -15.95
        },
        "keyAccentLanguage": "ancadaque"
      },
      {
        "code": 0,
        "type": "City",
        "enNameLanguage": "Cabanguna",
        "location": {
          "lat": 11.567,
          "lng": -15.95
        },
        "keyAccentLanguage": "cabanguna"
      },
      {
        "code": 0,
        "type": "City",
        "enNameLanguage": "Eboco",
        "location": {
          "lat": 11.25,
          "lng": -15.7
        },
        "keyAccentLanguage": "eboco"
      },
      {
        "code": 0,
        "type": "City",
        "enNameLanguage": "Caminhate",
        "location": {
          "lat": 11.45,
          "lng": -15.917
        },
        "keyAccentLanguage": "caminhate"
      },
      {
        "code": 0,
        "type": "City",
        "enNameLanguage": "Uno",
        "location": {
          "lat": 11.252,
          "lng": -16.174
        },
        "keyAccentLanguage": "uno"
      },
      {
        "code": 0,
        "type": "City",
        "enNameLanguage": "Arranja a Vida de Baixo",
        "location": {
          "lat": 11.55,
          "lng": -15.517
        },
        "keyAccentLanguage": "arranja_a_vida_de_baixo"
      },
      {
        "code": 0,
        "type": "City",
        "enNameLanguage": "Bruce",
        "location": {
          "lat": 11.233,
          "lng": -15.867
        },
        "keyAccentLanguage": "bruce"
      },
      {
        "code": 0,
        "type": "City",
        "enNameLanguage": "Cane",
        "location": {
          "lat": 11.55,
          "lng": -15.583
        },
        "keyAccentLanguage": "cane"
      },
      {
        "code": 0,
        "type": "City",
        "enNameLanguage": "Caboupa Aguiar",
        "location": {
          "lat": 11.583,
          "lng": -15.517
        },
        "keyAccentLanguage": "caboupa_aguiar"
      },
      {
        "code": 0,
        "type": "City",
        "enNameLanguage": "Anonho",
        "location": {
          "lat": 11.233,
          "lng": -16.15
        },
        "keyAccentLanguage": "anonho"
      },
      {
        "code": 0,
        "type": "City",
        "enNameLanguage": "Cabicunda",
        "location": {
          "lat": 11.55,
          "lng": -15.567
        },
        "keyAccentLanguage": "cabicunda"
      }
    ],
    "enNameLanguage": "Bolama",
    "keyAccentLanguage": "bolama"
  },
  {
    "code": 0,
    "type": "State",
    "location": {
      "lat": 12.2732631,
      "lng": -16.1669156
    },
    "districtList": [
      {
        "code": 0,
        "type": "City",
        "enNameLanguage": "Barraca Bambore",
        "location": {
          "lat": 12.446982,
          "lng": -16.202347
        },
        "keyAccentLanguage": "barraca_bambore"
      },
      {
        "code": 0,
        "type": "City",
        "enNameLanguage": "Barraca Tara",
        "location": {
          "lat": 12.2732631,
          "lng": -16.1669156
        },
        "keyAccentLanguage": "barraca_tara"
      },
      {
        "code": 0,
        "type": "City",
        "enNameLanguage": "Canchungo",
        "location": {
          "lat": 12.073469,
          "lng": -16.0346285
        },
        "keyAccentLanguage": "canchungo"
      },
      {
        "code": 0,
        "type": "City",
        "enNameLanguage": "Barraca Sancho",
        "location": {
          "lat": 12.2732631,
          "lng": -16.1669156
        },
        "keyAccentLanguage": "barraca_sancho"
      },
      {
        "code": 0,
        "type": "City",
        "enNameLanguage": "Bassa",
        "location": {
          "lat": 12.2732631,
          "lng": -16.1669156
        },
        "keyAccentLanguage": "bassa"
      },
      {
        "code": 0,
        "type": "City",
        "enNameLanguage": "Amone",
        "location": {
          "lat": 12.355625,
          "lng": -15.947809
        },
        "keyAccentLanguage": "amone"
      },
      {
        "code": 0,
        "type": "City",
        "enNameLanguage": "Badapal",
        "location": {
          "lat": 12.2732631,
          "lng": -16.1669156
        },
        "keyAccentLanguage": "badapal"
      },
      {
        "code": 0,
        "type": "City",
        "enNameLanguage": "Badigue",
        "location": {
          "lat": 12.2732631,
          "lng": -16.1669156
        },
        "keyAccentLanguage": "badigue"
      },
      {
        "code": 0,
        "type": "City",
        "enNameLanguage": "Arame",
        "location": {
          "lat": 12.294893,
          "lng": -16.43206
        },
        "keyAccentLanguage": "arame"
      },
      {
        "code": 0,
        "type": "City",
        "enNameLanguage": "Bachile",
        "location": {
          "lat": 12.177279,
          "lng": -16.054678
        },
        "keyAccentLanguage": "bachile"
      },
      {
        "code": 0,
        "type": "City",
        "enNameLanguage": "Afia",
        "location": {
          "lat": 12.2732631,
          "lng": -16.1669156
        },
        "keyAccentLanguage": "afia"
      },
      {
        "code": 0,
        "type": "City",
        "enNameLanguage": "Bachute",
        "location": {
          "lat": 12.2732631,
          "lng": -16.1669156
        },
        "keyAccentLanguage": "bachute"
      },
      {
        "code": 0,
        "type": "City",
        "enNameLanguage": "Babacha",
        "location": {
          "lat": 12.2732631,
          "lng": -16.1669156
        },
        "keyAccentLanguage": "babacha"
      },
      {
        "code": 0,
        "type": "City",
        "enNameLanguage": "Bachetecor",
        "location": {
          "lat": 12.2732631,
          "lng": -16.1669156
        },
        "keyAccentLanguage": "bachetecor"
      },
      {
        "code": 0,
        "type": "City",
        "enNameLanguage": "Babul",
        "location": {
          "lat": 12.2732631,
          "lng": -16.1669156
        },
        "keyAccentLanguage": "babul"
      },
      {
        "code": 0,
        "type": "City",
        "enNameLanguage": "Bacala",
        "location": {
          "lat": 12.2732631,
          "lng": -16.1669156
        },
        "keyAccentLanguage": "bacala"
      },
      {
        "code": 0,
        "type": "City",
        "enNameLanguage": "Bafundade",
        "location": {
          "lat": 12.12008,
          "lng": -16.181129
        },
        "keyAccentLanguage": "bafundade"
      },
      {
        "code": 0,
        "type": "City",
        "enNameLanguage": "Babol",
        "location": {
          "lat": 12.172737,
          "lng": -16.111172
        },
        "keyAccentLanguage": "babol"
      },
      {
        "code": 0,
        "type": "City",
        "enNameLanguage": "Bague",
        "location": {
          "lat": 12.2732631,
          "lng": -16.1669156
        },
        "keyAccentLanguage": "bague"
      },
      {
        "code": 0,
        "type": "City",
        "enNameLanguage": "Baraka Patata",
        "location": {
          "lat": 12.2732631,
          "lng": -16.1669156
        },
        "keyAccentLanguage": "baraka_patata"
      },
      {
        "code": 0,
        "type": "City",
        "enNameLanguage": "Balil",
        "location": {
          "lat": 12.2732631,
          "lng": -16.1669156
        },
        "keyAccentLanguage": "balil"
      },
      {
        "code": 0,
        "type": "City",
        "enNameLanguage": "Barro Grande",
        "location": {
          "lat": 12.2732631,
          "lng": -16.1669156
        },
        "keyAccentLanguage": "barro_grande"
      },
      {
        "code": 0,
        "type": "City",
        "enNameLanguage": "Babanda",
        "location": {
          "lat": 12.2732631,
          "lng": -16.1669156
        },
        "keyAccentLanguage": "babanda"
      },
      {
        "code": 0,
        "type": "City",
        "enNameLanguage": "Achinde",
        "location": {
          "lat": 12.2732631,
          "lng": -16.1669156
        },
        "keyAccentLanguage": "achinde"
      },
      {
        "code": 0,
        "type": "City",
        "enNameLanguage": "Balombe",
        "location": {
          "lat": 12.2732631,
          "lng": -16.1669156
        },
        "keyAccentLanguage": "balombe"
      },
      {
        "code": 0,
        "type": "City",
        "enNameLanguage": "Abul",
        "location": {
          "lat": 12.2732631,
          "lng": -16.1669156
        },
        "keyAccentLanguage": "abul"
      },
      {
        "code": 0,
        "type": "City",
        "enNameLanguage": "Bajame",
        "location": {
          "lat": 12.217483,
          "lng": -16.110611
        },
        "keyAccentLanguage": "bajame"
      },
      {
        "code": 0,
        "type": "City",
        "enNameLanguage": "Bara",
        "location": {
          "lat": 12.2732631,
          "lng": -16.1669156
        },
        "keyAccentLanguage": "bara"
      },
      {
        "code": 0,
        "type": "City",
        "enNameLanguage": "Bajenje",
        "location": {
          "lat": 12.2732631,
          "lng": -16.1669156
        },
        "keyAccentLanguage": "bajenje"
      },
      {
        "code": 0,
        "type": "City",
        "enNameLanguage": "Apilho",
        "location": {
          "lat": 12.336041,
          "lng": -15.943666
        },
        "keyAccentLanguage": "apilho"
      },
      {
        "code": 0,
        "type": "City",
        "enNameLanguage": "Cacheu",
        "location": {
          "lat": 12.2732631,
          "lng": -16.1669156
        },
        "keyAccentLanguage": "cacheu"
      },
      {
        "code": 0,
        "type": "City",
        "enNameLanguage": "Bame",
        "location": {
          "lat": 12.2732631,
          "lng": -16.1669156
        },
        "keyAccentLanguage": "bame"
      },
      {
        "code": 0,
        "type": "City",
        "enNameLanguage": "Bacar",
        "location": {
          "lat": 12.133773,
          "lng": -15.809849
        },
        "keyAccentLanguage": "bacar"
      },
      {
        "code": 0,
        "type": "City",
        "enNameLanguage": "Bajonga",
        "location": {
          "lat": 12.2732631,
          "lng": -16.1669156
        },
        "keyAccentLanguage": "bajonga"
      },
      {
        "code": 0,
        "type": "City",
        "enNameLanguage": "Bajala",
        "location": {
          "lat": 12.2732631,
          "lng": -16.1669156
        },
        "keyAccentLanguage": "bajala"
      },
      {
        "code": 0,
        "type": "City",
        "enNameLanguage": "Co",
        "location": {
          "lat": 12.2732631,
          "lng": -16.1669156
        },
        "keyAccentLanguage": "co"
      },
      {
        "code": 0,
        "type": "City",
        "enNameLanguage": "Barraca",
        "location": {
          "lat": 12.2732631,
          "lng": -16.1669156
        },
        "keyAccentLanguage": "barraca"
      },
      {
        "code": 0,
        "type": "City",
        "enNameLanguage": "Banou",
        "location": {
          "lat": 12.2732631,
          "lng": -16.1669156
        },
        "keyAccentLanguage": "banou"
      },
      {
        "code": 0,
        "type": "City",
        "enNameLanguage": "Barraca Lugar",
        "location": {
          "lat": 12.433719,
          "lng": -16.16892
        },
        "keyAccentLanguage": "barraca_lugar"
      },
      {
        "code": 0,
        "type": "City",
        "enNameLanguage": "Barrozinho",
        "location": {
          "lat": 12.2732631,
          "lng": -16.1669156
        },
        "keyAccentLanguage": "barrozinho"
      },
      {
        "code": 0,
        "type": "City",
        "enNameLanguage": "Bagongo",
        "location": {
          "lat": 12.2732631,
          "lng": -16.1669156
        },
        "keyAccentLanguage": "bagongo"
      },
      {
        "code": 0,
        "type": "City",
        "enNameLanguage": "Aquincha",
        "location": {
          "lat": 12.4,
          "lng": -15.966667
        },
        "keyAccentLanguage": "aquincha"
      },
      {
        "code": 0,
        "type": "City",
        "enNameLanguage": "Abulzinho",
        "location": {
          "lat": 12.383922,
          "lng": -15.889207
        },
        "keyAccentLanguage": "abulzinho"
      },
      {
        "code": 0,
        "type": "City",
        "enNameLanguage": "Caio",
        "location": {
          "lat": 11.9325807,
          "lng": -16.1977954
        },
        "keyAccentLanguage": "caio"
      },
      {
        "code": 0,
        "type": "City",
        "enNameLanguage": "Apilho Balanta",
        "location": {
          "lat": 12.34237,
          "lng": -15.932591
        },
        "keyAccentLanguage": "apilho_balanta"
      },
      {
        "code": 0,
        "type": "City",
        "enNameLanguage": "Barme",
        "location": {
          "lat": 12.2732631,
          "lng": -16.1669156
        },
        "keyAccentLanguage": "barme"
      },
      {
        "code": 0,
        "type": "City",
        "enNameLanguage": "Bamal",
        "location": {
          "lat": 12.197638,
          "lng": -16.052664
        },
        "keyAccentLanguage": "bamal"
      },
      {
        "code": 0,
        "type": "City",
        "enNameLanguage": "Bachegue",
        "location": {
          "lat": 12.067934,
          "lng": -16.074553
        },
        "keyAccentLanguage": "bachegue"
      },
      {
        "code": 0,
        "type": "City",
        "enNameLanguage": "Baniu Omua",
        "location": {
          "lat": 12.2732631,
          "lng": -16.1669156
        },
        "keyAccentLanguage": "baniu_omua"
      },
      {
        "code": 0,
        "type": "City",
        "enNameLanguage": "Barraca Cana",
        "location": {
          "lat": 12.441402,
          "lng": -16.065931
        },
        "keyAccentLanguage": "barraca_cana"
      },
      {
        "code": 0,
        "type": "City",
        "enNameLanguage": "Varela",
        "location": {
          "lat": 12.2732631,
          "lng": -16.1669156
        },
        "keyAccentLanguage": "varela"
      },
      {
        "code": 0,
        "type": "City",
        "enNameLanguage": "Bagondante",
        "location": {
          "lat": 12.2732631,
          "lng": -16.1669156
        },
        "keyAccentLanguage": "bagondante"
      },
      {
        "code": 0,
        "type": "City",
        "enNameLanguage": "Barro",
        "location": {
          "lat": 12.3889681,
          "lng": -15.6207263
        },
        "keyAccentLanguage": "barro"
      },
      {
        "code": 0,
        "type": "City",
        "enNameLanguage": "Barraca Biro",
        "location": {
          "lat": 12.327178,
          "lng": -15.910356
        },
        "keyAccentLanguage": "barraca_biro"
      },
      {
        "code": 0,
        "type": "City",
        "enNameLanguage": "Bariapende",
        "location": {
          "lat": 12.2732631,
          "lng": -16.1669156
        },
        "keyAccentLanguage": "bariapende"
      },
      {
        "code": 0,
        "type": "City",
        "enNameLanguage": "Afanque",
        "location": {
          "lat": 12.433333,
          "lng": -16.1
        },
        "keyAccentLanguage": "afanque"
      },
      {
        "code": 0,
        "type": "City",
        "enNameLanguage": "Susana",
        "location": {
          "lat": 12.2732631,
          "lng": -16.1669156
        },
        "keyAccentLanguage": "susana"
      },
      {
        "code": 0,
        "type": "City",
        "enNameLanguage": "Antotinha",
        "location": {
          "lat": 12.2789973,
          "lng": -15.790872
        },
        "keyAccentLanguage": "antotinha"
      },
      {
        "code": 0,
        "type": "City",
        "enNameLanguage": "Utama",
        "location": {
          "lat": 12.0635328,
          "lng": -16.2492724
        },
        "keyAccentLanguage": "utama"
      },
      {
        "code": 0,
        "type": "City",
        "enNameLanguage": "Barraca Batata",
        "location": {
          "lat": 12.0551416,
          "lng": -16.0640179
        },
        "keyAccentLanguage": "barraca_batata"
      },
      {
        "code": 0,
        "type": "City",
        "enNameLanguage": "Bangomine",
        "location": {
          "lat": 12.2732631,
          "lng": -16.1669156
        },
        "keyAccentLanguage": "bangomine"
      },
      {
        "code": 0,
        "type": "City",
        "enNameLanguage": "Bada",
        "location": {
          "lat": 12.183333,
          "lng": -15.8
        },
        "keyAccentLanguage": "bada"
      },
      {
        "code": 0,
        "type": "City",
        "enNameLanguage": "Bachile Fanho",
        "location": {
          "lat": 12.283333,
          "lng": -16.033333
        },
        "keyAccentLanguage": "bachile_fanho"
      },
      {
        "code": 0,
        "type": "City",
        "enNameLanguage": "Chanto",
        "location": {
          "lat": 12.08932,
          "lng": -16.168421
        },
        "keyAccentLanguage": "chanto"
      },
      {
        "code": 0,
        "type": "City",
        "enNameLanguage": "Balem",
        "location": {
          "lat": 12.2732631,
          "lng": -16.1669156
        },
        "keyAccentLanguage": "balem"
      },
      {
        "code": 0,
        "type": "City",
        "enNameLanguage": "Badica",
        "location": {
          "lat": 12.07747,
          "lng": -15.80951
        },
        "keyAccentLanguage": "badica"
      },
      {
        "code": 0,
        "type": "City",
        "enNameLanguage": "Antotinhamezinho",
        "location": {
          "lat": 12.2732631,
          "lng": -16.1669156
        },
        "keyAccentLanguage": "antotinhamezinho"
      },
      {
        "code": 0,
        "type": "City",
        "enNameLanguage": "Barraca Poilao",
        "location": {
          "lat": 12.0551416,
          "lng": -16.0640179
        },
        "keyAccentLanguage": "barraca_poilao"
      },
      {
        "code": 0,
        "type": "City",
        "enNameLanguage": "Baguingue",
        "location": {
          "lat": 12.2732631,
          "lng": -16.1669156
        },
        "keyAccentLanguage": "baguingue"
      },
      {
        "code": 0,
        "type": "City",
        "enNameLanguage": "Barraca Mandioca",
        "location": {
          "lat": 12.0551416,
          "lng": -16.0640179
        },
        "keyAccentLanguage": "barraca_mandioca"
      },
      {
        "code": 0,
        "type": "City",
        "enNameLanguage": "Bajuaca",
        "location": {
          "lat": 12.017457,
          "lng": -16.0627609
        },
        "keyAccentLanguage": "bajuaca"
      },
      {
        "code": 0,
        "type": "City",
        "enNameLanguage": "Baguendal",
        "location": {
          "lat": 12.183333,
          "lng": -15.933333
        },
        "keyAccentLanguage": "baguendal"
      },
      {
        "code": 0,
        "type": "City",
        "enNameLanguage": "Balimbom",
        "location": {
          "lat": 12.2732631,
          "lng": -16.1669156
        },
        "keyAccentLanguage": "balimbom"
      },
      {
        "code": 0,
        "type": "City",
        "enNameLanguage": "Bajope",
        "location": {
          "lat": 12.111494,
          "lng": -16.238321
        },
        "keyAccentLanguage": "bajope"
      },
      {
        "code": 0,
        "type": "City",
        "enNameLanguage": "Bajique",
        "location": {
          "lat": 12.08614,
          "lng": -15.838678
        },
        "keyAccentLanguage": "bajique"
      },
      {
        "code": 0,
        "type": "City",
        "enNameLanguage": "Banhinda",
        "location": {
          "lat": 12.235996,
          "lng": -16.035784
        },
        "keyAccentLanguage": "banhinda"
      },
      {
        "code": 0,
        "type": "City",
        "enNameLanguage": "Bula",
        "location": {
          "lat": 12.1062929,
          "lng": -15.7087128
        },
        "keyAccentLanguage": "bula"
      },
      {
        "code": 0,
        "type": "City",
        "enNameLanguage": "Barraca Begoa",
        "location": {
          "lat": 12.445417,
          "lng": -16.12826
        },
        "keyAccentLanguage": "barraca_begoa"
      },
      {
        "code": 0,
        "type": "City",
        "enNameLanguage": "Bachetebacute",
        "location": {
          "lat": 12.2732631,
          "lng": -16.1669156
        },
        "keyAccentLanguage": "bachetebacute"
      },
      {
        "code": 0,
        "type": "City",
        "enNameLanguage": "Injante",
        "location": {
          "lat": 11.766948,
          "lng": -16.051922
        },