[
  {
    "code": 0,
    "type": "State",
    "location": {
      "lat": -34.7694845,
      "lng": -55.7636882
    },
    "districtList": [
      {
        "code": 0,
        "type": "City",
        "enNameLanguage": "Tela",
        "location": {
          "lat": 15.7732601,
          "lng": -87.46535019999999
        },
        "keyAccentLanguage": "tela"
      },
      {
        "code": 0,
        "type": "City",
        "enNameLanguage": "El Eden",
        "location": {
          "lat": 15.683,
          "lng": -87.15
        },
        "keyAccentLanguage": "el_eden"
      },
      {
        "code": 0,
        "type": "City",
        "enNameLanguage": "Coco Pando",
        "location": {
          "lat": 15.75,
          "lng": -86.917
        },
        "keyAccentLanguage": "coco_pando"
      },
      {
        "code": 0,
        "type": "City",
        "enNameLanguage": "El Dulce",
        "location": {
          "lat": 15.75,
          "lng": -86.55
        },
        "keyAccentLanguage": "el_dulce"
      },
      {
        "code": 0,
        "type": "City",
        "enNameLanguage": "El Higueral",
        "location": {
          "lat": 15.717,
          "lng": -87.217
        },
        "keyAccentLanguage": "el_higueral"
      },
      {
        "code": 0,
        "type": "City",
        "enNameLanguage": "Colorado",
        "location": {
          "lat": 15.818,
          "lng": -87.301
        },
        "keyAccentLanguage": "colorado"
      },
      {
        "code": 0,
        "type": "City",
        "enNameLanguage": "Boca del Toro",
        "location": {
          "lat": 15.75,
          "lng": -87.05
        },
        "keyAccentLanguage": "boca_del_toro"
      },
      {
        "code": 0,
        "type": "City",
        "enNameLanguage": "Sambo Creek",
        "location": {
          "lat": 15.78,
          "lng": -86.683
        },
        "keyAccentLanguage": "sambo_creek"
      },
      {
        "code": 0,
        "type": "City",
        "enNameLanguage": "Barra Ulua",
        "location": {
          "lat": 15.917,
          "lng": -87.717
        },
        "keyAccentLanguage": "barra_ulua"
      },
      {
        "code": 0,
        "type": "City",
        "enNameLanguage": "Coloradito",
        "location": {
          "lat": 15.667,
          "lng": -87.317
        },
        "keyAccentLanguage": "coloradito"
      },
      {
        "code": 0,
        "type": "City",
        "enNameLanguage": "Culota",
        "location": {
          "lat": 15.733,
          "lng": -87.567
        },
        "keyAccentLanguage": "culota"
      },
      {
        "code": 0,
        "type": "City",
        "enNameLanguage": "Belaire",
        "location": {
          "lat": 15.717,
          "lng": -86.583
        },
        "keyAccentLanguage": "belaire"
      },
      {
        "code": 0,
        "type": "City",
        "enNameLanguage": "El Jute",
        "location": {
          "lat": 15.683,
          "lng": -87.533
        },
        "keyAccentLanguage": "el_jute"
      },
      {
        "code": 0,
        "type": "City",
        "enNameLanguage": "Corozal",
        "location": {
          "lat": 15.781,
          "lng": -86.718
        },
        "keyAccentLanguage": "corozal"
      },
      {
        "code": 0,
        "type": "City",
        "enNameLanguage": "Carmelina",
        "location": {
          "lat": 15.617,
          "lng": -87.183
        },
        "keyAccentLanguage": "carmelina"
      },
      {
        "code": 0,
        "type": "City",
        "enNameLanguage": "Cantor",
        "location": {
          "lat": 15.667,
          "lng": -86.467
        },
        "keyAccentLanguage": "cantor"
      },
      {
        "code": 0,
        "type": "City",
        "enNameLanguage": "Casa de Alto",
        "location": {
          "lat": 15.633,
          "lng": -87.15
        },
        "keyAccentLanguage": "casa_de_alto"
      },
      {
        "code": 0,
        "type": "City",
        "enNameLanguage": "Agua Blanca",
        "location": {
          "lat": 15.683,
          "lng": -87.633
        },
        "keyAccentLanguage": "agua_blanca"
      },
      {
        "code": 0,
        "type": "City",
        "enNameLanguage": "Campo Elvir",
        "location": {
          "lat": 15.717,
          "lng": -87.467
        },
        "keyAccentLanguage": "campo_elvir"
      },
      {
        "code": 0,
        "type": "City",
        "enNameLanguage": "Boca Cerrada",
        "location": {
          "lat": 15.767,
          "lng": -87.2
        },
        "keyAccentLanguage": "boca_cerrada"
      },
      {
        "code": 0,
        "type": "City",
        "enNameLanguage": "El Coco",
        "location": {
          "lat": 15.55,
          "lng": -87.4
        },
        "keyAccentLanguage": "el_coco"
      },
      {
        "code": 0,
        "type": "City",
        "enNameLanguage": "Agua Tibia",
        "location": {
          "lat": 15.6,
          "lng": -87.167
        },
        "keyAccentLanguage": "agua_tibia"
      },
      {
        "code": 0,
        "type": "City",
        "enNameLanguage": "Atenas de San Cristobal",
        "location": {
          "lat": 15.683,
          "lng": -87.317
        },
        "keyAccentLanguage": "atenas_de_san_cristobal"
      },
      {
        "code": 0,
        "type": "City",
        "enNameLanguage": "Campo Nuevo",
        "location": {
          "lat": 15.733,
          "lng": -87.25
        },
        "keyAccentLanguage": "campo_nuevo"
      },
      {
        "code": 0,
        "type": "City",
        "enNameLanguage": "Kilometro Diecisiete",
        "location": {
          "lat": 15.708,
          "lng": -87.539
        },
        "keyAccentLanguage": "kilometro_diecisiete"
      },
      {
        "code": 0,
        "type": "City",
        "enNameLanguage": "El Guano",
        "location": {
          "lat": 15.683,
          "lng": -87.533
        },
        "keyAccentLanguage": "el_guano"
      },
      {
        "code": 0,
        "type": "City",
        "enNameLanguage": "Cayo del Tigre",
        "location": {
          "lat": 15.717,
          "lng": -87.133
        },
        "keyAccentLanguage": "cayo_del_tigre"
      },
      {
        "code": 0,
        "type": "City",
        "enNameLanguage": "El Cedro",
        "location": {
          "lat": 15.733,
          "lng": -87.417
        },
        "keyAccentLanguage": "el_cedro"
      },
      {
        "code": 0,
        "type": "City",
        "enNameLanguage": "Agua Dulce",
        "location": {
          "lat": 15.783,
          "lng": -86.633
        },
        "keyAccentLanguage": "agua_dulce"
      },
      {
        "code": 0,
        "type": "City",
        "enNameLanguage": "Colombo",
        "location": {
          "lat": 15.667,
          "lng": -87.2
        },
        "keyAccentLanguage": "colombo"
      },
      {
        "code": 0,
        "type": "City",
        "enNameLanguage": "Cangelica",
        "location": {
          "lat": 15.533,
          "lng": -87.433
        },
        "keyAccentLanguage": "cangelica"
      },
      {
        "code": 0,
        "type": "City",
        "enNameLanguage": "Jutiapa",
        "location": {
          "lat": 15.767,
          "lng": -86.517
        },
        "keyAccentLanguage": "jutiapa"
      },
      {
        "code": 0,
        "type": "City",
        "enNameLanguage": "Colindres",
        "location": {
          "lat": 15.633,
          "lng": -87.117
        },
        "keyAccentLanguage": "colindres"
      },
      {
        "code": 0,
        "type": "City",
        "enNameLanguage": "El Olingo",
        "location": {
          "lat": 15.7,
          "lng": -87.317
        },
        "keyAccentLanguage": "el_olingo"
      },
      {
        "code": 0,
        "type": "City",
        "enNameLanguage": "Aguacate Linea",
        "location": {
          "lat": 15.633,
          "lng": -86.433
        },
        "keyAccentLanguage": "aguacate_linea"
      },
      {
        "code": 0,
        "type": "City",
        "enNameLanguage": "El Cacao",
        "location": {
          "lat": 15.783,
          "lng": -86.533
        },
        "keyAccentLanguage": "el_cacao"
      },
      {
        "code": 0,
        "type": "City",
        "enNameLanguage": "Cuerito",
        "location": {
          "lat": 15.5,
          "lng": -87.133
        },
        "keyAccentLanguage": "cuerito"
      },
      {
        "code": 0,
        "type": "City",
        "enNameLanguage": "Tornabe",
        "location": {
          "lat": 15.75,
          "lng": -87.55
        },
        "keyAccentLanguage": "tornabe"
      },
      {
        "code": 0,
        "type": "City",
        "enNameLanguage": "Berlin",
        "location": {
          "lat": 15.6,
          "lng": -86.567
        },
        "keyAccentLanguage": "berlin"
      },
      {
        "code": 0,
        "type": "City",
        "enNameLanguage": "Mezapa",
        "location": {
          "lat": 15.602,
          "lng": -87.66
        },
        "keyAccentLanguage": "mezapa"
      },
      {
        "code": 0,
        "type": "City",
        "enNameLanguage": "Cabo de Hornos",
        "location": {
          "lat": 15.767,
          "lng": -86.817
        },
        "keyAccentLanguage": "cabo_de_hornos"
      },
      {
        "code": 0,
        "type": "City",
        "enNameLanguage": "Salado Barra",
        "location": {
          "lat": 15.75,
          "lng": -87.033
        },
        "keyAccentLanguage": "salado_barra"
      },
      {
        "code": 0,
        "type": "City",
        "enNameLanguage": "California",
        "location": {
          "lat": 15.683,
          "lng": -86.6
        },
        "keyAccentLanguage": "california"
      },
      {
        "code": 0,
        "type": "City",
        "enNameLanguage": "Ceibita Way",
        "location": {
          "lat": 15.75,
          "lng": -87.25
        },
        "keyAccentLanguage": "ceibita_way"
      },
      {
        "code": 0,
        "type": "City",
        "enNameLanguage": "El Junco",
        "location": {
          "lat": 15.717,
          "lng": -87.533
        },
        "keyAccentLanguage": "el_junco"
      },
      {
        "code": 0,
        "type": "City",
        "enNameLanguage": "Piedras Amarillas",
        "location": {
          "lat": 15.683,
          "lng": -86.567
        },
        "keyAccentLanguage": "piedras_amarillas"
      },
      {
        "code": 0,
        "type": "City",
        "enNameLanguage": "El Chorro",
        "location": {
          "lat": 15.65,
          "lng": -86.383
        },
        "keyAccentLanguage": "el_chorro"
      },
      {
        "code": 0,
        "type": "City",
        "enNameLanguage": "Corralitos",
        "location": {
          "lat": 15.683,
          "lng": -86.483
        },
        "keyAccentLanguage": "corralitos"
      },
      {
        "code": 0,
        "type": "City",
        "enNameLanguage": "El Diamante",
        "location": {
          "lat": 15.583,
          "lng": -87.233
        },
        "keyAccentLanguage": "el_diamante"
      },
      {
        "code": 0,
        "type": "City",
        "enNameLanguage": "Bonitillo",
        "location": {
          "lat": 15.7,
          "lng": -86.867
        },
        "keyAccentLanguage": "bonitillo"
      },
      {
        "code": 0,
        "type": "City",
        "enNameLanguage": "Rio Tinto",
        "location": {
          "lat": 15.891,
          "lng": -87.666
        },
        "keyAccentLanguage": "rio_tinto"
      },
      {
        "code": 0,
        "type": "City",
        "enNameLanguage": "Danto Barra",
        "location": {
          "lat": 15.783,
          "lng": -86.85
        },
        "keyAccentLanguage": "danto_barra"
      },
      {
        "code": 0,
        "type": "City",
        "enNameLanguage": "Armenia Bonito",
        "location": {
          "lat": 15.683,
          "lng": -86.867
        },
        "keyAccentLanguage": "armenia_bonito"
      },
      {
        "code": 0,
        "type": "City",
        "enNameLanguage": "Descombros",
        "location": {
          "lat": 15.583,
          "lng": -86.417
        },
        "keyAccentLanguage": "descombros"
      },
      {
        "code": 0,
        "type": "City",
        "enNameLanguage": "El Manchon",
        "location": {
          "lat": 15.567,
          "lng": -87.1
        },
        "keyAccentLanguage": "el_manchon"
      },
      {
        "code": 0,
        "type": "City",
        "enNameLanguage": "Agua Caliente",
        "location": {
          "lat": 15.783,
          "lng": -86.617
        },
        "keyAccentLanguage": "agua_caliente"
      },
      {
        "code": 0,
        "type": "City",
        "enNameLanguage": "Esparta",
        "location": {
          "lat": 15.717,
          "lng": -87.2
        },
        "keyAccentLanguage": "esparta"
      },
      {
        "code": 0,
        "type": "City",
        "enNameLanguage": "Ceiba Grande",
        "location": {
          "lat": 15.783,
          "lng": -86.5
        },
        "keyAccentLanguage": "ceiba_grande"
      },
      {
        "code": 0,
        "type": "City",
        "enNameLanguage": "El Ocote",
        "location": {
          "lat": 15.633,
          "lng": -86.467
        },
        "keyAccentLanguage": "el_ocote"
      },
      {
        "code": 0,
        "type": "City",
        "enNameLanguage": "Colinas",
        "location": {
          "lat": 15.617,
          "lng": -87.15
        },
        "keyAccentLanguage": "colinas"
      },
      {
        "code": 0,
        "type": "City",
        "enNameLanguage": "Agua Buena",
        "location": {
          "lat": 15.683,
          "lng": -87.017
        },
        "keyAccentLanguage": "agua_buena"
      },
      {
        "code": 0,
        "type": "City",
        "enNameLanguage": "Boca Vieja",
        "location": {
          "lat": 15.8,
          "lng": -86.8
        },
        "keyAccentLanguage": "boca_vieja"
      },
      {
        "code": 0,
        "type": "City",
        "enNameLanguage": "Barra de Palo",
        "location": {
          "lat": 15.783,
          "lng": -87.267
        },
        "keyAccentLanguage": "barra_de_palo"
      },
      {
        "code": 0,
        "type": "City",
        "enNameLanguage": "El Peru",
        "location": {
          "lat": 15.783,
          "lng": -86.75
        },
        "keyAccentLanguage": "el_peru"
      },
      {
        "code": 0,
        "type": "City",
        "enNameLanguage": "Yaruca",
        "location": {
          "lat": 15.6,
          "lng": -86.667
        },
        "keyAccentLanguage": "yaruca"
      },
      {
        "code": 0,
        "type": "City",
        "enNameLanguage": "Burgos",
        "location": {
          "lat": 15.75,
          "lng": -86.967
        },
        "keyAccentLanguage": "burgos"
      },
      {
        "code": 0,
        "type": "City",
        "enNameLanguage": "La Ceiba",
        "location": {
          "lat": 15.777,
          "lng": -86.793
        },
        "keyAccentLanguage": "la_ceiba"
      },
      {
        "code": 0,
        "type": "City",
        "enNameLanguage": "La Masica",
        "location": {
          "lat": 15.68,
          "lng": -87.184
        },
        "keyAccentLanguage": "la_masica"
      },
      {
        "code": 0,
        "type": "City",
        "enNameLanguage": "El Retiro",
        "location": {
          "lat": 15.608,
          "lng": -87.369
        },
        "keyAccentLanguage": "el_retiro"
      },
      {
        "code": 0,
        "type": "City",
        "enNameLanguage": "Tomala",
        "location": {
          "lat": 15.683,
          "lng": -86.5
        },
        "keyAccentLanguage": "tomala"
      },
      {
        "code": 0,
        "type": "City",
        "enNameLanguage": "El Higuerito",
        "location": {
          "lat": 15.633,
          "lng": -87.117
        },
        "keyAccentLanguage": "el_higuerito"
      },
      {
        "code": 0,
        "type": "City",
        "enNameLanguage": "Cefalu",
        "location": {
          "lat": 15.7,
          "lng": -86.5
        },
        "keyAccentLanguage": "cefalu"
      },
      {
        "code": 0,
        "type": "City",
        "enNameLanguage": "Chiquito",
        "location": {
          "lat": 15.6,
          "lng": -87.333
        },
        "keyAccentLanguage": "chiquito"
      },
      {
        "code": 0,
        "type": "City",
        "enNameLanguage": "Nueva Armenia",
        "location": {
          "lat": 15.809,
          "lng": -86.5
        },
        "keyAccentLanguage": "nueva_armenia"
      },
      {
        "code": 0,
        "type": "City",
        "enNameLanguage": "El Paraiso",
        "location": {
          "lat": 15.75,
          "lng": -87.65
        },
        "keyAccentLanguage": "el_paraiso"
      },
      {
        "code": 0,
        "type": "City",
        "enNameLanguage": "Danto Arriba",
        "location": {
          "lat": 15.733,
          "lng": -86.85
        },
        "keyAccentLanguage": "danto_arriba"
      },
      {
        "code": 0,
        "type": "City",
        "enNameLanguage": "El Porvenir",
        "location": {
          "lat": 15.75,
          "lng": -86.933
        },
        "keyAccentLanguage": "el_porvenir"
      },
      {
        "code": 0,
        "type": "City",
        "enNameLanguage": "El Portillo",
        "location": {
          "lat": 15.717,
          "lng": -86.583
        },
        "keyAccentLanguage": "el_portillo"
      },
      {
        "code": 0,
        "type": "City",
        "enNameLanguage": "Cabeza de Indio",
        "location": {
          "lat": 15.667,
          "lng": -87.45
        },
        "keyAccentLanguage": "cabeza_de_indio"
      },
      {
        "code": 0,
        "type": "City",
        "enNameLanguage": "Dantillo",
        "location": {
          "lat": 15.783,
          "lng": -86.867
        },
        "keyAccentLanguage": "dantillo"
      },
      {
        "code": 0,
        "type": "City",
        "enNameLanguage": "Coyolitos",
        "location": {
          "lat": 15.617,
          "lng": -86.8
        },
        "keyAccentLanguage": "coyolitos"
      },
      {
        "code": 0,
        "type": "City",
        "enNameLanguage": "Cayo",
        "location": {
          "lat": 15.7,
          "lng": -87.633
        },
        "keyAccentLanguage": "cayo"
      },
      {
        "code": 0,
        "type": "City",
        "enNameLanguage": "El Aguacate",
        "location": {
          "lat": 15.733,
          "lng": -86.583
        },
        "keyAccentLanguage": "el_aguacate"
      },
      {
        "code": 0,
        "type": "City",
        "enNameLanguage": "La Fortuna",
        "location": {
          "lat": 15.7,
          "lng": -87.667
        },
        "keyAccentLanguage": "la_fortuna"
      },
      {
        "code": 0,
        "type": "City",
        "enNameLanguage": "Cuero",
        "location": {
          "lat": 15.75,
          "lng": -87.117
        },
        "keyAccentLanguage": "cuero"
      },
      {
        "code": 0,
        "type": "City",
        "enNameLanguage": "El Zapote",
        "location": {
          "lat": 15.68,
          "lng": -86.534
        },
        "keyAccentLanguage": "el_zapote"
      },
      {
        "code": 0,
        "type": "City",
        "enNameLanguage": "Ilamapa",
        "location": {
          "lat": 15.65,
          "lng": -86.45
        },
        "keyAccentLanguage": "ilamapa"
      },
      {
        "code": 0,
        "type": "City",
        "enNameLanguage": "El Pital",
        "location": {
          "lat": 15.683,
          "lng": -86.783
        },
        "keyAccentLanguage": "el_pital"
      },
      {
        "code": 0,
        "type": "City",
        "enNameLanguage": "El Pino",
        "location": {
          "lat": 15.7,
          "lng": -86.933
        },
        "keyAccentLanguage": "el_pino"
      },
      {
        "code": 0,
        "type": "City",
        "enNameLanguage": "La Union",
        "location": {
          "lat": 15.7,
          "lng": -87.7
        },
        "keyAccentLanguage": "la_union"
      },
      {
        "code": 0,
        "type": "City",
        "enNameLanguage": "Buenos Aires",
        "location": {
          "lat": 15.7,
          "lng": -87.283
        },
        "keyAccentLanguage": "buenos_aires"
      },
      {
        "code": 0,
        "type": "City",
        "enNameLanguage": "San Juan Pueblo",
        "location": {
          "lat": 15.583,
          "lng": -87.233
        },
        "keyAccentLanguage": "san_juan_pueblo"
      },
      {
        "code": 0,
        "type": "City",
        "enNameLanguage": "Colombia",
        "location": {
          "lat": 15.583,
          "lng": -86.783
        },
        "keyAccentLanguage": "colombia"
      },
      {
        "code": 0,
        "type": "City",
        "enNameLanguage": "San Francisco",
        "location": {
          "lat": 15.65,
          "lng": -87.05
        },
        "keyAccentLanguage": "san_francisco"
      },
      {
        "code": 0,
        "type": "City",
        "enNameLanguage": "El Triunfo De La Cruz",
        "location": {
          "lat": 15.767,
          "lng": -87.433
        },
        "keyAccentLanguage": "el_triunfo_de_la_cruz"
      },
      {
        "code": 0,
        "type": "City",
        "enNameLanguage": "Dakota",
        "location": {
          "lat": 15.617,
          "lng": -87.35
        },
        "keyAccentLanguage": "dakota"
      },
      {
        "code": 0,
        "type": "City",
        "enNameLanguage": "Bella Vista",
        "location": {
          "lat": 15.767,
          "lng": -87.2
        },
        "keyAccentLanguage": "bella_vista"
      },
      {
        "code": 0,
        "type": "City",
        "enNameLanguage": "Arizona",
        "location": {
          "lat": 15.633,
          "lng": -87.317
        },
        "keyAccentLanguage": "arizona"
      },
      {
        "code": 0,
        "type": "City",
        "enNameLanguage": "El Corazon",
        "location": {
          "lat": 15.8,
          "lng": -86.617
        },
        "keyAccentLanguage": "el_corazon"
      },
      {
        "code": 0,
        "type": "City",
        "enNameLanguage": "La Union",
        "location": {
          "lat": 15.7,
          "lng": -87.7
        },
        "keyAccentLanguage": "la_union"
      }
    ],
    "enNameLanguage": "Atlántida",
    "keyAccentLanguage": "atlántida"
  },
  {
    "code": 0,
    "type": "State",
    "location": {
      "lat": 13.3198572,
      "lng": -87.1622344
    },
    "districtList": [
      {
        "code": 0,
        "type": "City",
        "enNameLanguage": "Pespire",
        "location": {
          "lat": 13.5963571,
          "lng": -87.3637025
        },
        "keyAccentLanguage": "pespire"
      },
      {
        "code": 0,
        "type": "City",
        "enNameLanguage": "Calaire",
        "location": {
          "lat": 13.319,
          "lng": -87.037
        },
        "keyAccentLanguage": "calaire"
      },
      {
        "code": 0,
        "type": "City",
        "enNameLanguage": "Carrizal",
        "location": {
          "lat": 13.246,
          "lng": -87.178
        },
        "keyAccentLanguage": "carrizal"
      },
      {
        "code": 0,
        "type": "City",
        "enNameLanguage": "Cana Vieja",
        "location": {
          "lat": 13.41,
          "lng": -87.006
        },
        "keyAccentLanguage": "cana_vieja"
      },
      {
        "code": 0,
        "type": "City",
        "enNameLanguage": "Balastera",
        "location": {
          "lat": 13.296,
          "lng": -87.253
        },
        "keyAccentLanguage": "balastera"
      },
      {
        "code": 0,
        "type": "City",
        "enNameLanguage": "Agua Fria",
        "location": {
          "lat": 13.246,
          "lng": -87.047
        },
        "keyAccentLanguage": "agua_fria"
      },
      {
        "code": 0,
        "type": "City",
        "enNameLanguage": "Agua Caliente de Linaca",
        "location": {
          "lat": 13.435,
          "lng": -87.232
        },
        "keyAccentLanguage": "agua_caliente_de_linaca"
      },
      {
        "code": 0,
        "type": "City",
        "enNameLanguage": "Balsamo",
        "location": {
          "lat": 13.667,
          "lng": -87.383
        },
        "keyAccentLanguage": "balsamo"
      },
      {
        "code": 0,
        "type": "City",
        "enNameLanguage": "Agua Podrida",
        "location": {
          "lat": 13.521,
          "lng": -87.124
        },
        "keyAccentLanguage": "agua_podrida"
      },
      {
        "code": 0,
        "type": "City",
        "enNameLanguage": "Apinto",
        "location": {
          "lat": 13.261,
          "lng": -87.023
        },
        "keyAccentLanguage": "apinto"
      },
      {
        "code": 0,
        "type": "City",
        "enNameLanguage": "Cerro Grande",
        "location": {
          "lat": 13.533,
          "lng": -87.317
        },
        "keyAccentLanguage": "cerro_grande"
      },
      {
        "code": 0,
        "type": "City",
        "enNameLanguage": "Calderas",
        "location": {
          "lat": 13.304,
          "lng": -87.062
        },
        "keyAccentLanguage": "calderas"
      },
      {
        "code": 0,
        "type": "City",
        "enNameLanguage": "Camorra",
        "location": {
          "lat": 13.237,
          "lng": -87.193
        },
        "keyAccentLanguage": "camorra"
      },
      {
        "code": 0,
        "type": "City",
        "enNameLanguage": "Cardoncillo",
        "location": {
          "lat": 13.3,
          "lng": -86.883
        },
        "keyAccentLanguage": "cardoncillo"
      },
      {
        "code": 0,
        "type": "City",
        "enNameLanguage": "Arados",
        "location": {
          "lat": 13.55,
          "lng": -86.933
        },
        "keyAccentLanguage": "arados"
      },
      {
        "code": 0,
        "type": "City",
        "enNameLanguage": "Calama",
        "location": {
          "lat": 13.25,
          "lng": -87.217
        },
        "keyAccentLanguage": "calama"
      },
      {
        "code": 0,
        "type": "City",
        "enNameLanguage": "Orocuina",
        "location": {
          "lat": 13.483,
          "lng": -87.1
        },
        "keyAccentLanguage": "orocuina"
      },
      {
        "code": 0,
        "type": "City",
        "enNameLanguage": "Cerro de Casas",
        "location": {
          "lat": 13.451,
          "lng": -87.111
        },
        "keyAccentLanguage": "cerro_de_casas"
      },
      {
        "code": 0,
        "type": "City",
        "enNameLanguage": "Calero",
        "location": {
          "lat": 13.347,
          "lng": -87.231
        },
        "keyAccentLanguage": "calero"
      },
      {
        "code": 0,
        "type": "City",
        "enNameLanguage": "Duyure",
        "location": {
          "lat": 13.633,
          "lng": -86.817
        },
        "keyAccentLanguage": "duyure"
      },
      {
        "code": 0,
        "type": "City",
        "enNameLanguage": "Barcalona",
        "location": {
          "lat": 13.517,
          "lng": -86.883
        },
        "keyAccentLanguage": "barcalona"
      },
      {
        "code": 0,
        "type": "City",
        "enNameLanguage": "Araditos",
        "location": {
          "lat": 13.483,
          "lng": -87.15
        },
        "keyAccentLanguage": "araditos"
      },
      {
        "code": 0,
        "type": "City",
        "enNameLanguage": "Cayanini",
        "location": {
          "lat": 13.356,
          "lng": -87.002
        },
        "keyAccentLanguage": "cayanini"
      },
      {
        "code": 0,
        "type": "City",
        "enNameLanguage": "Cerro Pencos",
        "location": {
          "lat": 13.317,
          "lng": -87.267
        },
        "keyAccentLanguage": "cerro_pencos"
      },
      {
        "code": 0,
        "type": "City",
        "enNameLanguage": "Aguacatal",
        "location": {
          "lat": 13.25,
          "lng": -86.967
        },
        "keyAccentLanguage": "aguacatal"
      },
      {
        "code": 0,
        "type": "City",
        "enNameLanguage": "Apacilagua",
        "location": {
          "lat": 13.478,
          "lng": -87.076
        },
        "keyAccentLanguage": "apacilagua"
      },
      {
        "code": 0,
        "type": "City",
        "enNameLanguage": "Casita",
        "location": {
          "lat": 13.517,
          "lng": -87
        },
        "keyAccentLanguage": "casita"
      },
      {
        "code": 0,
        "type": "City",
        "enNameLanguage": "Agua Agria",
        "location": {
          "lat": 13.416,
          "lng": -87.035
        },
        "keyAccentLanguage": "agua_agria"
      },
      {
        "code": 0,
        "type": "City",
        "enNameLanguage": "Apasupo",
        "location": {
          "lat": 13.65,
          "lng": -86.85
        },
        "keyAccentLanguage": "apasupo"
      },
      {
        "code": 0,
        "type": "City",
        "enNameLanguage": "Cabildo",
        "location": {
          "lat": 13.517,
          "lng": -86.867
        },
        "keyAccentLanguage": "cabildo"
      },
      {
        "code": 0,
        "type": "City",
        "enNameLanguage": "Cerro del Higo",
        "location": {
          "lat": 13.659,
          "lng": -87.435
        },
        "keyAccentLanguage": "cerro_del_higo"
      },
      {
        "code": 0,
        "type": "City",
        "enNameLanguage": "Choluteca",
        "location": {
          "lat": 13.303,
          "lng": -87.194
        },
        "keyAccentLanguage": "choluteca"
      },
      {
        "code": 0,
        "type": "City",
        "enNameLanguage": "Cerro Bonito",
        "location": {
          "lat": 13.517,
          "lng": -87.329
        },
        "keyAccentLanguage": "cerro_bonito"
      },
      {
        "code": 0,
        "type": "City",
        "enNameLanguage": "Bergantin",
        "location": {
          "lat": 13.37,
          "lng": -87.339
        },
        "keyAccentLanguage": "bergantin"
      },
      {
        "code": 0,
        "type": "City",
        "enNameLanguage": "Agua Blanca",
        "location": {
          "lat": 13.467,
          "lng": -87.033
        },
        "keyAccentLanguage": "agua_blanca"
      },
      {
        "code": 0,
        "type": "City",
        "enNameLanguage": "Canas Bravas",
        "location": {
          "lat": 13.425,
          "lng": -87.003
        },
        "keyAccentLanguage": "canas_bravas"
      },
      {
        "code": 0,
        "type": "City",
        "enNameLanguage": "Cacaulito",
        "location": {
          "lat": 13.313,
          "lng": -87.357
        },
        "keyAccentLanguage": "cacaulito"
      },
      {
        "code": 0,
        "type": "City",
        "enNameLanguage": "Cerro San Antonio",
        "location": {
          "lat": 13.633,
          "lng": -87.317
        },
        "keyAccentLanguage": "cerro_san_antonio"
      },
      {
        "code": 0,
        "type": "City",
        "enNameLanguage": "Barrancones",
        "location": {
          "lat": 13.416,
          "lng": -87.303
        },
        "keyAccentLanguage": "barrancones"
      },
      {
        "code": 0,
        "type": "City",
        "enNameLanguage": "Cofradia",
        "location": {
          "lat": 13.411,
          "lng": -87.233
        },
        "keyAccentLanguage": "cofradia"
      },
      {
        "code": 0,
        "type": "City",
        "enNameLanguage": "Cedeno",
        "location": {
          "lat": 13.166,
          "lng": -87.427
        },
        "keyAccentLanguage": "cedeno"
      },
      {
        "code": 0,
        "type": "City",
        "enNameLanguage": "Cacautare",
        "location": {
          "lat": 13.559,
          "lng": -87.368
        },
        "keyAccentLanguage": "cacautare"
      },
      {
        "code": 0,
        "type": "City",
        "enNameLanguage": "Cerro Colorado",
        "location": {
          "lat": 13.2,
          "lng": -86.983
        },
        "keyAccentLanguage": "cerro_colorado"
      },
      {
        "code": 0,
        "type": "City",
        "enNameLanguage": "Chocolate",
        "location": {
          "lat": 13.578,
          "lng": -87.392
        },
        "keyAccentLanguage": "chocolate"
      },
      {
        "code": 0,
        "type": "City",
        "enNameLanguage": "Cerro Quebrado",
        "location": {
          "lat": 13.483,
          "lng": -87.15
        },
        "keyAccentLanguage": "cerro_quebrado"
      },
      {
        "code": 0,
        "type": "City",
        "enNameLanguage": "Cerro Verde",
        "location": {
          "lat": 13.451,
          "lng": -87.224
        },
        "keyAccentLanguage": "cerro_verde"
      },
      {
        "code": 0,
        "type": "City",
        "enNameLanguage": "Colonia Enrique Antonio Arias",
        "location": {
          "lat": 13.373,
          "lng": -87.146
        },
        "keyAccentLanguage": "colonia_enrique_antonio_arias"
      },
      {
        "code": 0,
        "type": "City",
        "enNameLanguage": "Marcovia",
        "location": {
          "lat": 13.283,
          "lng": -87.317
        },
        "keyAccentLanguage": "marcovia"
      },
      {
        "code": 0,
        "type": "City",
        "enNameLanguage": "Namasigue",
        "location": {
          "lat": 13.203,
          "lng": -87.137
        },
        "keyAccentLanguage": "namasigue"
      },
      {
        "code": 0,
        "type": "City",
        "enNameLanguage": "La Joyada",
        "location": {
          "lat": 13.363,
          "lng": -87.287
        },
        "keyAccentLanguage": "la_joyada"
      },
      {
        "code": 0,
        "type": "City",
        "enNameLanguage": "Cooperativa Jose Ines Carranza",
        "location": {
          "lat": 13.217,
          "lng": -87.444
        },
        "keyAccentLanguage": "cooperativa_jose_ines_carranza"
      },
      {
        "code": 0,
        "type": "City",
        "enNameLanguage": "Chaguiton",
        "location": {
          "lat": 13.358,
          "lng": -87.037
        },
        "keyAccentLanguage": "chaguiton"
      },
      {
        "code": 0,
        "type": "City",
        "enNameLanguage": "Caire",
        "location": {
          "lat": 13.417,
          "lng": -86.933
        },
        "keyAccentLanguage": "caire"
      },
      {
        "code": 0,
        "type": "City",
        "enNameLanguage": "Casitas",
        "location": {
          "lat": 13.667,
          "lng": -87.367
        },
        "keyAccentLanguage": "casitas"
      },
      {
        "code": 0,
        "type": "City",
        "enNameLanguage": "Cerco de Piedra",
        "location": {
          "lat": 13.37,
          "lng": -87.059
        },
        "keyAccentLanguage": "cerco_de_piedra"
      },
      {
        "code": 0,
        "type": "City",
        "enNameLanguage": "Bella Vista",
        "location": {
          "lat": 13.624,
          "lng": -87.254
        },
        "keyAccentLanguage": "bella_vista"
      },
      {
        "code": 0,
        "type": "City",
        "enNameLanguage": "Cerro Negro",
        "location": {
          "lat": 13.633,
          "lng": -86.8
        },
        "keyAccentLanguage": "cerro_negro"
      },
      {
        "code": 0,
        "type": "City",
        "enNameLanguage": "Morolica",
        "location": {
          "lat": 13.567,
          "lng": -86.9
        },
        "keyAccentLanguage": "morolica"
      },
      {
        "code": 0,
        "type": "City",
        "enNameLanguage": "Las Cabezas",
        "location": {
          "lat": 13.367,
          "lng": -87.081
        },
        "keyAccentLanguage": "las_cabezas"
      },
      {
        "code": 0,
        "type": "City",
        "enNameLanguage": "Arenillas",
        "location": {
          "lat": 13.472,
          "lng": -87.241
        },
        "keyAccentLanguage": "arenillas"
      },
      {
        "code": 0,
        "type": "City",
        "enNameLanguage": "Carbonal",
        "location": {
          "lat": 13.4,
          "lng": -87.117
        },
        "keyAccentLanguage": "carbonal"
      },
      {
        "code": 0,
        "type": "City",
        "enNameLanguage": "Albania",
        "location": {
          "lat": 13.15,
          "lng": -87.35
        },
        "keyAccentLanguage": "albania"
      },
      {
        "code": 0,
        "type": "City",
        "enNameLanguage": "Condega",
        "location": {
          "lat": 13.618,
          "lng": -87.397
        },
        "keyAccentLanguage": "condega"
      },
      {
        "code": 0,
        "type": "City",
        "enNameLanguage": "Canutillo",
        "location": {
          "lat": 13.316,
          "lng": -87.309
        },
        "keyAccentLanguage": "canutillo"
      },
      {
        "code": 0,
        "type": "City",
        "enNameLanguage": "Santa Ana De Yusguare",
        "location": {
          "lat": 13.3,
          "lng": -87.117
        },
        "keyAccentLanguage": "santa_ana_de_yusguare"
      },
      {
        "code": 0,
        "type": "City",
        "enNameLanguage": "Buenos Aires",
        "location": {
          "lat": 13.741,
          "lng": -87.418
        },
        "keyAccentLanguage": "buenos_aires"
      },
      {
        "code": 0,
        "type": "City",
        "enNameLanguage": "Cienega",
        "location": {
          "lat": 13.443,
          "lng": -87.166
        },
        "keyAccentLanguage": "cienega"
      },
      {
        "code": 0,
        "type": "City",
        "enNameLanguage": "Cayuya",
        "location": {
          "lat": 13.067,
          "lng": -86.983
        },
        "keyAccentLanguage": "cayuya"
      },
      {
        "code": 0,
        "type": "City",
        "enNameLanguage": "Colon",
        "location": {
          "lat": 13.467,
          "lng": -86.8
        },
        "keyAccentLanguage": "colon"
      },
      {
        "code": 0,
        "type": "City",
        "enNameLanguage": "Chilar",
        "location": {
          "lat": 13.55,
          "lng": -86.933
        },
        "keyAccentLanguage": "chilar"
      },
      {
        "code": 0,
        "type": "City",
        "enNameLanguage": "Combali",
        "location": {
          "lat": 13.463,
          "lng": -87.152
        },
        "keyAccentLanguage": "combali"
      },
      {
        "code": 0,
        "type": "City",
        "enNameLanguage": "Agua Tibia",
        "location": {
          "lat": 13.556,
          "lng": -87.312
        },
        "keyAccentLanguage": "agua_tibia"
      },
      {
        "code": 0,
        "type": "City",
        "enNameLanguage": "Monjaras",
        "location": {
          "lat": 13.2,
          "lng": -87.367
        },
        "keyAccentLanguage": "monjaras"
      },
      {
        "code": 0,
        "type": "City",
        "enNameLanguage": "Cacamuya",
        "location": {
          "lat": 13.333,
          "lng": -86.75
        },
        "keyAccentLanguage": "cacamuya"
      },
      {
        "code": 0,
        "type": "City",
        "enNameLanguage": "Comali",
        "location": {
          "lat": 13.4,
          "lng": -86.85
        },
        "keyAccentLanguage": "comali"
      },
      {
        "code": 0,
        "type": "City",
        "enNameLanguage": "Cerco de Piedras",
        "location": {
          "lat": 13.55,
          "lng": -86.9
        },
        "keyAccentLanguage": "cerco_de_piedras"
      },
      {
        "code": 0,
        "type": "City",
        "enNameLanguage": "Colonia Emilio Williams",
        "location": {
          "lat": 13.358,
          "lng": -87.165
        },
        "keyAccentLanguage": "colonia_emilio_williams"
      },
      {
        "code": 0,
        "type": "City",
        "enNameLanguage": "Centro Ermita",
        "location": {
          "lat": 13.517,
          "lng": -87.233
        },
        "keyAccentLanguage": "centro_ermita"
      },
      {
        "code": 0,
        "type": "City",
        "enNameLanguage": "Alianza",
        "location": {
          "lat": 13.483,
          "lng": -87.133
        },
        "keyAccentLanguage": "alianza"
      },
      {
        "code": 0,
        "type": "City",
        "enNameLanguage": "Chamboroto",
        "location": {
          "lat": 13.294,
          "lng": -87.275
        },
        "keyAccentLanguage": "chamboroto"
      },
      {
        "code": 0,
        "type": "City",
        "enNameLanguage": "El Corpus",
        "location": {
          "lat": 13.283,
          "lng": -87.033
        },
        "keyAccentLanguage": "el_corpus"
      },
      {
        "code": 0,
        "type": "City",
        "enNameLanguage": "El Banquito",
        "location": {
          "lat": 13.367,
          "lng": -86.967
        },
        "keyAccentLanguage": "el_banquito"
      },
      {
        "code": 0,
        "type": "City",
        "enNameLanguage": "Colonia Buena Vista",
        "location": {
          "lat": 13.255,
          "lng": -87.392
        },
        "keyAccentLanguage": "colonia_buena_vista"
      },
      {
        "code": 0,
        "type": "City",
        "enNameLanguage": "Chapeton",
        "location": {
          "lat": 13.222,
          "lng": -87.364
        },
        "keyAccentLanguage": "chapeton"
      },
      {
        "code": 0,
        "type": "City",
        "enNameLanguage": "El Triunfo",
        "location": {
          "lat": 13.117,
          "lng": -87
        },
        "keyAccentLanguage": "el_triunfo"
      },
      {
        "code": 0,
        "type": "City",
        "enNameLanguage": "San Marcos De Colon",
        "location": {
          "lat": 13.429,
          "lng": -86.809
        },
        "keyAccentLanguage": "san_marcos_de_colon"
      },
      {
        "code": 0,
        "type": "City",
        "enNameLanguage": "San Antonio De Flores",
        "location": {
          "lat": 13.667,
          "lng": -87.367
        },
        "keyAccentLanguage": "san_antonio_de_flores"
      },
      {
        "code": 0,
        "type": "City",
        "enNameLanguage": "Bajo Grande",
        "location": {
          "lat": 13.533,
          "lng": -87.25
        },
        "keyAccentLanguage": "bajo_grande"
      },
      {
        "code": 0,
        "type": "City",
        "enNameLanguage": "Alto de la Mora",
        "location": {
          "lat": 13.517,
          "lng": -87.017
        },
        "keyAccentLanguage": "alto_de_la_mora"
      },
      {
        "code": 0,
        "type": "City",
        "enNameLanguage": "Chaguite Negro",
        "location": {
          "lat": 13.418,
          "lng": -87.029
        },
        "keyAccentLanguage": "chaguite_negro"
      },
      {
        "code": 0,
        "type": "City",
        "enNameLanguage": "Cerrito Colorado",
        "location": {
          "lat": 13.619,
          "lng": -87.244
        },
        "keyAccentLanguage": "cerrito_colorado"
      },
      {
        "code": 0,
        "type": "City",
        "enNameLanguage": "Arocho",
        "location": {
          "lat": 13.617,
          "lng": -87.267
        },
        "keyAccentLanguage": "arocho"
      },
      {
        "code": 0,
        "type": "City",
        "enNameLanguage": "Buena Vista",
        "location": {
          "lat": 13.357,
          "lng": -87.064
        },
        "keyAccentLanguage": "buena_vista"
      },
      {
        "code": 0,
        "type": "City",
        "enNameLanguage": "Colonia Dieciocho de Noviembre",
        "location": {
          "lat": 13.387,
          "lng": -87.052
        },
        "keyAccentLanguage": "colonia_dieciocho_de_noviembre"
      },
      {
        "code": 0,
        "type": "City",
        "enNameLanguage": "San Isidro",
        "location": {
          "lat": 13.233,
          "lng": -87.067
        },
        "keyAccentLanguage": "san_isidro"
      },
      {
        "code": 0,
        "type": "City",
        "enNameLanguage": "San Jose",
        "location": {
          "lat": 13.687,
          "lng": -87.407
        },
        "keyAccentLanguage": "san_jose"
      },
      {
        "code": 0,
        "type": "City",
        "enNameLanguage": "Caguasca",
        "location": {
          "lat": 13.35,
          "lng": -86.75
        },
        "keyAccentLanguage": "caguasca"
      },
      {
        "code": 0,
        "type": "City",
        "enNameLanguage": "San Francisco",
        "location": {
          "lat": 13.377,
          "lng": -86.905
        },
        "keyAccentLanguage": "san_francisco"
      },
      {
        "code": 0,
        "type": "City",
        "enNameLanguage": "Cantarranas",
        "location": {
          "lat": 13.126,
          "lng": -87.064
        },
        "keyAccentLanguage": "cantarranas"
      },
      {
        "code": 0,
        "type": "City",
        "enNameLanguage": "Concepcion De Maria",
        "location": {
          "lat": 13.217,
          "lng": -87
        },
        "keyAccentLanguage": "concepcion_de_maria"
      }
    ],
    "enNameLanguage": "Choluteca",
    "keyAccentLanguage": "choluteca"
  },
  {
    "code": 0,
    "type": "State",
    "location": {
      "lat": 9.359302,
      "lng": -79.89986080000001
    },
    "districtList": [
      {
        "code": 0,
        "type": "City",
        "enNameLanguage": "Trujillo",
        "location": {
          "lat": 15.9116789,
          "lng": -85.9534465
        },
        "keyAccentLanguage": "trujillo"
      },
      {
        "code": 0,
        "type": "City",
        "enNameLanguage": "El Antigual",
        "location": {
          "lat": 15.75,
          "lng": -85.783
        },
        "keyAccentLanguage": "el_antigual"
      },
      {
        "code": 0,
        "type": "City",
        "enNameLanguage": "Candido",
        "location": {
          "lat": 15.8,
          "lng": -86.083
        },
        "keyAccentLanguage": "candido"
      },
      {
        "code": 0,
        "type": "City",
        "enNameLanguage": "Balfate",
        "location": {
          "lat": 15.778,
          "lng": -86.396
        },
        "keyAccentLanguage": "balfate"
      },
      {
        "code": 0,
        "type": "City",
        "enNameLanguage": "Amapala",
        "location": {
          "lat": 15.85,
          "lng": -85.55
        },
        "keyAccentLanguage": "amapala"
      },
      {
        "code": 0,
        "type": "City",
        "enNameLanguage": "Donel",
        "location": {
          "lat": 15.983,
          "lng": -85.067
        },
        "keyAccentLanguage": "donel"
      },
      {
        "code": 0,
        "type": "City",
        "enNameLanguage": "Cocalito",
        "location": {
          "lat": 16,
          "lng": -85.133
        },
        "keyAccentLanguage": "cocalito"
      },
      {
        "code": 0,
        "type": "City",
        "enNameLanguage": "Batalla",
        "location": {
          "lat": 16,
          "lng": -85.033
        },
        "keyAccentLanguage": "batalla"
      },
      {
        "code": 0,
        "type": "City",
        "enNameLanguage": "Caballeria",
        "location": {
          "lat": 15.6,
          "lng": -86.217
        },
        "keyAccentLanguage": "caballeria"
      },
      {
        "code": 0,
        "type": "City",
        "enNameLanguage": "Agua Limpia",
        "location": {
          "lat": 15.85,
          "lng": -85.767
        },
        "keyAccentLanguage": "agua_limpia"
      },
      {
        "code": 0,
        "type": "City",
        "enNameLanguage": "Campamento",
        "location": {
          "lat": 15.917,
          "lng": -86.033
        },
        "keyAccentLanguage": "campamento"
      },
      {
        "code": 0,
        "type": "City",
        "enNameLanguage": "Chontales",
        "location": {
          "lat": 16.017,
          "lng": -85.983
        },
        "keyAccentLanguage": "chontales"
      },
      {
        "code": 0,
        "type": "City",
        "enNameLanguage": "Calderas",
        "location": {
          "lat": 16,
          "lng": -85.117
        },
        "keyAccentLanguage": "calderas"
      },
      {
        "code": 0,
        "type": "City",
        "enNameLanguage": "Chacalapa",
        "location": {
          "lat": 15.717,
          "lng": -86.183
        },
        "keyAccentLanguage": "chacalapa"
      },
      {
        "code": 0,
        "type": "City",
        "enNameLanguage": "Chapagua",
        "location": {
          "lat": 15.833,
          "lng": -85.783
        },
        "keyAccentLanguage": "chapagua"
      },
      {
        "code": 0,
        "type": "City",
        "enNameLanguage": "Agua Caliente",
        "location": {
          "lat": 15.85,
          "lng": -85.2
        },
        "keyAccentLanguage": "agua_caliente"
      },
      {
        "code": 0,
        "type": "City",
        "enNameLanguage": "Colonia del Aguan",
        "location": {
          "lat": 15.867,
          "lng": -85.8
        },
        "keyAccentLanguage": "colonia_del_aguan"
      },
      {
        "code": 0,
        "type": "City",
        "enNameLanguage": "Amarillo",
        "location": {
          "lat": 15.817,
          "lng": -85.167
        },
        "keyAccentLanguage": "amarillo"
      },
      {
        "code": 0,
        "type": "City",
        "enNameLanguage": "El Tablon",
        "location": {
          "lat": 15.833,
          "lng": -85.783
        },
        "keyAccentLanguage": "el_tablon"
      },
      {
        "code": 0,
        "type": "City",
        "enNameLanguage": "Barranco Blanco",
        "location": {
          "lat": 16,
          "lng": -85.867
        },
        "keyAccentLanguage": "barranco_blanco"
      },
      {
        "code": 0,
        "type": "City",
        "enNameLanguage": "El Guasmal",
        "location": {
          "lat": 15.583,
          "lng": -86.083
        },
        "keyAccentLanguage": "el_guasmal"
      },
      {
        "code": 0,
        "type": "City",
        "enNameLanguage": "Ceibita",
        "location": {
          "lat": 15.633,
          "lng": -86.033
        },
        "keyAccentLanguage": "ceibita"
      },
      {
        "code": 0,
        "type": "City",
        "enNameLanguage": "Barranco Chele",
        "location": {
          "lat": 15.817,
          "lng": -85.167
        },
        "keyAccentLanguage": "barranco_chele"
      },
      {
        "code": 0,
        "type": "City",
        "enNameLanguage": "El Chicharron",
        "location": {
          "lat": 15.85,
          "lng": -85.233
        },
        "keyAccentLanguage": "el_chicharron"
      },
      {
        "code": 0,
        "type": "City",
        "enNameLanguage": "Aida Trovatore",
        "location": {
          "lat": 15.633,
          "lng": -86.317
        },
        "keyAccentLanguage": "aida_trovatore"
      },
      {
        "code": 0,
        "type": "City",
        "enNameLanguage": "El Establo",
        "location": {
          "lat": 15.9,
          "lng": -85.967
        },
        "keyAccentLanguage": "el_establo"
      },
      {
        "code": 0,
        "type": "City",
        "enNameLanguage": "Cuyamel",
        "location": {
          "lat": 15.767,
          "lng": -85.167
        },
        "keyAccentLanguage": "cuyamel"
      },
      {
        "code": 0,
        "type": "City",
        "enNameLanguage": "Copen",
        "location": {
          "lat": 15.617,
          "lng": -85.183
        },
        "keyAccentLanguage": "copen"
      },
      {
        "code": 0,
        "type": "City",
        "enNameLanguage": "El Chichiguite",
        "location": {
          "lat": 15.7,
          "lng": -86.2
        },
        "keyAccentLanguage": "el_chichiguite"
      },
      {
        "code": 0,
        "type": "City",
        "enNameLanguage": "El Sastre",
        "location": {
          "lat": 15.667,
          "lng": -86.283
        },
        "keyAccentLanguage": "el_sastre"
      },
      {
        "code": 0,
        "type": "City",
        "enNameLanguage": "El Canal",
        "location": {
          "lat": 15.95,
          "lng": -85.85
        },
        "keyAccentLanguage": "el_canal"
      },
      {
        "code": 0,
        "type": "City",
        "enNameLanguage": "Cusuna",
        "location": {
          "lat": 15.85,
          "lng": -85.233
        },
        "keyAccentLanguage": "cusuna"
      },
      {
        "code": 0,
        "type": "City",
        "enNameLanguage": "Brinche Grande",
        "location": {
          "lat": 15.767,
          "lng": -85.85
        },
        "keyAccentLanguage": "brinche_grande"
      },
      {
        "code": 0,
        "type": "City",
        "enNameLanguage": "El Olingo",
        "location": {
          "lat": 15.683,
          "lng": -85.25
        },
        "keyAccentLanguage": "el_olingo"
      },
      {
        "code": 0,
        "type": "City",
        "enNameLanguage": "Ciriboya",
        "location": {
          "lat": 15.917,
          "lng": -85.233
        },
        "keyAccentLanguage": "ciriboya"
      },
      {
        "code": 0,
        "type": "City",
        "enNameLanguage": "El Limonal",
        "location": {
          "lat": 15.9,
          "lng": -85.017
        },
        "keyAccentLanguage": "el_limonal"
      },
      {
        "code": 0,
        "type": "City",
        "enNameLanguage": "El Anzuelo",
        "location": {
          "lat": 15.783,
          "lng": -85.083
        },
        "keyAccentLanguage": "el_anzuelo"
      },
      {
        "code": 0,
        "type": "City",
        "enNameLanguage": "Bacalar",
        "location": {
          "lat": 15.95,
          "lng": -85.017
        },
        "keyAccentLanguage": "bacalar"
      },
      {
        "code": 0,
        "type": "City",
        "enNameLanguage": "Banda del Norte",
        "location": {
          "lat": 16.017,
          "lng": -85.933
        },
        "keyAccentLanguage": "banda_del_norte"
      },
      {
        "code": 0,
        "type": "City",
        "enNameLanguage": "Bonito Oriental",
        "location": {
          "lat": 15.733,
          "lng": -85.733
        },
        "keyAccentLanguage": "bonito_oriental"
      },
      {
        "code": 0,
        "type": "City",
        "enNameLanguage": "Colima",
        "location": {
          "lat": 15.65,
          "lng": -86.083
        },
        "keyAccentLanguage": "colima"
      },
      {
        "code": 0,
        "type": "City",
        "enNameLanguage": "Empalme",
        "location": {
          "lat": 16.033,
          "lng": -85.967
        },
        "keyAccentLanguage": "empalme"
      },
      {
        "code": 0,
        "type": "City",
        "enNameLanguage": "Bambu",
        "location": {
          "lat": 15.85,
          "lng": -86.283
        },
        "keyAccentLanguage": "bambu"
      },
      {
        "code": 0,
        "type": "City",
        "enNameLanguage": "Bucara",
        "location": {
          "lat": 15.867,
          "lng": -85.067
        },
        "keyAccentLanguage": "bucara"
      },
      {
        "code": 0,
        "type": "City",
        "enNameLanguage": "Achiote",
        "location": {
          "lat": 15.567,
          "lng": -86.183
        },
        "keyAccentLanguage": "achiote"
      },
      {
        "code": 0,
        "type": "City",
        "enNameLanguage": "El Jaguillo Muerto",
        "location": {
          "lat": 15.467,
          "lng": -86.2
        },
        "keyAccentLanguage": "el_jaguillo_muerto"
      },
      {
        "code": 0,
        "type": "City",
        "enNameLanguage": "Sonaguera",
        "location": {
          "lat": 15.619,
          "lng": -86.273
        },
        "keyAccentLanguage": "sonaguera"
      },
      {
        "code": 0,
        "type": "City",
        "enNameLanguage": "Betulia",
        "location": {
          "lat": 15.917,
          "lng": -86.167
        },
        "keyAccentLanguage": "betulia"
      },
      {
        "code": 0,
        "type": "City",
        "enNameLanguage": "El Barro",
        "location": {
          "lat": 15.7,
          "lng": -85.95
        },
        "keyAccentLanguage": "el_barro"
      },
      {
        "code": 0,
        "type": "City",
        "enNameLanguage": "Dereza",
        "location": {
          "lat": 15.917,
          "lng": -85.867
        },
        "keyAccentLanguage": "dereza"
      },
      {
        "code": 0,
        "type": "City",
        "enNameLanguage": "El Coco",
        "location": {
          "lat": 15.783,
          "lng": -86.083
        },
        "keyAccentLanguage": "el_coco"
      },
      {
        "code": 0,
        "type": "City",
        "enNameLanguage": "Isleta",
        "location": {
          "lat": 15.567,
          "lng": -86.167
        },
        "keyAccentLanguage": "isleta"
      },
      {
        "code": 0,
        "type": "City",
        "enNameLanguage": "El Urraco",
        "location": {
          "lat": 15.9,
          "lng": -85.283
        },
        "keyAccentLanguage": "el_urraco"
      },
      {
        "code": 0,
        "type": "City",
        "enNameLanguage": "Barra de Aguan",
        "location": {
          "lat": 15.967,
          "lng": -85.75
        },
        "keyAccentLanguage": "barra_de_aguan"
      },
      {
        "code": 0,
        "type": "City",
        "enNameLanguage": "Agua Zarca",
        "location": {
          "lat": 15.683,
          "lng": -85.25
        },
        "keyAccentLanguage": "agua_zarca"
      },
      {
        "code": 0,
        "type": "City",
        "enNameLanguage": "Tocoa",
        "location": {
          "lat": 15.654,
          "lng": -86.006
        },
        "keyAccentLanguage": "tocoa"
      },
      {
        "code": 0,
        "type": "City",
        "enNameLanguage": "El Tigre",
        "location": {
          "lat": 15.683,
          "lng": -85.25
        },
        "keyAccentLanguage": "el_tigre"
      },
      {
        "code": 0,
        "type": "City",
        "enNameLanguage": "Tocamacho",
        "location": {
          "lat": 15.983,
          "lng": -85.017
        },
        "keyAccentLanguage": "tocamacho"
      },
      {
        "code": 0,
        "type": "City",
        "enNameLanguage": "Buenos Aires",
        "location": {
          "lat": -33.897,
          "lng": -61.099
        },
        "keyAccentLanguage": "buenos_aires"
      },
      {
        "code": 0,
        "type": "City",
        "enNameLanguage": "El Way",
        "location": {
          "lat": 15.983,
          "lng": -85.15
        },
        "keyAccentLanguage": "el_way"
      },
      {
        "code": 0,
        "type": "City",
        "enNameLanguage": "Barranco",
        "location": {
          "lat": 15.617,
          "lng": -85.267
        },
        "keyAccentLanguage": "barranco"
      },
      {
        "code": 0,
        "type": "City",
        "enNameLanguage": "Copete",
        "location": {
          "lat": 15.567,
          "lng": -86.217
        },
        "keyAccentLanguage": "copete"
      },
      {
        "code": 0,
        "type": "City",
        "enNameLanguage": "Mojaguay",
        "location": {
          "lat": 15.9,
          "lng": -85.983
        },
        "keyAccentLanguage": "mojaguay"
      },
      {
        "code": 0,
        "type": "City",
        "enNameLanguage": "Rio Grande",
        "location": {
          "lat": 15.91,
          "lng": -85.969
        },
        "keyAccentLanguage": "rio_grande"
      },
      {
        "code": 0,
        "type": "City",
        "enNameLanguage": "Barra de Chapagua",
        "location": {
          "lat": 15.983,
          "lng": -85.783
        },
        "keyAccentLanguage": "barra_de_chapagua"
      },
      {
        "code": 0,
        "type": "City",
        "enNameLanguage": "Iriona",
        "location": {
          "lat": 15.888,
          "lng": -85.221
        },
        "keyAccentLanguage": "iriona"
      },
      {
        "code": 0,
        "type": "City",
        "enNameLanguage": "Rio Esteban",
        "location": {
          "lat": 15.801,
          "lng": -86.293
        },
        "keyAccentLanguage": "rio_esteban"
      },
      {
        "code": 0,
        "type": "City",
        "enNameLanguage": "Churrusquera",
        "location": {
          "lat": 15.7,
          "lng": -86.267
        },
        "keyAccentLanguage": "churrusquera"
      },
      {
        "code": 0,
        "type": "City",
        "enNameLanguage": "El Higuerito",
        "location": {
          "lat": 15.833,
          "lng": -86.017
        },
        "keyAccentLanguage": "el_higuerito"
      },
      {
        "code": 0,
        "type": "City",
        "enNameLanguage": "El Cayo Sierra",
        "location": {
          "lat": 15.55,
          "lng": -86.083
        },
        "keyAccentLanguage": "el_cayo_sierra"
      },
      {
        "code": 0,
        "type": "City",
        "enNameLanguage": "Cuaca",
        "location": {
          "lat": 15.533,
          "lng": -86.117
        },
        "keyAccentLanguage": "cuaca"
      },
      {
        "code": 0,
        "type": "City",
        "enNameLanguage": "El Nanzal",
        "location": {
          "lat": 15.767,
          "lng": -86.167
        },
        "keyAccentLanguage": "el_nanzal"
      },
      {
        "code": 0,
        "type": "City",
        "enNameLanguage": "El Paso",
        "location": {
          "lat": 15.8,
          "lng": -85.783
        },
        "keyAccentLanguage": "el_paso"
      },
      {
        "code": 0,
        "type": "City",
        "enNameLanguage": "El Castillo",
        "location": {
          "lat": 15.833,
          "lng": -85.167
        },
        "keyAccentLanguage": "el_castillo"
      },
      {
        "code": 0,
        "type": "City",
        "enNameLanguage": "Puerto Castilla",
        "location": {
          "lat": 16.023,
          "lng": -86.011
        },
        "keyAccentLanguage": "puerto_castilla"
      },
      {
        "code": 0,
        "type": "City",
        "enNameLanguage": "Corocito",
        "location": {
          "lat": 15.75,
          "lng": -85.783
        },
        "keyAccentLanguage": "corocito"
      },
      {
        "code": 0,
        "type": "City",
        "enNameLanguage": "Moradel",
        "location": {
          "lat": 15.933,
          "lng": -85.9
        },
        "keyAccentLanguage": "moradel"
      },
      {
        "code": 0,
        "type": "City",
        "enNameLanguage": "El Cayo Campo",
        "location": {
          "lat": 15.667,
          "lng": -86.067
        },
        "keyAccentLanguage": "el_cayo_campo"
      },
      {
        "code": 0,
        "type": "City",
        "enNameLanguage": "Ilanga",
        "location": {
          "lat": 15.667,
          "lng": -86.133
        },
        "keyAccentLanguage": "ilanga"
      },
      {
        "code": 0,
        "type": "City",
        "enNameLanguage": "El Venado",
        "location": {
          "lat": 15.85,
          "lng": -85.217
        },
        "keyAccentLanguage": "el_venado"
      },
      {
        "code": 0,
        "type": "City",
        "enNameLanguage": "El Dorado",
        "location": {
          "lat": 15.65,
          "lng": -85.267
        },
        "keyAccentLanguage": "el_dorado"
      },
      {
        "code": 0,
        "type": "City",
        "enNameLanguage": "El Zapote",
        "location": {
          "lat": 15.533,
          "lng": -86.05
        },
        "keyAccentLanguage": "el_zapote"
      },
      {
        "code": 0,
        "type": "City",
        "enNameLanguage": "Esperanza",
        "location": {
          "lat": 15.9,
          "lng": -86.233
        },
        "keyAccentLanguage": "esperanza"
      },
      {
        "code": 0,
        "type": "City",
        "enNameLanguage": "Durango",
        "location": {
          "lat": 15.833,
          "lng": -85.817
        },
        "keyAccentLanguage": "durango"
      },
      {
        "code": 0,
        "type": "City",
        "enNameLanguage": "Santa Rosa De Aguan",
        "location": {
          "lat": 15.95,
          "lng": -85.717
        },
        "keyAccentLanguage": "santa_rosa_de_aguan"
      },
      {
        "code": 0,
        "type": "City",
        "enNameLanguage": "El Manchon",
        "location": {
          "lat": 15.767,
          "lng": -85.7
        },
        "keyAccentLanguage": "el_manchon"
      },
      {
        "code": 0,
        "type": "City",
        "enNameLanguage": "Japon",
        "location": {
          "lat": 15.585,
          "lng": -86.299
        },
        "keyAccentLanguage": "japon"
      },
      {
        "code": 0,
        "type": "City",
        "enNameLanguage": "El Nato",
        "location": {
          "lat": 15.7,
          "lng": -85.233
        },
        "keyAccentLanguage": "el_nato"
      },
      {
        "code": 0,
        "type": "City",
        "enNameLanguage": "Sico",
        "location": {
          "lat": 15.811,
          "lng": -85.107
        },
        "keyAccentLanguage": "sico"
      },
      {
        "code": 0,
        "type": "City",
        "enNameLanguage": "Quebrada De Arena",
        "location": {
          "lat": 15.767,
          "lng": -85.917
        },
        "keyAccentLanguage": "quebrada_de_arena"
      },
      {
        "code": 0,
        "type": "City",
        "enNameLanguage": "Candelaria",
        "location": {
          "lat": 15.6,
          "lng": -86.283
        },
        "keyAccentLanguage": "candelaria"
      },
      {
        "code": 0,
        "type": "City",
        "enNameLanguage": "Francia",
        "location": {
          "lat": 15.824,
          "lng": -85.597
        },
        "keyAccentLanguage": "francia"
      },
      {
        "code": 0,
        "type": "City",
        "enNameLanguage": "Chiquero",
        "location": {
          "lat": 15.85,
          "lng": -85.083
        },
        "keyAccentLanguage": "chiquero"
      },
      {
        "code": 0,
        "type": "City",
        "enNameLanguage": "Buena Vista",
        "location": {
          "lat": 15.617,
          "lng": -85.033
        },
        "keyAccentLanguage": "buena_vista"
      },
      {
        "code": 0,
        "type": "City",
        "enNameLanguage": "La Presa",
        "location": {
          "lat": 15.9,
          "lng": -85.917
        },
        "keyAccentLanguage": "la_presa"
      },
      {
        "code": 0,
        "type": "City",
        "enNameLanguage": "La Milagrosa",
        "location": {
          "lat": 15.9,
          "lng": -85.95
        },
        "keyAccentLanguage": "la_milagrosa"
      },
      {
        "code": 0,
        "type": "City",
        "enNameLanguage": "Santa Fe",
        "location": {
          "lat": 15.894,
          "lng": -86.082
        },
        "keyAccentLanguage": "santa_fe"
      },
      {
        "code": 0,
        "type": "City",
        "enNameLanguage": "Limon",
        "location": {
          "lat": 15.862,
          "lng": -85.5
        },
        "keyAccentLanguage": "limon"
      },
      {
        "code": 0,
        "type": "City",
        "enNameLanguage": "El Palmichal",
        "location": {
          "lat": 15.767,
          "lng": -85.85
        },
        "keyAccentLanguage": "el_palmichal"
      },
      {
        "code": 0,
        "type": "City",
        "enNameLanguage": "El Urraco",
        "location": {
          "lat": 15.9,
          "lng": -85.283
        },
        "keyAccentLanguage": "el_urraco"
      }
    ],
    "enNameLanguage": "Colón",
    "keyAccentLanguage": "colón"
  },
  {
    "code": 0,
    "type": "State",
    "location": {
      "lat": 14.4490149,
      "lng": -87.6482474
    },
    "districtList": [
      {
        "code": 0,
        "type": "City",
        "enNameLanguage": "Esquias",
        "location": {
          "lat": 14.74042,
          "lng": -87.374489
        },
        "keyAccentLanguage": "esquias"
      },
      {
        "code": 0,
        "type": "City",
        "enNameLanguage": "Campana",
        "location": {
          "lat": 14.533,
          "lng": -87.75
        },
        "keyAccentLanguage": "campana"
      },
      {
        "code": 0,
        "type": "City",
        "enNameLanguage": "Canton",
        "location": {
          "lat": 14.25,
          "lng": -87.683
        },
        "keyAccentLanguage": "canton"
      },
      {
        "code": 0,
        "type": "City",
        "enNameLanguage": "Achotal",
        "location": {
          "lat": 15,
          "lng": -87.733
        },
        "keyAccentLanguage": "achotal"
      },
      {
        "code": 0,
        "type": "City",
        "enNameLanguage": "Canchias",
        "location": {
          "lat": 14.9,
          "lng": -87.833
        },
        "keyAccentLanguage": "canchias"
      },
      {
        "code": 0,
        "type": "City",
        "enNameLanguage": "Campa",
        "location": {
          "lat": 14.533,
          "lng": -87.733
        },
        "keyAccentLanguage": "campa"
      },
      {
        "code": 0,
        "type": "City",
        "enNameLanguage": "Chicuas",
        "location": {
          "lat": 14.517,
          "lng": -87.75
        },
        "keyAccentLanguage": "chicuas"
      },
      {
        "code": 0,
        "type": "City",
        "enNameLanguage": "Agua Caliente",
        "location": {
          "lat": 14.867,
          "lng": -87.717
        },
        "keyAccentLanguage": "agua_caliente"
      },
      {
        "code": 0,
        "type": "City",
        "enNameLanguage": "Barranco Colorado",
        "location": {
          "lat": 14.683,
          "lng": -87.983
        },
        "keyAccentLanguage": "barranco_colorado"
      },
      {
        "code": 0,
        "type": "City",
        "enNameLanguage": "San Sebastian",
        "location": {
          "lat": 14.25,
          "lng": -87.633
        },
        "keyAccentLanguage": "san_sebastian"
      },
      {
        "code": 0,
        "type": "City",
        "enNameLanguage": "Canagrales",
        "location": {
          "lat": 14.767,
          "lng": -87.55
        },
        "keyAccentLanguage": "canagrales"
      },
      {
        "code": 0,
        "type": "City",
        "enNameLanguage": "Chilaleza",
        "location": {
          "lat": 14.183,
          "lng": -87.65
        },
        "keyAccentLanguage": "chilaleza"
      },
      {
        "code": 0,
        "type": "City",
        "enNameLanguage": "Camalotales",
        "location": {
          "lat": 14.667,
          "lng": -87.967
        },
        "keyAccentLanguage": "camalotales"
      },
      {
        "code": 0,
        "type": "City",
        "enNameLanguage": "Cirilo",
        "location": {
          "lat": 14.533,
          "lng": -87.75
        },
        "keyAccentLanguage": "cirilo"
      },
      {
        "code": 0,
        "type": "City",
        "enNameLanguage": "Agua Zarca",
        "location": {
          "lat": 15,
          "lng": -87.717
        },
        "keyAccentLanguage": "agua_zarca"
      },
      {
        "code": 0,
        "type": "City",
        "enNameLanguage": "Chaguiton",
        "location": {
          "lat": 14.667,
          "lng": -87.95
        },
        "keyAccentLanguage": "chaguiton"
      },
      {
        "code": 0,
        "type": "City",
        "enNameLanguage": "Buen Pastor",
        "location": {
          "lat": 14.55,
          "lng": -87.7
        },
        "keyAccentLanguage": "buen_pastor"
      },
      {
        "code": 0,
        "type": "City",
        "enNameLanguage": "Chapulistagua",
        "location": {
          "lat": 14.583,
          "lng": -87.433
        },
        "keyAccentLanguage": "chapulistagua"
      },
      {
        "code": 0,
        "type": "City",
        "enNameLanguage": "Calichito",
        "location": {
          "lat": 14.883,
          "lng": -87.483
        },
        "keyAccentLanguage": "calichito"
      },
      {
        "code": 0,
        "type": "City",
        "enNameLanguage": "Cabeceras",
        "location": {
          "lat": 14.95,
          "lng": -87.617
        },
        "keyAccentLanguage": "cabeceras"
      },
      {
        "code": 0,
        "type": "City",
        "enNameLanguage": "Caliche",
        "location": {
          "lat": 14.7,
          "lng": -87.85
        },
        "keyAccentLanguage": "caliche"
      },
      {
        "code": 0,
        "type": "City",
        "enNameLanguage": "Aguas del Padre",
        "location": {
          "lat": 14.567,
          "lng": -87.883
        },
        "keyAccentLanguage": "aguas_del_padre"
      },
      {
        "code": 0,
        "type": "City",
        "enNameLanguage": "Cerron",
        "location": {
          "lat": 14.817,
          "lng": -87.8
        },
        "keyAccentLanguage": "cerron"
      },
      {
        "code": 0,
        "type": "City",
        "enNameLanguage": "Chanton",
        "location": {
          "lat": 14.25,
          "lng": -87.683
        },
        "keyAccentLanguage": "chanton"
      },
      {
        "code": 0,
        "type": "City",
        "enNameLanguage": "Comayagua",
        "location": {
          "lat": 14.454,
          "lng": -87.643
        },
        "keyAccentLanguage": "comayagua"
      },
      {
        "code": 0,
        "type": "City",
        "enNameLanguage": "Abisinia",
        "location": {
          "lat": 14.683,
          "lng": -87.417
        },
        "keyAccentLanguage": "abisinia"
      },
      {
        "code": 0,
        "type": "City",
        "enNameLanguage": "Casas Viejas",
        "location": {
          "lat": 14.617,
          "lng": -87.467
        },
        "keyAccentLanguage": "casas_viejas"
      },
      {
        "code": 0,
        "type": "City",
        "enNameLanguage": "Cacaguapa",
        "location": {
          "lat": 14.583,
          "lng": -87.633
        },
        "keyAccentLanguage": "cacaguapa"
      },
      {
        "code": 0,
        "type": "City",
        "enNameLanguage": "Balibrea",
        "location": {
          "lat": 14.483,
          "lng": -87.883
        },
        "keyAccentLanguage": "balibrea"
      },
      {
        "code": 0,
        "type": "City",
        "enNameLanguage": "Agua Blanca",
        "location": {
          "lat": 14.117,
          "lng": -87.6
        },
        "keyAccentLanguage": "agua_blanca"
      },
      {
        "code": 0,
        "type": "City",
        "enNameLanguage": "Caulotes",
        "location": {
          "lat": 14.9,
          "lng": -87.667
        },
        "keyAccentLanguage": "caulotes"
      },
      {
        "code": 0,
        "type": "City",
        "enNameLanguage": "Cerro Azul",
        "location": {
          "lat": 14.95,
          "lng": -87.467
        },
        "keyAccentLanguage": "cerro_azul"
      },
      {
        "code": 0,
        "type": "City",
        "enNameLanguage": "Montanuelas",
        "location": {
          "lat": 14.65,
          "lng": -87.933
        },
        "keyAccentLanguage": "montanuelas"
      },
      {
        "code": 0,
        "type": "City",
        "enNameLanguage": "Caballero",
        "location": {
          "lat": 14.433,
          "lng": -87.55
        },
        "keyAccentLanguage": "caballero"
      },
      {
        "code": 0,
        "type": "City",
        "enNameLanguage": "Cabeza de Vaca",
        "location": {
          "lat": 14.933,
          "lng": -87.583
        },
        "keyAccentLanguage": "cabeza_de_vaca"
      },
      {
        "code": 0,
        "type": "City",
        "enNameLanguage": "Yarumela",
        "location": {
          "lat": 14.333,
          "lng": -87.633
        },
        "keyAccentLanguage": "yarumela"
      },
      {
        "code": 0,
        "type": "City",
        "enNameLanguage": "Sulaco",
        "location": {
          "lat": 14.917,
          "lng": -87.267
        },
        "keyAccentLanguage": "sulaco"
      },
      {
        "code": 0,
        "type": "City",
        "enNameLanguage": "Barrio Nuevo",
        "location": {
          "lat": 14.417,
          "lng": -87.783
        },
        "keyAccentLanguage": "barrio_nuevo"
      },
      {
        "code": 0,
        "type": "City",
        "enNameLanguage": "Cobos",
        "location": {
          "lat": 14.783,
          "lng": -87.583
        },
        "keyAccentLanguage": "cobos"
      },
      {
        "code": 0,
        "type": "City",
        "enNameLanguage": "Agua Dulce",
        "location": {
          "lat": 14.6,
          "lng": -87.833
        },
        "keyAccentLanguage": "agua_dulce"
      },
      {
        "code": 0,
        "type": "City",
        "enNameLanguage": "Taulabe",
        "location": {
          "lat": 14.7,
          "lng": -87.967
        },
        "keyAccentLanguage": "taulabe"
      },
      {
        "code": 0,
        "type": "City",
        "enNameLanguage": "Alto Pino",
        "location": {
          "lat": 14.767,
          "lng": -87.55
        },
        "keyAccentLanguage": "alto_pino"
      },
      {
        "code": 0,
        "type": "City",
        "enNameLanguage": "Colmenas",
        "location": {
          "lat": 14.533,
          "lng": -87.717
        },
        "keyAccentLanguage": "colmenas"
      },
      {
        "code": 0,
        "type": "City",
        "enNameLanguage": "Chicuas Abajo",
        "location": {
          "lat": 14.517,
          "lng": -87.75
        },
        "keyAccentLanguage": "chicuas_abajo"
      },
      {
        "code": 0,
        "type": "City",
        "enNameLanguage": "Chichipate",
        "location": {
          "lat": 14.917,
          "lng": -87.783
        },
        "keyAccentLanguage": "chichipate"
      },
      {
        "code": 0,
        "type": "City",
        "enNameLanguage": "Ciruelito",
        "location": {
          "lat": 14.183,
          "lng": -87.633
        },
        "keyAccentLanguage": "ciruelito"
      },
      {
        "code": 0,
        "type": "City",
        "enNameLanguage": "Cantoral",
        "location": {
          "lat": 14.45,
          "lng": -87.8
        },
        "keyAccentLanguage": "cantoral"
      },
      {
        "code": 0,
        "type": "City",
        "enNameLanguage": "Canitas",
        "location": {
          "lat": 14.567,
          "lng": -87.733
        },
        "keyAccentLanguage": "canitas"
      },
      {
        "code": 0,
        "type": "City",
        "enNameLanguage": "Humuya",
        "location": {
          "lat": 14.25,
          "lng": -87.667
        },
        "keyAccentLanguage": "humuya"
      },
      {
        "code": 0,
        "type": "City",
        "enNameLanguage": "Cerro Blanco",
        "location": {
          "lat": 14.667,
          "lng": -87.783
        },
        "keyAccentLanguage": "cerro_blanco"
      },
      {
        "code": 0,
        "type": "City",
        "enNameLanguage": "Camalote",
        "location": {
          "lat": 14.533,
          "lng": -87.733
        },
        "keyAccentLanguage": "camalote"
      },
      {
        "code": 0,
        "type": "City",
        "enNameLanguage": "Apacilagua",
        "location": {
          "lat": 14.75,
          "lng": -87.583
        },
        "keyAccentLanguage": "apacilagua"
      },
      {
        "code": 0,
        "type": "City",
        "enNameLanguage": "Capiro",
        "location": {
          "lat": 14.4,
          "lng": -87.6
        },
        "keyAccentLanguage": "capiro"
      },
      {
        "code": 0,
        "type": "City",
        "enNameLanguage": "Carboneras",
        "location": {
          "lat": 14.567,
          "lng": -87.75
        },
        "keyAccentLanguage": "carboneras"
      },
      {
        "code": 0,
        "type": "City",
        "enNameLanguage": "Ajuterique",
        "location": {
          "lat": 14.383,
          "lng": -87.7
        },
        "keyAccentLanguage": "ajuterique"
      },
      {
        "code": 0,
        "type": "City",
        "enNameLanguage": "Agua Fria",
        "location": {
          "lat": 14.533,
          "lng": -87.633
        },
        "keyAccentLanguage": "agua_fria"
      },
      {
        "code": 0,
        "type": "City",
        "enNameLanguage": "Villa De San Antonio",
        "location": {
          "lat": 14.319,
          "lng": -87.614
        },
        "keyAccentLanguage": "villa_de_san_antonio"
      },
      {
        "code": 0,
        "type": "City",
        "enNameLanguage": "Candelaria",
        "location": {
          "lat": 14.817,
          "lng": -87.617
        },
        "keyAccentLanguage": "candelaria"
      },
      {
        "code": 0,
        "type": "City",
        "enNameLanguage": "El Rancho",
        "location": {
          "lat": 14.683,
          "lng": -87.5
        },
        "keyAccentLanguage": "el_rancho"
      },
      {
        "code": 0,
        "type": "City",
        "enNameLanguage": "Tablazon",
        "location": {
          "lat": 14.131,
          "lng": -87.645
        },
        "keyAccentLanguage": "tablazon"
      },
      {
        "code": 0,
        "type": "City",
        "enNameLanguage": "Lejamani",
        "location": {
          "lat": 14.367,
          "lng": -87.7
        },
        "keyAccentLanguage": "lejamani"
      },
      {
        "code": 0,
        "type": "City",
        "enNameLanguage": "Chaguitillos",
        "location": {
          "lat": 14.567,
          "lng": -87.717
        },
        "keyAccentLanguage": "chaguitillos"
      },
      {
        "code": 0,
        "type": "City",
        "enNameLanguage": "Netapa",
        "location": {
          "lat": 14.614,
          "lng": -87.359
        },
        "keyAccentLanguage": "netapa"
      },
      {
        "code": 0,
        "type": "City",
        "enNameLanguage": "Chorreritas",
        "location": {
          "lat": 14.633,
          "lng": -87.867
        },
        "keyAccentLanguage": "chorreritas"
      },
      {
        "code": 0,
        "type": "City",
        "enNameLanguage": "Meambar",
        "location": {
          "lat": 14.783,
          "lng": -87.767
        },
        "keyAccentLanguage": "meambar"
      },
      {
        "code": 0,
        "type": "City",
        "enNameLanguage": "Buenas Casas",
        "location": {
          "lat": 14.567,
          "lng": -87.85
        },
        "keyAccentLanguage": "buenas_casas"
      },
      {
        "code": 0,
        "type": "City",
        "enNameLanguage": "Cordoncillo",
        "location": {
          "lat": 14.7,
          "lng": -87.683
        },
        "keyAccentLanguage": "cordoncillo"
      },
      {
        "code": 0,
        "type": "City",
        "enNameLanguage": "Buenos Aires",
        "location": {
          "lat": 14.733,
          "lng": -87.967
        },
        "keyAccentLanguage": "buenos_aires"
      },
      {
        "code": 0,
        "type": "City",
        "enNameLanguage": "San Jeronimo",
        "location": {
          "lat": 14.633,
          "lng": -87.6
        },
        "keyAccentLanguage": "san_jeronimo"
      },
      {
        "code": 0,
        "type": "City",
        "enNameLanguage": "Ojos De Agua",
        "location": {
          "lat": 14.75,
          "lng": -87.65
        },
        "keyAccentLanguage": "ojos_de_agua"
      },
      {
        "code": 0,
        "type": "City",
        "enNameLanguage": "Terreritos",
        "location": {
          "lat": 14.993,
          "lng": -87.71
        },
        "keyAccentLanguage": "terreritos"
      },
      {
        "code": 0,
        "type": "City",
        "enNameLanguage": "Las Arenas",
        "location": {
          "lat": 14.617,
          "lng": -87.5
        },
        "keyAccentLanguage": "las_arenas"
      },
      {
        "code": 0,
        "type": "City",
        "enNameLanguage": "Agua Escondida",
        "location": {
          "lat": 15.017,
          "lng": -87.65
        },
        "keyAccentLanguage": "agua_escondida"
      },
      {
        "code": 0,
        "type": "City",
        "enNameLanguage": "Cienegal",
        "location": {
          "lat": 14.8,
          "lng": -87.817
        },
        "keyAccentLanguage": "cienegal"
      },
      {
        "code": 0,
        "type": "City",
        "enNameLanguage": "La Concepcion",
        "location": {
          "lat": 14.717,
          "lng": -87.783
        },
        "keyAccentLanguage": "la_concepcion"
      },
      {
        "code": 0,
        "type": "City",
        "enNameLanguage": "Jamalteca",
        "location": {
          "lat": 14.696,
          "lng": -87.579
        },
        "keyAccentLanguage": "jamalteca"
      },
      {
        "code": 0,
        "type": "City",
        "enNameLanguage": "Concepcion de Guasistagua",
        "location": {
          "lat": 14.6,
          "lng": -87.65
        },
        "keyAccentLanguage": "concepcion_de_guasistagua"
      },
      {
        "code": 0,
        "type": "City",
        "enNameLanguage": "Las Flores",
        "location": {
          "lat": 14.683,
          "lng": -87.467
        },
        "keyAccentLanguage": "las_flores"
      },
      {
        "code": 0,
        "type": "City",
        "enNameLanguage": "Siguatepeque",
        "location": {
          "lat": 14.595,
          "lng": -87.832
        },
        "keyAccentLanguage": "siguatepeque"
      },
      {
        "code": 0,
        "type": "City",
        "enNameLanguage": "Lamani",
        "location": {
          "lat": 14.2,
          "lng": -87.617
        },
        "keyAccentLanguage": "lamani"
      },
      {
        "code": 0,
        "type": "City",
        "enNameLanguage": "San Jose Del Potrero",
        "location": {
          "lat": 14.833,
          "lng": -87.283
        },
        "keyAccentLanguage": "san_jose_del_potrero"
      },
      {
        "code": 0,
        "type": "City",
        "enNameLanguage": "Minas De Oro",
        "location": {
          "lat": 14.8,
          "lng": -87.35
        },
        "keyAccentLanguage": "minas_de_oro"
      },
      {
        "code": 0,
        "type": "City",
        "enNameLanguage": "San Andres",
        "location": {
          "lat": 14.851,
          "lng": -87.515
        },
        "keyAccentLanguage": "san_andres"
      },
      {
        "code": 0,
        "type": "City",
        "enNameLanguage": "El Rosario",
        "location": {
          "lat": 14.583,
          "lng": -87.733
        },
        "keyAccentLanguage": "el_rosario"
      },
      {
        "code": 0,
        "type": "City",
        "enNameLanguage": "San Luis",
        "location": {
          "lat": 14.75,
          "lng": -87.417
        },
        "keyAccentLanguage": "san_luis"
      },
      {
        "code": 0,
        "type": "City",
        "enNameLanguage": "Buena Vista",
        "location": {
          "lat": 15,
          "lng": -87.7
        },
        "keyAccentLanguage": "buena_vista"
      },
      {
        "code": 0,
        "type": "City",
        "enNameLanguage": "Caleritas",
        "location": {
          "lat": 14.383,
          "lng": -87.733
        },
        "keyAccentLanguage": "caleritas"
      },
      {
        "code": 0,
        "type": "City",
        "enNameLanguage": "San Jose De Comayagua",
        "location": {
          "lat": 14.784,
          "lng": -87.768
        },
        "keyAccentLanguage": "san_jose_de_comayagua"
      },
      {
        "code": 0,
        "type": "City",
        "enNameLanguage": "La Trinidad",
        "location": {
          "lat": 14.717,
          "lng": -87.667
        },
        "keyAccentLanguage": "la_trinidad"
      },
      {
        "code": 0,
        "type": "City",
        "enNameLanguage": "La Libertad",
        "location": {
          "lat": 14.45,
          "lng": -87.45
        },
        "keyAccentLanguage": "la_libertad"
      },
      {
        "code": 0,
        "type": "City",
        "enNameLanguage": "Cimarrones",
        "location": {
          "lat": 14.6,
          "lng": -87.883
        },
        "keyAccentLanguage": "cimarrones"
      },
      {
        "code": 0,
        "type": "City",
        "enNameLanguage": "Capara",
        "location": {
          "lat": 14.833,
          "lng": -87.683
        },
        "keyAccentLanguage": "capara"
      },
      {
        "code": 0,
        "type": "City",
        "enNameLanguage": "Las Lajas",
        "location": {
          "lat": 14.9,
          "lng": -87.583
        },
        "keyAccentLanguage": "las_lajas"
      },
      {
        "code": 0,
        "type": "City",
        "enNameLanguage": "Cicirinteca",
        "location": {
          "lat": 14.567,
          "lng": -87.9
        },
        "keyAccentLanguage": "cicirinteca"
      },
      {
        "code": 0,
        "type": "City",
        "enNameLanguage": "El Horno",
        "location": {
          "lat": 14.6,
          "lng": -87.75
        },
        "keyAccentLanguage": "el_horno"
      },
      {
        "code": 0,
        "type": "City",
        "enNameLanguage": "Palo Pintado",
        "location": {
          "lat": 14.517,
          "lng": -87.683
        },
        "keyAccentLanguage": "palo_pintado"
      },
      {
        "code": 0,
        "type": "City",
        "enNameLanguage": "Santa Cruz",
        "location": {
          "lat": 14.692,
          "lng": -87.964
        },
        "keyAccentLanguage": "santa_cruz"
      },
      {
        "code": 0,
        "type": "City",
        "enNameLanguage": "Barranco Colorado",
        "location": {
          "lat": 14.683,
          "lng": -87.983
        },
        "keyAccentLanguage": "barranco_colorado"
      },
      {
        "code": 0,
        "type": "City",
        "enNameLanguage": "Buena Vista",
        "location": {
          "lat": 15,
          "lng": -87.7
        },
        "keyAccentLanguage": "buena_vista"
      },
      {
        "code": 0,
        "type": "City",
        "enNameLanguage": "El Horno",
        "location": {
          "lat": 14.6,
          "lng": -87.75
        },
        "keyAccentLanguage": "el_horno"
      }
    ],
    "enNameLanguage": "Comayagua",
    "keyAccentLanguage": "comayagua"
  },
  {
    "code": 0,
    "type": "State",
    "location": {
      "lat": 14.8497254,
      "lng": -89.1467832
    },
    "districtList": [
      {
        "code": 0,
        "type": "City",
        "enNameLanguage": "Aldea Nueva",
        "location": {
          "lat": 14.817,
          "lng": -89.133
        },
        "keyAccentLanguage": "aldea_nueva"
      },
      {
        "code": 0,
        "type": "City",
        "enNameLanguage": "Arrayan",
        "location": {
          "lat": 14.783,
          "lng": -88.683
        },
        "keyAccentLanguage": "arrayan"
      },
      {
        "code": 0,
        "type": "City",
        "enNameLanguage": "Carrizalito",
        "location": {
          "lat": 14.683,
          "lng": -88.9
        },
        "keyAccentLanguage": "carrizalito"
      },
      {
        "code": 0,
        "type": "City",
        "enNameLanguage": "Apazote",
        "location": {
          "lat": 14.767,
          "lng": -88.783
        },
        "keyAccentLanguage": "apazote"
      },
      {
        "code": 0,
        "type": "City",
        "enNameLanguage": "Banderillas",
        "location": {
          "lat": 14.583,
          "lng": -88.817
        },
        "keyAccentLanguage": "banderillas"
      },
      {
        "code": 0,
        "type": "City",
        "enNameLanguage": "Chili Quepa",
        "location": {
          "lat": 14.55,
          "lng": -88.833
        },
        "keyAccentLanguage": "chili_quepa"
      },
      {
        "code": 0,
        "type": "City",
        "enNameLanguage": "Canoncitos",
        "location": {
          "lat": 15,
          "lng": -88.917
        },
        "keyAccentLanguage": "canoncitos"
      },
      {
        "code": 0,
        "type": "City",
        "enNameLanguage": "Agua Escondida",
        "location": {
          "lat": 14.75,
          "lng": -88.683
        },
        "keyAccentLanguage": "agua_escondida"
      },
      {
        "code": 0,
        "type": "City",
        "enNameLanguage": "Agua Buena Arriba",
        "location": {
          "lat": 15,
          "lng": -89.167
        },
        "keyAccentLanguage": "agua_buena_arriba"
      },
      {
        "code": 0,
        "type": "City",
        "enNameLanguage": "Agua Buena",
        "location": {
          "lat": 14.767,
          "lng": -88.8
        },
        "keyAccentLanguage": "agua_buena"
      },
      {
        "code": 0,
        "type": "City",
        "enNameLanguage": "Caltatata",
        "location": {
          "lat": 14.583,
          "lng": -88.883
        },
        "keyAccentLanguage": "caltatata"
      },
      {
        "code": 0,
        "type": "City",
        "enNameLanguage": "Agua Sucia",
        "location": {
          "lat": 14.767,
          "lng": -88.783
        },
        "keyAccentLanguage": "agua_sucia"
      },
      {
        "code": 0,
        "type": "City",
        "enNameLanguage": "Banaderos",
        "location": {
          "lat": 14.867,
          "lng": -88.933
        },
        "keyAccentLanguage": "banaderos"
      },
      {
        "code": 0,
        "type": "City",
        "enNameLanguage": "Cabanas",
        "location": {
          "lat": 14.833,
          "lng": -89.094
        },
        "keyAccentLanguage": "cabanas"
      },
      {
        "code": 0,
        "type": "City",
        "enNameLanguage": "Batideros",
        "location": {
          "lat": 14.85,
          "lng": -89.05
        },
        "keyAccentLanguage": "batideros"
      },
      {
        "code": 0,
        "type": "City",
        "enNameLanguage": "Dulce Nombre",
        "location": {
          "lat": 14.848,
          "lng": -88.834
        },
        "keyAccentLanguage": "dulce_nombre"
      },
      {
        "code": 0,
        "type": "City",
        "enNameLanguage": "Agua Zarca",
        "location": {
          "lat": 14.883,
          "lng": -89.1
        },
        "keyAccentLanguage": "agua_zarca"
      },
      {
        "code": 0,
        "type": "City",
        "enNameLanguage": "Chivirilal",
        "location": {
          "lat": 14.65,
          "lng": -88.95
        },
        "keyAccentLanguage": "chivirilal"
      },
      {
        "code": 0,
        "type": "City",
        "enNameLanguage": "Agualote",
        "location": {
          "lat": 15.033,
          "lng": -88.75
        },
        "keyAccentLanguage": "agualote"
      },
      {
        "code": 0,
        "type": "City",
        "enNameLanguage": "Canon de Barbascal",
        "location": {
          "lat": 14.867,
          "lng": -88.917
        },
        "keyAccentLanguage": "canon_de_barbascal"
      },
      {
        "code": 0,
        "type": "City",
        "enNameLanguage": "Agua Blanca",
        "location": {
          "lat": 15.05,
          "lng": -88.733
        },
        "keyAccentLanguage": "agua_blanca"
      },
      {
        "code": 0,
        "type": "City",
        "enNameLanguage": "Candelillo",
        "location": {
          "lat": 14.9,
          "lng": -88.933
        },
        "keyAccentLanguage": "candelillo"
      },
      {
        "code": 0,
        "type": "City",
        "enNameLanguage": "Carrizal",
        "location": {
          "lat": 14.717,
          "lng": -88.95
        },
        "keyAccentLanguage": "carrizal"
      },
      {
        "code": 0,
        "type": "City",
        "enNameLanguage": "Barranca Grita",
        "location": {
          "lat": 15.2,
          "lng": -88.717
        },
        "keyAccentLanguage": "barranca_grita"
      },
      {
        "code": 0,
        "type": "City",
        "enNameLanguage": "Boca del Monte",
        "location": {
          "lat": 14.55,
          "lng": -88.833
        },
        "keyAccentLanguage": "boca_del_monte"
      },
      {
        "code": 0,
        "type": "City",
        "enNameLanguage": "Agua Buena Abajo",
        "location": {
          "lat": 15.017,
          "lng": -89.15
        },
        "keyAccentLanguage": "agua_buena_abajo"
      },
      {
        "code": 0,
        "type": "City",
        "enNameLanguage": "Ceiba Primera",
        "location": {
          "lat": 15.033,
          "lng": -89.083
        },
        "keyAccentLanguage": "ceiba_primera"
      },
      {
        "code": 0,
        "type": "City",
        "enNameLanguage": "Pueblo San Agustin",
        "location": {
          "lat": 14.783,
          "lng": -88.817
        },
        "keyAccentLanguage": "pueblo_san_agustin"
      },
      {
        "code": 0,
        "type": "City",
        "enNameLanguage": "Achiotes",
        "location": {
          "lat": 14.917,
          "lng": -89.033
        },
        "keyAccentLanguage": "achiotes"
      },
      {
        "code": 0,
        "type": "City",
        "enNameLanguage": "Chalmeca",
        "location": {
          "lat": 15.1,
          "lng": -88.683
        },
        "keyAccentLanguage": "chalmeca"
      },
      {
        "code": 0,
        "type": "City",
        "enNameLanguage": "Cancolo",
        "location": {
          "lat": 14.85,
          "lng": -88.7
        },
        "keyAccentLanguage": "cancolo"
      },
      {
        "code": 0,
        "type": "City",
        "enNameLanguage": "Celaque",
        "location": {
          "lat": 14.583,
          "lng": -88.8
        },
        "keyAccentLanguage": "celaque"
      },
      {
        "code": 0,
        "type": "City",
        "enNameLanguage": "Delicias",
        "location": {
          "lat": 14.767,
          "lng": -88.733
        },
        "keyAccentLanguage": "delicias"
      },
      {
        "code": 0,
        "type": "City",
        "enNameLanguage": "Cuchilla Enserrada",
        "location": {
          "lat": 15.017,
          "lng": -88.883
        },
        "keyAccentLanguage": "cuchilla_enserrada"
      },
      {
        "code": 0,
        "type": "City",
        "enNameLanguage": "Ajagual",
        "location": {
          "lat": 14.65,
          "lng": -88.783
        },
        "keyAccentLanguage": "ajagual"
      },
      {
        "code": 0,
        "type": "City",
        "enNameLanguage": "Conal",
        "location": {
          "lat": 14.883,
          "lng": -88.7
        },
        "keyAccentLanguage": "conal"
      },
      {
        "code": 0,
        "type": "City",
        "enNameLanguage": "Cartagua",
        "location": {
          "lat": 14.633,
          "lng": -88.85
        },
        "keyAccentLanguage": "cartagua"
      },
      {
        "code": 0,
        "type": "City",
        "enNameLanguage": "Carrizalon",
        "location": {
          "lat": 14.917,
          "lng": -89.017
        },
        "keyAccentLanguage": "carrizalon"
      },
      {
        "code": 0,
        "type": "City",
        "enNameLanguage": "Culebria",
        "location": {
          "lat": 14.8,
          "lng": -88.717
        },
        "keyAccentLanguage": "culebria"
      },
      {
        "code": 0,
        "type": "City",
        "enNameLanguage": "Agua Caliente",
        "location": {
          "lat": 14.883,
          "lng": -88.817
        },
        "keyAccentLanguage": "agua_caliente"
      },
      {
        "code": 0,
        "type": "City",
        "enNameLanguage": "Colatina",
        "location": {
          "lat": 14.85,
          "lng": -88.733
        },
        "keyAccentLanguage": "colatina"
      },