[
  {
    "code": 0,
    "type": "State",
    "location": {
      "lat": 0.8554988,
      "lng": 36.0893406
    },
    "districtList": [
      {
        "code": 0,
        "type": "City",
        "enNameLanguage": "Talai",
        "location": {
          "lat": 0.5723186000000001,
          "lng": 35.8170876
        },
        "keyAccentLanguage": "talai"
      },
      {
        "code": 0,
        "type": "City",
        "enNameLanguage": "Kampi Ya Samaki",
        "location": {
          "lat": 0.6,
          "lng": 36.017
        },
        "keyAccentLanguage": "kampi_ya_samaki"
      },
      {
        "code": 0,
        "type": "City",
        "enNameLanguage": "Kabluk",
        "location": {
          "lat": 0.567,
          "lng": 35.65
        },
        "keyAccentLanguage": "kabluk"
      },
      {
        "code": 0,
        "type": "City",
        "enNameLanguage": "Kinyach",
        "location": {
          "lat": 0.933,
          "lng": 35.683
        },
        "keyAccentLanguage": "kinyach"
      },
      {
        "code": 0,
        "type": "City",
        "enNameLanguage": "Kapkalelwa",
        "location": {
          "lat": 0.367,
          "lng": 35.717
        },
        "keyAccentLanguage": "kapkalelwa"
      },
      {
        "code": 0,
        "type": "City",
        "enNameLanguage": "Emining",
        "location": {
          "lat": 0.149,
          "lng": 35.885
        },
        "keyAccentLanguage": "emining"
      },
      {
        "code": 0,
        "type": "City",
        "enNameLanguage": "Kapturwo",
        "location": {
          "lat": 0.633,
          "lng": 35.667
        },
        "keyAccentLanguage": "kapturwo"
      },
      {
        "code": 0,
        "type": "City",
        "enNameLanguage": "Chemogoch",
        "location": {
          "lat": 0.017,
          "lng": 35.933
        },
        "keyAccentLanguage": "chemogoch"
      },
      {
        "code": 0,
        "type": "City",
        "enNameLanguage": "Barwesa",
        "location": {
          "lat": 0.717,
          "lng": 35.733
        },
        "keyAccentLanguage": "barwesa"
      },
      {
        "code": 0,
        "type": "City",
        "enNameLanguage": "Chemosusu",
        "location": {
          "lat": 0.083,
          "lng": 35.633
        },
        "keyAccentLanguage": "chemosusu"
      },
      {
        "code": 0,
        "type": "City",
        "enNameLanguage": "Mukutan",
        "location": {
          "lat": 0.633,
          "lng": 36.267
        },
        "keyAccentLanguage": "mukutan"
      },
      {
        "code": 0,
        "type": "City",
        "enNameLanguage": "Sabatia",
        "location": {
          "lat": -0.043,
          "lng": 35.729
        },
        "keyAccentLanguage": "sabatia"
      },
      {
        "code": 0,
        "type": "City",
        "enNameLanguage": "Mogotio",
        "location": {
          "lat": -0.017,
          "lng": 35.967
        },
        "keyAccentLanguage": "mogotio"
      },
      {
        "code": 0,
        "type": "City",
        "enNameLanguage": "Kimoset",
        "location": {
          "lat": 0.217,
          "lng": 35.9
        },
        "keyAccentLanguage": "kimoset"
      },
      {
        "code": 0,
        "type": "City",
        "enNameLanguage": "Kolowa",
        "location": {
          "lat": 1.223,
          "lng": 35.747
        },
        "keyAccentLanguage": "kolowa"
      },
      {
        "code": 0,
        "type": "City",
        "enNameLanguage": "Bartolimo",
        "location": {
          "lat": 0.683,
          "lng": 35.817
        },
        "keyAccentLanguage": "bartolimo"
      },
      {
        "code": 0,
        "type": "City",
        "enNameLanguage": "Kabimoi",
        "location": {
          "lat": 0.017,
          "lng": 35.783
        },
        "keyAccentLanguage": "kabimoi"
      },
      {
        "code": 0,
        "type": "City",
        "enNameLanguage": "Nyalilpuch",
        "location": {
          "lat": 0.233,
          "lng": 36.15
        },
        "keyAccentLanguage": "nyalilpuch"
      },
      {
        "code": 0,
        "type": "City",
        "enNameLanguage": "Mugurin",
        "location": {
          "lat": 0.1,
          "lng": 36.033
        },
        "keyAccentLanguage": "mugurin"
      },
      {
        "code": 0,
        "type": "City",
        "enNameLanguage": "Sesia",
        "location": {
          "lat": 0.5,
          "lng": 35.817
        },
        "keyAccentLanguage": "sesia"
      },
      {
        "code": 0,
        "type": "City",
        "enNameLanguage": "Kabartonjo",
        "location": {
          "lat": 0.661,
          "lng": 35.812
        },
        "keyAccentLanguage": "kabartonjo"
      },
      {
        "code": 0,
        "type": "City",
        "enNameLanguage": "Salabani",
        "location": {
          "lat": 0.55,
          "lng": 36.043
        },
        "keyAccentLanguage": "salabani"
      },
      {
        "code": 0,
        "type": "City",
        "enNameLanguage": "Sibilo",
        "location": {
          "lat": 0.711,
          "lng": 35.888
        },
        "keyAccentLanguage": "sibilo"
      },
      {
        "code": 0,
        "type": "City",
        "enNameLanguage": "Equator",
        "location": {
          "lat": 0.031,
          "lng": 35.566
        },
        "keyAccentLanguage": "equator"
      },
      {
        "code": 0,
        "type": "City",
        "enNameLanguage": "Kamarabuyon",
        "location": {
          "lat": 0.483,
          "lng": 36.183
        },
        "keyAccentLanguage": "kamarabuyon"
      },
      {
        "code": 0,
        "type": "City",
        "enNameLanguage": "Esageri",
        "location": {
          "lat": 0.017,
          "lng": 35.817
        },
        "keyAccentLanguage": "esageri"
      },
      {
        "code": 0,
        "type": "City",
        "enNameLanguage": "Solai",
        "location": {
          "lat": 0.089,
          "lng": 36.108
        },
        "keyAccentLanguage": "solai"
      },
      {
        "code": 0,
        "type": "City",
        "enNameLanguage": "Kabarnet",
        "location": {
          "lat": 0.498,
          "lng": 35.732
        },
        "keyAccentLanguage": "kabarnet"
      },
      {
        "code": 0,
        "type": "City",
        "enNameLanguage": "Tangulbei",
        "location": {
          "lat": 0.806,
          "lng": 36.281
        },
        "keyAccentLanguage": "tangulbei"
      },
      {
        "code": 0,
        "type": "City",
        "enNameLanguage": "Serkongun",
        "location": {
          "lat": 0.6,
          "lng": 35.767
        },
        "keyAccentLanguage": "serkongun"
      },
      {
        "code": 0,
        "type": "City",
        "enNameLanguage": "Churo",
        "location": {
          "lat": 0.784,
          "lng": 36.396
        },
        "keyAccentLanguage": "churo"
      },
      {
        "code": 0,
        "type": "City",
        "enNameLanguage": "Kiptagich",
        "location": {
          "lat": 0.383,
          "lng": 35.8
        },
        "keyAccentLanguage": "kiptagich"
      },
      {
        "code": 0,
        "type": "City",
        "enNameLanguage": "Tenges",
        "location": {
          "lat": 0.302,
          "lng": 35.801
        },
        "keyAccentLanguage": "tenges"
      },
      {
        "code": 0,
        "type": "City",
        "enNameLanguage": "Pemwai",
        "location": {
          "lat": 0.567,
          "lng": 35.767
        },
        "keyAccentLanguage": "pemwai"
      },
      {
        "code": 0,
        "type": "City",
        "enNameLanguage": "Kasisit",
        "location": {
          "lat": 0.633,
          "lng": 35.833
        },
        "keyAccentLanguage": "kasisit"
      },
      {
        "code": 0,
        "type": "City",
        "enNameLanguage": "Seretunin",
        "location": {
          "lat": 0.559,
          "lng": 35.785
        },
        "keyAccentLanguage": "seretunin"
      },
      {
        "code": 0,
        "type": "City",
        "enNameLanguage": "Logumukum",
        "location": {
          "lat": 0.449,
          "lng": 36.079
        },
        "keyAccentLanguage": "logumukum"
      },
      {
        "code": 0,
        "type": "City",
        "enNameLanguage": "Timboiwo",
        "location": {
          "lat": 0.417,
          "lng": 35.8
        },
        "keyAccentLanguage": "timboiwo"
      },
      {
        "code": 0,
        "type": "City",
        "enNameLanguage": "Bartabwa",
        "location": {
          "lat": 0.833,
          "lng": 35.8
        },
        "keyAccentLanguage": "bartabwa"
      },
      {
        "code": 0,
        "type": "City",
        "enNameLanguage": "Issas",
        "location": {
          "lat": 0.717,
          "lng": 35.817
        },
        "keyAccentLanguage": "issas"
      },
      {
        "code": 0,
        "type": "City",
        "enNameLanguage": "Baringo",
        "location": {
          "lat": 0.462,
          "lng": 35.965
        },
        "keyAccentLanguage": "baringo"
      },
      {
        "code": 0,
        "type": "City",
        "enNameLanguage": "Nginyang",
        "location": {
          "lat": 0.959,
          "lng": 36.008
        },
        "keyAccentLanguage": "nginyang"
      },
      {
        "code": 0,
        "type": "City",
        "enNameLanguage": "Cheberen",
        "location": {
          "lat": 0.233,
          "lng": 35.833
        },
        "keyAccentLanguage": "cheberen"
      },
      {
        "code": 0,
        "type": "City",
        "enNameLanguage": "Karpedo",
        "location": {
          "lat": 1.172,
          "lng": 36.071
        },
        "keyAccentLanguage": "karpedo"
      },
      {
        "code": 0,
        "type": "City",
        "enNameLanguage": "Marigat",
        "location": {
          "lat": 0.467,
          "lng": 35.983
        },
        "keyAccentLanguage": "marigat"
      },
      {
        "code": 0,
        "type": "City",
        "enNameLanguage": "Nosuguro",
        "location": {
          "lat": 0.582,
          "lng": 36.128
        },
        "keyAccentLanguage": "nosuguro"
      },
      {
        "code": 0,
        "type": "City",
        "enNameLanguage": "Kipcherere",
        "location": {
          "lat": 0.583,
          "lng": 35.85
        },
        "keyAccentLanguage": "kipcherere"
      },
      {
        "code": 0,
        "type": "City",
        "enNameLanguage": "Langarwa",
        "location": {
          "lat": 0.467,
          "lng": 36.05
        },
        "keyAccentLanguage": "langarwa"
      },
      {
        "code": 0,
        "type": "City",
        "enNameLanguage": "Chemoigut",
        "location": {
          "lat": 0.687,
          "lng": 36.206
        },
        "keyAccentLanguage": "chemoigut"
      },
      {
        "code": 0,
        "type": "City",
        "enNameLanguage": "Maji Mazuri",
        "location": {
          "lat": -0.007,
          "lng": 35.674
        },
        "keyAccentLanguage": "maji_mazuri"
      },
      {
        "code": 0,
        "type": "City",
        "enNameLanguage": "Yatya",
        "location": {
          "lat": 0.783,
          "lng": 35.917
        },
        "keyAccentLanguage": "yatya"
      },
      {
        "code": 0,
        "type": "City",
        "enNameLanguage": "Metkei",
        "location": {
          "lat": 0.167,
          "lng": 35.617
        },
        "keyAccentLanguage": "metkei"
      },
      {
        "code": 0,
        "type": "City",
        "enNameLanguage": "Kapchepkor",
        "location": {
          "lat": 0.617,
          "lng": 35.8
        },
        "keyAccentLanguage": "kapchepkor"
      },
      {
        "code": 0,
        "type": "City",
        "enNameLanguage": "Kibingor",
        "location": {
          "lat": 0.5,
          "lng": 35.867
        },
        "keyAccentLanguage": "kibingor"
      },
      {
        "code": 0,
        "type": "City",
        "enNameLanguage": "Loruk",
        "location": {
          "lat": 0.713,
          "lng": 36.025
        },
        "keyAccentLanguage": "loruk"
      },
      {
        "code": 0,
        "type": "City",
        "enNameLanguage": "Loiminange",
        "location": {
          "lat": 0.538,
          "lng": 36.102
        },
        "keyAccentLanguage": "loiminange"
      },
      {
        "code": 0,
        "type": "City",
        "enNameLanguage": "Tirimionin",
        "location": {
          "lat": 0.667,
          "lng": 35.817
        },
        "keyAccentLanguage": "tirimionin"
      },
      {
        "code": 0,
        "type": "City",
        "enNameLanguage": "Kimnai",
        "location": {
          "lat": 0.967,
          "lng": 35.683
        },
        "keyAccentLanguage": "kimnai"
      },
      {
        "code": 0,
        "type": "City",
        "enNameLanguage": "Maji Ya Moto",
        "location": {
          "lat": 0.269,
          "lng": 36.041
        },
        "keyAccentLanguage": "maji_ya_moto"
      },
      {
        "code": 0,
        "type": "City",
        "enNameLanguage": "Tiriondonin",
        "location": {
          "lat": 0.633,
          "lng": 35.767
        },
        "keyAccentLanguage": "tiriondonin"
      },
      {
        "code": 0,
        "type": "City",
        "enNameLanguage": "Eldama Ravine",
        "location": {
          "lat": 0.052,
          "lng": 35.72
        },
        "keyAccentLanguage": "eldama_ravine"
      },
      {
        "code": 0,
        "type": "City",
        "enNameLanguage": "Poi",
        "location": {
          "lat": 0.767,
          "lng": 35.817
        },
        "keyAccentLanguage": "poi"
      },
      {
        "code": 0,
        "type": "City",
        "enNameLanguage": "Ndau",
        "location": {
          "lat": 0.55,
          "lng": 35.95
        },
        "keyAccentLanguage": "ndau"
      },
      {
        "code": 0,
        "type": "City",
        "enNameLanguage": "Sandai",
        "location": {
          "lat": 0.356,
          "lng": 36.058
        },
        "keyAccentLanguage": "sandai"
      },
      {
        "code": 0,
        "type": "City",
        "enNameLanguage": "Lorwok",
        "location": {
          "lat": 0.35,
          "lng": 36.05
        },
        "keyAccentLanguage": "lorwok"
      },
      {
        "code": 0,
        "type": "City",
        "enNameLanguage": "Chepkesin",
        "location": {
          "lat": 0.883,
          "lng": 35.883
        },
        "keyAccentLanguage": "chepkesin"
      },
      {
        "code": 0,
        "type": "City",
        "enNameLanguage": "Kaption",
        "location": {
          "lat": 0.7,
          "lng": 35.733
        },
        "keyAccentLanguage": "kaption"
      },
      {
        "code": 0,
        "type": "City",
        "enNameLanguage": "Kamarr",
        "location": {
          "lat": 0.267,
          "lng": 36.017
        },
        "keyAccentLanguage": "kamarr"
      },
      {
        "code": 0,
        "type": "City",
        "enNameLanguage": "Kimngorom",
        "location": {
          "lat": 0.167,
          "lng": 35.817
        },
        "keyAccentLanguage": "kimngorom"
      }
    ],
    "enNameLanguage": "Baringo",
    "keyAccentLanguage": "baringo"
  },
  {
    "code": 0,
    "type": "State",
    "location": {
      "lat": -0.8015009,
      "lng": 35.3027226
    },
    "districtList": [
      {
        "code": 0,
        "type": "City",
        "enNameLanguage": "Bomet",
        "location": {
          "lat": -0.813,
          "lng": 35.352
        },
        "keyAccentLanguage": "bomet"
      },
      {
        "code": 0,
        "type": "City",
        "enNameLanguage": "Kamugeno",
        "location": {
          "lat": -0.817,
          "lng": 35.117
        },
        "keyAccentLanguage": "kamugeno"
      },
      {
        "code": 0,
        "type": "City",
        "enNameLanguage": "Koiwa",
        "location": {
          "lat": -0.598,
          "lng": 35.313
        },
        "keyAccentLanguage": "koiwa"
      },
      {
        "code": 0,
        "type": "City",
        "enNameLanguage": "Ndanai",
        "location": {
          "lat": -0.833,
          "lng": 35.1
        },
        "keyAccentLanguage": "ndanai"
      },
      {
        "code": 0,
        "type": "City",
        "enNameLanguage": "Sotik",
        "location": {
          "lat": -0.66,
          "lng": 35.189
        },
        "keyAccentLanguage": "sotik"
      },
      {
        "code": 0,
        "type": "City",
        "enNameLanguage": "Chemaner",
        "location": {
          "lat": -0.783,
          "lng": 35.5
        },
        "keyAccentLanguage": "chemaner"
      },
      {
        "code": 0,
        "type": "City",
        "enNameLanguage": "Kepkoros",
        "location": {
          "lat": -0.681,
          "lng": 35.327
        },
        "keyAccentLanguage": "kepkoros"
      },
      {
        "code": 0,
        "type": "City",
        "enNameLanguage": "Siongiroi",
        "location": {
          "lat": -0.917,
          "lng": 35.217
        },
        "keyAccentLanguage": "siongiroi"
      },
      {
        "code": 0,
        "type": "City",
        "enNameLanguage": "Ndamichoni",
        "location": {
          "lat": -0.8,
          "lng": 35.183
        },
        "keyAccentLanguage": "ndamichoni"
      },
      {
        "code": 0,
        "type": "City",
        "enNameLanguage": "Kaboson",
        "location": {
          "lat": -0.99,
          "lng": 35.245
        },
        "keyAccentLanguage": "kaboson"
      },
      {
        "code": 0,
        "type": "City",
        "enNameLanguage": "Gorgor",
        "location": {
          "lat": -0.897,
          "lng": 35.071
        },
        "keyAccentLanguage": "gorgor"
      }
    ],
    "enNameLanguage": "Bomet",
    "keyAccentLanguage": "bomet"
  },
  {
    "code": 0,
    "type": "State",
    "location": {
      "lat": 0.5695252,
      "lng": 34.5583766
    },
    "districtList": [
      {
        "code": 0,
        "type": "City",
        "enNameLanguage": "Chwele",
        "location": {
          "lat": 0.7358836,
          "lng": 34.5777565
        },
        "keyAccentLanguage": "chwele"
      },
      {
        "code": 0,
        "type": "City",
        "enNameLanguage": "Chesakaki",
        "location": {
          "lat": 0.8,
          "lng": 34.5
        },
        "keyAccentLanguage": "chesakaki"
      },
      {
        "code": 0,
        "type": "City",
        "enNameLanguage": "Walanga",
        "location": {
          "lat": 0.833,
          "lng": 34.417
        },
        "keyAccentLanguage": "walanga"
      },
      {
        "code": 0,
        "type": "City",
        "enNameLanguage": "Mateka",
        "location": {
          "lat": 0.535,
          "lng": 34.498
        },
        "keyAccentLanguage": "mateka"
      },
      {
        "code": 0,
        "type": "City",
        "enNameLanguage": "Ndakulu",
        "location": {
          "lat": 0.733,
          "lng": 34.45
        },
        "keyAccentLanguage": "ndakulu"
      },
      {
        "code": 0,
        "type": "City",
        "enNameLanguage": "Kapsakwony",
        "location": {
          "lat": 0.85,
          "lng": 34.717
        },
        "keyAccentLanguage": "kapsakwony"
      },
      {
        "code": 0,
        "type": "City",
        "enNameLanguage": "Wamono",
        "location": {
          "lat": 0.791,
          "lng": 34.434
        },
        "keyAccentLanguage": "wamono"
      },
      {
        "code": 0,
        "type": "City",
        "enNameLanguage": "Myanga",
        "location": {
          "lat": 0.625,
          "lng": 34.513
        },
        "keyAccentLanguage": "myanga"
      },
      {
        "code": 0,
        "type": "City",
        "enNameLanguage": "Chelebe",
        "location": {
          "lat": 0.8,
          "lng": 34.55
        },
        "keyAccentLanguage": "chelebe"
      },
      {
        "code": 0,
        "type": "City",
        "enNameLanguage": "Bungoma",
        "location": {
          "lat": 0.569,
          "lng": 34.561
        },
        "keyAccentLanguage": "bungoma"
      },
      {
        "code": 0,
        "type": "City",
        "enNameLanguage": "Malikisi",
        "location": {
          "lat": 0.674,
          "lng": 34.415
        },
        "keyAccentLanguage": "malikisi"
      },
      {
        "code": 0,
        "type": "City",
        "enNameLanguage": "Misikhu",
        "location": {
          "lat": 0.718,
          "lng": 34.755
        },
        "keyAccentLanguage": "misikhu"
      },
      {
        "code": 0,
        "type": "City",
        "enNameLanguage": "Wangoma",
        "location": {
          "lat": 0.767,
          "lng": 34.45
        },
        "keyAccentLanguage": "wangoma"
      },
      {
        "code": 0,
        "type": "City",
        "enNameLanguage": "Sichei",
        "location": {
          "lat": 0.717,
          "lng": 34.633
        },
        "keyAccentLanguage": "sichei"
      },
      {
        "code": 0,
        "type": "City",
        "enNameLanguage": "Kamakuywa",
        "location": {
          "lat": 0.783,
          "lng": 34.783
        },
        "keyAccentLanguage": "kamakuywa"
      },
      {
        "code": 0,
        "type": "City",
        "enNameLanguage": "Kimaeti",
        "location": {
          "lat": 0.605,
          "lng": 34.41
        },
        "keyAccentLanguage": "kimaeti"
      },
      {
        "code": 0,
        "type": "City",
        "enNameLanguage": "Wariva",
        "location": {
          "lat": 1.033,
          "lng": 34.567
        },
        "keyAccentLanguage": "wariva"
      },
      {
        "code": 0,
        "type": "City",
        "enNameLanguage": "Webuye",
        "location": {
          "lat": 0.595,
          "lng": 34.779
        },
        "keyAccentLanguage": "webuye"
      },
      {
        "code": 0,
        "type": "City",
        "enNameLanguage": "Kuywa",
        "location": {
          "lat": 0.75,
          "lng": 34.633
        },
        "keyAccentLanguage": "kuywa"
      },
      {
        "code": 0,
        "type": "City",
        "enNameLanguage": "Kapkateny",
        "location": {
          "lat": 0.799,
          "lng": 34.611
        },
        "keyAccentLanguage": "kapkateny"
      },
      {
        "code": 0,
        "type": "City",
        "enNameLanguage": "Bokoli",
        "location": {
          "lat": 0.707,
          "lng": 34.66
        },
        "keyAccentLanguage": "bokoli"
      },
      {
        "code": 0,
        "type": "City",
        "enNameLanguage": "Kamusinga",
        "location": {
          "lat": 0.8,
          "lng": 34.7
        },
        "keyAccentLanguage": "kamusinga"
      },
      {
        "code": 0,
        "type": "City",
        "enNameLanguage": "Naitiri",
        "location": {
          "lat": 0.757,
          "lng": 34.894
        },
        "keyAccentLanguage": "naitiri"
      },
      {
        "code": 0,
        "type": "City",
        "enNameLanguage": "Laboot",
        "location": {
          "lat": 1.017,
          "lng": 34.617
        },
        "keyAccentLanguage": "laboot"
      },
      {
        "code": 0,
        "type": "City",
        "enNameLanguage": "Kimilili",
        "location": {
          "lat": 0.785,
          "lng": 34.718
        },
        "keyAccentLanguage": "kimilili"
      },
      {
        "code": 0,
        "type": "City",
        "enNameLanguage": "Kaptama",
        "location": {
          "lat": 0.883,
          "lng": 34.767
        },
        "keyAccentLanguage": "kaptama"
      }
    ],
    "enNameLanguage": "Bungoma",
    "keyAccentLanguage": "bungoma"
  },
  {
    "code": 0,
    "type": "State",
    "location": {
      "lat": 0.4607691,
      "lng": 34.1114621
    },
    "districtList": [
      {
        "code": 0,
        "type": "City",
        "enNameLanguage": "Nangina",
        "location": {
          "lat": 0.2762871,
          "lng": 34.1017217
        },
        "keyAccentLanguage": "nangina"
      },
      {
        "code": 0,
        "type": "City",
        "enNameLanguage": "Bumala",
        "location": {
          "lat": 0.305,
          "lng": 34.199
        },
        "keyAccentLanguage": "bumala"
      },
      {
        "code": 0,
        "type": "City",
        "enNameLanguage": "Lugulu",
        "location": {
          "lat": 0.394,
          "lng": 34.305
        },
        "keyAccentLanguage": "lugulu"
      },
      {
        "code": 0,
        "type": "City",
        "enNameLanguage": "Lwero",
        "location": {
          "lat": 0.45,
          "lng": 34.133
        },
        "keyAccentLanguage": "lwero"
      },
      {
        "code": 0,
        "type": "City",
        "enNameLanguage": "Nambale",
        "location": {
          "lat": 0.457,
          "lng": 34.244
        },
        "keyAccentLanguage": "nambale"
      },
      {
        "code": 0,
        "type": "City",
        "enNameLanguage": "Galafahi",
        "location": {
          "lat": 0.1,
          "lng": 34
        },
        "keyAccentLanguage": "galafahi"
      },
      {
        "code": 0,
        "type": "City",
        "enNameLanguage": "Amakura",
        "location": {
          "lat": 0.571,
          "lng": 34.272
        },
        "keyAccentLanguage": "amakura"
      },
      {
        "code": 0,
        "type": "City",
        "enNameLanguage": "Malanga",
        "location": {
          "lat": 0.417,
          "lng": 34.286
        },
        "keyAccentLanguage": "malanga"
      },
      {
        "code": 0,
        "type": "City",
        "enNameLanguage": "Mbweka",
        "location": {
          "lat": 0.45,
          "lng": 34.15
        },
        "keyAccentLanguage": "mbweka"
      },
      {
        "code": 0,
        "type": "City",
        "enNameLanguage": "Busike",
        "location": {
          "lat": 0.028,
          "lng": 33.992
        },
        "keyAccentLanguage": "busike"
      },
      {
        "code": 0,
        "type": "City",
        "enNameLanguage": "Lugare",
        "location": {
          "lat": 0.083,
          "lng": 34
        },
        "keyAccentLanguage": "lugare"
      },
      {
        "code": 0,
        "type": "City",
        "enNameLanguage": "Bumudondo",
        "location": {
          "lat": 0.067,
          "lng": 34.033
        },
        "keyAccentLanguage": "bumudondo"
      },
      {
        "code": 0,
        "type": "City",
        "enNameLanguage": "Bukangasi",
        "location": {
          "lat": 0.083,
          "lng": 34.033
        },
        "keyAccentLanguage": "bukangasi"
      },
      {
        "code": 0,
        "type": "City",
        "enNameLanguage": "Chelelemuk",
        "location": {
          "lat": 0.692,
          "lng": 34.359
        },
        "keyAccentLanguage": "chelelemuk"
      },
      {
        "code": 0,
        "type": "City",
        "enNameLanguage": "Malaba",
        "location": {
          "lat": 0.633,
          "lng": 34.284
        },
        "keyAccentLanguage": "malaba"
      },
      {
        "code": 0,
        "type": "City",
        "enNameLanguage": "Bunaba",
        "location": {
          "lat": 0.067,
          "lng": 33.967
        },
        "keyAccentLanguage": "bunaba"
      },
      {
        "code": 0,
        "type": "City",
        "enNameLanguage": "Musoma",
        "location": {
          "lat": 0.383,
          "lng": 34.167
        },
        "keyAccentLanguage": "musoma"
      },
      {
        "code": 0,
        "type": "City",
        "enNameLanguage": "Debani",
        "location": {
          "lat": 0.1,
          "lng": 34
        },
        "keyAccentLanguage": "debani"
      },
      {
        "code": 0,
        "type": "City",
        "enNameLanguage": "Idokho",
        "location": {
          "lat": 0.05,
          "lng": 34
        },
        "keyAccentLanguage": "idokho"
      },
      {
        "code": 0,
        "type": "City",
        "enNameLanguage": "Kolanya",
        "location": {
          "lat": 0.705,
          "lng": 34.397
        },
        "keyAccentLanguage": "kolanya"
      },
      {
        "code": 0,
        "type": "City",
        "enNameLanguage": "Marach",
        "location": {
          "lat": 0.327,
          "lng": 34.316
        },
        "keyAccentLanguage": "marach"
      },
      {
        "code": 0,
        "type": "City",
        "enNameLanguage": "Namyoso",
        "location": {
          "lat": 0.317,
          "lng": 34.083
        },
        "keyAccentLanguage": "namyoso"
      },
      {
        "code": 0,
        "type": "City",
        "enNameLanguage": "Bukoma",
        "location": {
          "lat": 0.067,
          "lng": 33.95
        },
        "keyAccentLanguage": "bukoma"
      },
      {
        "code": 0,
        "type": "City",
        "enNameLanguage": "Siamufua",
        "location": {
          "lat": 0.117,
          "lng": 34.067
        },
        "keyAccentLanguage": "siamufua"
      },
      {
        "code": 0,
        "type": "City",
        "enNameLanguage": "Karadolo",
        "location": {
          "lat": 0.25,
          "lng": 34.133
        },
        "keyAccentLanguage": "karadolo"
      },
      {
        "code": 0,
        "type": "City",
        "enNameLanguage": "Bulemia",
        "location": {
          "lat": 0.117,
          "lng": 34
        },
        "keyAccentLanguage": "bulemia"
      },
      {
        "code": 0,
        "type": "City",
        "enNameLanguage": "Sisenye",
        "location": {
          "lat": 0.15,
          "lng": 33.983
        },
        "keyAccentLanguage": "sisenye"
      },
      {
        "code": 0,
        "type": "City",
        "enNameLanguage": "Rudacha",
        "location": {
          "lat": 0.117,
          "lng": 33.983
        },
        "keyAccentLanguage": "rudacha"
      },
      {
        "code": 0,
        "type": "City",
        "enNameLanguage": "Makhoma",
        "location": {
          "lat": 0.083,
          "lng": 34
        },
        "keyAccentLanguage": "makhoma"
      },
      {
        "code": 0,
        "type": "City",
        "enNameLanguage": "Namabusi",
        "location": {
          "lat": 0.067,
          "lng": 33.983
        },
        "keyAccentLanguage": "namabusi"
      },
      {
        "code": 0,
        "type": "City",
        "enNameLanguage": "Kholokhongo",
        "location": {
          "lat": 0.067,
          "lng": 33.983
        },
        "keyAccentLanguage": "kholokhongo"
      },
      {
        "code": 0,
        "type": "City",
        "enNameLanguage": "Kwangamor",
        "location": {
          "lat": 0.517,
          "lng": 34.287
        },
        "keyAccentLanguage": "kwangamor"
      },
      {
        "code": 0,
        "type": "City",
        "enNameLanguage": "Sikoma",
        "location": {
          "lat": 0.417,
          "lng": 34.2
        },
        "keyAccentLanguage": "sikoma"
      },
      {
        "code": 0,
        "type": "City",
        "enNameLanguage": "Rukala",
        "location": {
          "lat": 0.067,
          "lng": 34
        },
        "keyAccentLanguage": "rukala"
      },
      {
        "code": 0,
        "type": "City",
        "enNameLanguage": "Bulwani",
        "location": {
          "lat": 0.014,
          "lng": 34.011
        },
        "keyAccentLanguage": "bulwani"
      },
      {
        "code": 0,
        "type": "City",
        "enNameLanguage": "Bujwane",
        "location": {
          "lat": 0.117,
          "lng": 34.033
        },
        "keyAccentLanguage": "bujwane"
      },
      {
        "code": 0,
        "type": "City",
        "enNameLanguage": "Lumino",
        "location": {
          "lat": 0.329,
          "lng": 33.996
        },
        "keyAccentLanguage": "lumino"
      },
      {
        "code": 0,
        "type": "City",
        "enNameLanguage": "Eburemia",
        "location": {
          "lat": 0.117,
          "lng": 34.05
        },
        "keyAccentLanguage": "eburemia"
      },
      {
        "code": 0,
        "type": "City",
        "enNameLanguage": "Sirisia",
        "location": {
          "lat": 0.117,
          "lng": 34
        },
        "keyAccentLanguage": "sirisia"
      },
      {
        "code": 0,
        "type": "City",
        "enNameLanguage": "Chemasiri",
        "location": {
          "lat": 0.736,
          "lng": 34.394
        },
        "keyAccentLanguage": "chemasiri"
      },
      {
        "code": 0,
        "type": "City",
        "enNameLanguage": "Port Victoria",
        "location": {
          "lat": 0.109,
          "lng": 33.988
        },
        "keyAccentLanguage": "port_victoria"
      },
      {
        "code": 0,
        "type": "City",
        "enNameLanguage": "Matayo",
        "location": {
          "lat": 0.323,
          "lng": 34.162
        },
        "keyAccentLanguage": "matayo"
      },
      {
        "code": 0,
        "type": "City",
        "enNameLanguage": "Busia",
        "location": {
          "lat": 0.468,
          "lng": 34.088
        },
        "keyAccentLanguage": "busia"
      },
      {
        "code": 0,
        "type": "City",
        "enNameLanguage": "Sio Port",
        "location": {
          "lat": 0.224,
          "lng": 34.022
        },
        "keyAccentLanguage": "sio_port"
      }
    ],
    "enNameLanguage": "Busia",
    "keyAccentLanguage": "busia"
  },
  {
    "code": 0,
    "type": "State",
    "location": {
      "lat": 0,
      "lng": 0
    },
    "districtList": [
      {
        "code": 0,
        "type": "City",
        "enNameLanguage": "Kapteren",
        "location": {
          "lat": 0.567,
          "lng": 35.483
        },
        "keyAccentLanguage": "kapteren"
      },
      {
        "code": 0,
        "type": "City",
        "enNameLanguage": "Chebiemit",
        "location": {
          "lat": 0.85,
          "lng": 35.5
        },
        "keyAccentLanguage": "chebiemit"
      },
      {
        "code": 0,
        "type": "City",
        "enNameLanguage": "Chepkorio",
        "location": {
          "lat": 0.383,
          "lng": 35.533
        },
        "keyAccentLanguage": "chepkorio"
      },
      {
        "code": 0,
        "type": "City",
        "enNameLanguage": "Ainabkoi",
        "location": {
          "lat": 0.196,
          "lng": 35.524
        },
        "keyAccentLanguage": "ainabkoi"
      },
      {
        "code": 0,
        "type": "City",
        "enNameLanguage": "Kamwosor",
        "location": {
          "lat": 0.22,
          "lng": 35.562
        },
        "keyAccentLanguage": "kamwosor"
      },
      {
        "code": 0,
        "type": "City",
        "enNameLanguage": "Kabetwa",
        "location": {
          "lat": 1.15,
          "lng": 35.633
        },
        "keyAccentLanguage": "kabetwa"
      },
      {
        "code": 0,
        "type": "City",
        "enNameLanguage": "Biretwo",
        "location": {
          "lat": 0.547,
          "lng": 35.535
        },
        "keyAccentLanguage": "biretwo"
      },
      {
        "code": 0,
        "type": "City",
        "enNameLanguage": "Kapsowar",
        "location": {
          "lat": 0.981,
          "lng": 35.546
        },
        "keyAccentLanguage": "kapsowar"
      },
      {
        "code": 0,
        "type": "City",
        "enNameLanguage": "Kabaloamet",
        "location": {
          "lat": 1.233,
          "lng": 35.633
        },
        "keyAccentLanguage": "kabaloamet"
      },
      {
        "code": 0,
        "type": "City",
        "enNameLanguage": "Chesoi",
        "location": {
          "lat": 1.067,
          "lng": 35.6
        },
        "keyAccentLanguage": "chesoi"
      },
      {
        "code": 0,
        "type": "City",
        "enNameLanguage": "Tot",
        "location": {
          "lat": 1.207,
          "lng": 35.647
        },
        "keyAccentLanguage": "tot"
      },
      {
        "code": 0,
        "type": "City",
        "enNameLanguage": "Bugar",
        "location": {
          "lat": 0.758,
          "lng": 35.508
        },
        "keyAccentLanguage": "bugar"
      },
      {
        "code": 0,
        "type": "City",
        "enNameLanguage": "Cheboin",
        "location": {
          "lat": 0.3,
          "lng": 35.533
        },
        "keyAccentLanguage": "cheboin"
      },
      {
        "code": 0,
        "type": "City",
        "enNameLanguage": "Singore",
        "location": {
          "lat": 0.717,
          "lng": 35.517
        },
        "keyAccentLanguage": "singore"
      },
      {
        "code": 0,
        "type": "City",
        "enNameLanguage": "Iteii",
        "location": {
          "lat": 0.678,
          "lng": 35.499
        },
        "keyAccentLanguage": "iteii"
      },
      {
        "code": 0,
        "type": "City",
        "enNameLanguage": "Chepkum",
        "location": {
          "lat": 0.983,
          "lng": 35.617
        },
        "keyAccentLanguage": "chepkum"
      },
      {
        "code": 0,
        "type": "City",
        "enNameLanguage": "Kaptarakwa",
        "location": {
          "lat": 0.467,
          "lng": 35.533
        },
        "keyAccentLanguage": "kaptarakwa"
      },
      {
        "code": 0,
        "type": "City",
        "enNameLanguage": "Kapchebelel",
        "location": {
          "lat": 0.283,
          "lng": 35.567
        },
        "keyAccentLanguage": "kapchebelel"
      },
      {
        "code": 0,
        "type": "City",
        "enNameLanguage": "Nyaru",
        "location": {
          "lat": 0.333,
          "lng": 35.583
        },
        "keyAccentLanguage": "nyaru"
      },
      {
        "code": 0,
        "type": "City",
        "enNameLanguage": "Chebara",
        "location": {
          "lat": 0.883,
          "lng": 35.5
        },
        "keyAccentLanguage": "chebara"
      },
      {
        "code": 0,
        "type": "City",
        "enNameLanguage": "Tumeiyo",
        "location": {
          "lat": 0.283,
          "lng": 35.6
        },
        "keyAccentLanguage": "tumeiyo"
      },
      {
        "code": 0,
        "type": "City",
        "enNameLanguage": "Chororget",
        "location": {
          "lat": 0.4,
          "lng": 35.583
        },
        "keyAccentLanguage": "chororget"
      },
      {
        "code": 0,
        "type": "City",
        "enNameLanguage": "Tambach",
        "location": {
          "lat": 0.599,
          "lng": 35.512
        },
        "keyAccentLanguage": "tambach"
      },
      {
        "code": 0,
        "type": "City",
        "enNameLanguage": "Kimwarer",
        "location": {
          "lat": 0.317,
          "lng": 35.633
        },
        "keyAccentLanguage": "kimwarer"
      },
      {
        "code": 0,
        "type": "City",
        "enNameLanguage": "Koitilial",
        "location": {
          "lat": 0.933,
          "lng": 35.617
        },
        "keyAccentLanguage": "koitilial"
      },
      {
        "code": 0,
        "type": "City",
        "enNameLanguage": "Cheptonge",
        "location": {
          "lat": 0.933,
          "lng": 35.5
        },
        "keyAccentLanguage": "cheptonge"
      }
    ],
    "enNameLanguage": "Elgeyo/Marakwet",
    "keyAccentLanguage": "elgeyo/marakwet"
  },
  {
    "code": 0,
    "type": "State",
    "location": {
      "lat": -0.5388381,
      "lng": 37.4596409
    },
    "districtList": [
      {
        "code": 0,
        "type": "City",
        "enNameLanguage": "Embu",
        "location": {
          "lat": -0.5388381,
          "lng": 37.4596409
        },
        "keyAccentLanguage": "embu"
      },
      {
        "code": 0,
        "type": "City",
        "enNameLanguage": "Kibugu",
        "location": {
          "lat": -0.4466135,
          "lng": 37.4321172
        },
        "keyAccentLanguage": "kibugu"
      },
      {
        "code": 0,
        "type": "City",
        "enNameLanguage": "Karuari",
        "location": {
          "lat": -0.5,
          "lng": 37.717
        },
        "keyAccentLanguage": "karuari"
      },
      {
        "code": 0,
        "type": "City",
        "enNameLanguage": "Kairuri",
        "location": {
          "lat": -0.433,
          "lng": 37.467
        },
        "keyAccentLanguage": "kairuri"
      },
      {
        "code": 0,
        "type": "City",
        "enNameLanguage": "Karurumo",
        "location": {
          "lat": -0.467,
          "lng": 37.65
        },
        "keyAccentLanguage": "karurumo"
      },
      {
        "code": 0,
        "type": "City",
        "enNameLanguage": "Kanja",
        "location": {
          "lat": -0.383,
          "lng": 37.533
        },
        "keyAccentLanguage": "kanja"
      },
      {
        "code": 0,
        "type": "City",
        "enNameLanguage": "Kangethia",
        "location": {
          "lat": -0.467,
          "lng": 37.55
        },
        "keyAccentLanguage": "kangethia"
      },
      {
        "code": 0,
        "type": "City",
        "enNameLanguage": "Kasafari",
        "location": {
          "lat": -0.483,
          "lng": 37.7
        },
        "keyAccentLanguage": "kasafari"
      },
      {
        "code": 0,
        "type": "City",
        "enNameLanguage": "Gitare",
        "location": {
          "lat": -0.4,
          "lng": 37.55
        },
        "keyAccentLanguage": "gitare"
      },
      {
        "code": 0,
        "type": "City",
        "enNameLanguage": "Kiamuringa",
        "location": {
          "lat": -0.567,
          "lng": 37.533
        },
        "keyAccentLanguage": "kiamuringa"
      },
      {
        "code": 0,
        "type": "City",
        "enNameLanguage": "Kigumo",
        "location": {
          "lat": -0.417,
          "lng": 37.633
        },
        "keyAccentLanguage": "kigumo"
      },
      {
        "code": 0,
        "type": "City",
        "enNameLanguage": "Gekuuri",
        "location": {
          "lat": -0.45,
          "lng": 37.55
        },
        "keyAccentLanguage": "gekuuri"
      },
      {
        "code": 0,
        "type": "City",
        "enNameLanguage": "Gakwegore",
        "location": {
          "lat": -0.417,
          "lng": 37.583
        },
        "keyAccentLanguage": "gakwegore"
      },
      {
        "code": 0,
        "type": "City",
        "enNameLanguage": "Kanywambora",
        "location": {
          "lat": -0.467,
          "lng": 37.717
        },
        "keyAccentLanguage": "kanywambora"
      },
      {
        "code": 0,
        "type": "City",
        "enNameLanguage": "Kathungure",
        "location": {
          "lat": -0.42,
          "lng": 37.61
        },
        "keyAccentLanguage": "kathungure"
      },
      {
        "code": 0,
        "type": "City",
        "enNameLanguage": "Gichera",
        "location": {
          "lat": -0.45,
          "lng": 37.6
        },
        "keyAccentLanguage": "gichera"
      },
      {
        "code": 0,
        "type": "City",
        "enNameLanguage": "Kithunguri",
        "location": {
          "lat": -0.367,
          "lng": 37.483
        },
        "keyAccentLanguage": "kithunguri"
      },
      {
        "code": 0,
        "type": "City",
        "enNameLanguage": "Rugumu",
        "location": {
          "lat": -0.4,
          "lng": 37.45
        },
        "keyAccentLanguage": "rugumu"
      },
      {
        "code": 0,
        "type": "City",
        "enNameLanguage": "Nembure",
        "location": {
          "lat": -0.467,
          "lng": 37.517
        },
        "keyAccentLanguage": "nembure"
      },
      {
        "code": 0,
        "type": "City",
        "enNameLanguage": "Kibogi",
        "location": {
          "lat": -0.417,
          "lng": 37.517
        },
        "keyAccentLanguage": "kibogi"
      },
      {
        "code": 0,
        "type": "City",
        "enNameLanguage": "Kevote",
        "location": {
          "lat": -0.433,
          "lng": 37.533
        },
        "keyAccentLanguage": "kevote"
      },
      {
        "code": 0,
        "type": "City",
        "enNameLanguage": "Muchumo",
        "location": {
          "lat": -0.483,
          "lng": 37.6
        },
        "keyAccentLanguage": "muchumo"
      },
      {
        "code": 0,
        "type": "City",
        "enNameLanguage": "Kiritiri",
        "location": {
          "lat": -0.607,
          "lng": 37.606
        },
        "keyAccentLanguage": "kiritiri"
      },
      {
        "code": 0,
        "type": "City",
        "enNameLanguage": "Kathugu",
        "location": {
          "lat": -0.483,
          "lng": 37.583
        },
        "keyAccentLanguage": "kathugu"
      },
      {
        "code": 0,
        "type": "City",
        "enNameLanguage": "Kiambere",
        "location": {
          "lat": -0.565,
          "lng": 37.791
        },
        "keyAccentLanguage": "kiambere"
      },
      {
        "code": 0,
        "type": "City",
        "enNameLanguage": "Kathangariri",
        "location": {
          "lat": -0.4,
          "lng": 37.45
        },
        "keyAccentLanguage": "kathangariri"
      },
      {
        "code": 0,
        "type": "City",
        "enNameLanguage": "Gethemu",
        "location": {
          "lat": -0.5,
          "lng": 37.517
        },
        "keyAccentLanguage": "gethemu"
      },
      {
        "code": 0,
        "type": "City",
        "enNameLanguage": "Kirigi",
        "location": {
          "lat": -0.45,
          "lng": 37.467
        },
        "keyAccentLanguage": "kirigi"
      },
      {
        "code": 0,
        "type": "City",
        "enNameLanguage": "Chiananda",
        "location": {
          "lat": -0.417,
          "lng": 37.633
        },
        "keyAccentLanguage": "chiananda"
      },
      {
        "code": 0,
        "type": "City",
        "enNameLanguage": "Ishiara",
        "location": {
          "lat": -0.448,
          "lng": 37.79
        },
        "keyAccentLanguage": "ishiara"
      },
      {
        "code": 0,
        "type": "City",
        "enNameLanguage": "Kawanjaro",
        "location": {
          "lat": -0.467,
          "lng": 37.55
        },
        "keyAccentLanguage": "kawanjaro"
      },
      {
        "code": 0,
        "type": "City",
        "enNameLanguage": "Kerie",
        "location": {
          "lat": -0.583,
          "lng": 37.783
        },
        "keyAccentLanguage": "kerie"
      },
      {
        "code": 0,
        "type": "City",
        "enNameLanguage": "Kagaare",
        "location": {
          "lat": -0.433,
          "lng": 37.567
        },
        "keyAccentLanguage": "kagaare"
      },
      {
        "code": 0,
        "type": "City",
        "enNameLanguage": "Kathangari",
        "location": {
          "lat": -0.467,
          "lng": 37.45
        },
        "keyAccentLanguage": "kathangari"
      },
      {
        "code": 0,
        "type": "City",
        "enNameLanguage": "Siakago",
        "location": {
          "lat": -0.583,
          "lng": 37.633
        },
        "keyAccentLanguage": "siakago"
      },
      {
        "code": 0,
        "type": "City",
        "enNameLanguage": "Ngandure",
        "location": {
          "lat": -0.7,
          "lng": 37.6
        },
        "keyAccentLanguage": "ngandure"
      },
      {
        "code": 0,
        "type": "City",
        "enNameLanguage": "Kegaa",
        "location": {
          "lat": -0.433,
          "lng": 37.567
        },
        "keyAccentLanguage": "kegaa"
      },
      {
        "code": 0,
        "type": "City",
        "enNameLanguage": "Karingare",
        "location": {
          "lat": -0.467,
          "lng": 37.5
        },
        "keyAccentLanguage": "karingare"
      },
      {
        "code": 0,
        "type": "City",
        "enNameLanguage": "Matakari",
        "location": {
          "lat": -0.533,
          "lng": 37.45
        },
        "keyAccentLanguage": "matakari"
      },
      {
        "code": 0,
        "type": "City",
        "enNameLanguage": "Gachoka",
        "location": {
          "lat": -0.617,
          "lng": 37.533
        },
        "keyAccentLanguage": "gachoka"
      },
      {
        "code": 0,
        "type": "City",
        "enNameLanguage": "Kangaru",
        "location": {
          "lat": -0.483,
          "lng": 37.45
        },
        "keyAccentLanguage": "kangaru"
      },
      {
        "code": 0,
        "type": "City",
        "enNameLanguage": "Kianjuki",
        "location": {
          "lat": -0.45,
          "lng": 37.5
        },
        "keyAccentLanguage": "kianjuki"
      },
      {
        "code": 0,
        "type": "City",
        "enNameLanguage": "Ngovio",
        "location": {
          "lat": -0.417,
          "lng": 37.45
        },
        "keyAccentLanguage": "ngovio"
      },
      {
        "code": 0,
        "type": "City",
        "enNameLanguage": "Rukuriri",
        "location": {
          "lat": -0.383,
          "lng": 37.55
        },
        "keyAccentLanguage": "rukuriri"
      },
      {
        "code": 0,
        "type": "City",
        "enNameLanguage": "Muringari",
        "location": {
          "lat": -0.483,
          "lng": 37.733
        },
        "keyAccentLanguage": "muringari"
      },
      {
        "code": 0,
        "type": "City",
        "enNameLanguage": "Ena",
        "location": {
          "lat": -0.465,
          "lng": 37.556
        },
        "keyAccentLanguage": "ena"
      },
      {
        "code": 0,
        "type": "City",
        "enNameLanguage": "Runyenjes",
        "location": {
          "lat": -0.407,
          "lng": 37.577
        },
        "keyAccentLanguage": "runyenjes"
      },
      {
        "code": 0,
        "type": "City",
        "enNameLanguage": "Mushamba",
        "location": {
          "lat": -0.767,
          "lng": 37.5
        },
        "keyAccentLanguage": "mushamba"
      },
      {
        "code": 0,
        "type": "City",
        "enNameLanguage": "Kathari",
        "location": {
          "lat": -0.4,
          "lng": 37.6
        },
        "keyAccentLanguage": "kathari"
      },
      {
        "code": 0,
        "type": "City",
        "enNameLanguage": "Kianiokoma",
        "location": {
          "lat": -0.4,
          "lng": 37.5
        },
        "keyAccentLanguage": "kianiokoma"
      },
      {
        "code": 0,
        "type": "City",
        "enNameLanguage": "Mavuria",
        "location": {
          "lat": -0.783,
          "lng": 37.65
        },
        "keyAccentLanguage": "mavuria"
      },
      {
        "code": 0,
        "type": "City",
        "enNameLanguage": "Mashamba",
        "location": {
          "lat": -0.75,
          "lng": 37.517
        },
        "keyAccentLanguage": "mashamba"
      },
      {
        "code": 0,
        "type": "City",
        "enNameLanguage": "Manyata",
        "location": {
          "lat": -0.417,
          "lng": 37.482
        },
        "keyAccentLanguage": "manyata"
      },
      {
        "code": 0,
        "type": "City",
        "enNameLanguage": "Makenge",
        "location": {
          "lat": -0.45,
          "lng": 37.517
        },
        "keyAccentLanguage": "makenge"
      },
      {
        "code": 0,
        "type": "City",
        "enNameLanguage": "Gichiche",
        "location": {
          "lat": -0.433,
          "lng": 37.583
        },
        "keyAccentLanguage": "gichiche"
      },
      {
        "code": 0,
        "type": "City",
        "enNameLanguage": "Gatunduri",
        "location": {
          "lat": -0.483,
          "lng": 37.483
        },
        "keyAccentLanguage": "gatunduri"
      }
    ],
    "enNameLanguage": "Embu",
    "keyAccentLanguage": "embu"
  },
  {
    "code": 0,
    "type": "State",
    "location": {
      "lat": -0.4532293,
      "lng": 39.6460988
    },
    "districtList": [
      {
        "code": 0,
        "type": "City",
        "enNameLanguage": "Kolbio",
        "location": {
          "lat": -1.145,
          "lng": 41.201
        },
        "keyAccentLanguage": "kolbio"
      },
      {
        "code": 0,
        "type": "City",
        "enNameLanguage": "Sangoleaku",
        "location": {
          "lat": -0.55,
          "lng": 40.867
        },
        "keyAccentLanguage": "sangoleaku"
      },
      {
        "code": 0,
        "type": "City",
        "enNameLanguage": "Habul",
        "location": {
          "lat": -0.517,
          "lng": 40.917
        },
        "keyAccentLanguage": "habul"
      },
      {
        "code": 0,
        "type": "City",
        "enNameLanguage": "Digira",
        "location": {
          "lat": -1.1,
          "lng": 40.85
        },
        "keyAccentLanguage": "digira"
      },
      {
        "code": 0,
        "type": "City",
        "enNameLanguage": "Mado Gashi",
        "location": {
          "lat": 0.731,
          "lng": 39.183
        },
        "keyAccentLanguage": "mado_gashi"
      },
      {
        "code": 0,
        "type": "City",
        "enNameLanguage": "Dadaab",
        "location": {
          "lat": 0.065,
          "lng": 40.292
        },
        "keyAccentLanguage": "dadaab"
      },
      {
        "code": 0,
        "type": "City",
        "enNameLanguage": "Sarim",
        "location": {
          "lat": -0.383,
          "lng": 40.967
        },
        "keyAccentLanguage": "sarim"
      },
      {
        "code": 0,
        "type": "City",
        "enNameLanguage": "Elaa",
        "location": {
          "lat": -1.167,
          "lng": 40.783
        },
        "keyAccentLanguage": "elaa"
      },
      {
        "code": 0,
        "type": "City",
        "enNameLanguage": "Magadera",
        "location": {
          "lat": 0.009,
          "lng": 40.367
        },
        "keyAccentLanguage": "magadera"
      },
      {
        "code": 0,
        "type": "City",
        "enNameLanguage": "Rigmio",
        "location": {
          "lat": -1.15,
          "lng": 41.017
        },
        "keyAccentLanguage": "rigmio"
      },
      {
        "code": 0,
        "type": "City",
        "enNameLanguage": "Dueadera",
        "location": {
          "lat": -1.117,
          "lng": 40.1
        },
        "keyAccentLanguage": "dueadera"
      },
      {
        "code": 0,
        "type": "City",
        "enNameLanguage": "Liboi",
        "location": {
          "lat": 0.361,
          "lng": 40.884
        },
        "keyAccentLanguage": "liboi"
      },
      {
        "code": 0,
        "type": "City",
        "enNameLanguage": "Ilkabere",
        "location": {
          "lat": -0.964,
          "lng": 41.05
        },
        "keyAccentLanguage": "ilkabere"
      },
      {
        "code": 0,
        "type": "City",
        "enNameLanguage": "Higlet",
        "location": {
          "lat": -1.067,
          "lng": 40.317
        },
        "keyAccentLanguage": "higlet"
      },
      {
        "code": 0,
        "type": "City",
        "enNameLanguage": "Ijara",
        "location": {
          "lat": -1.599,
          "lng": 40.514
        },
        "keyAccentLanguage": "ijara"
      },
      {
        "code": 0,
        "type": "City",
        "enNameLanguage": "Welaluit Dardesa",
        "location": {
          "lat": -0.933,
          "lng": 40.9
        },
        "keyAccentLanguage": "welaluit_dardesa"
      },
      {
        "code": 0,
        "type": "City",
        "enNameLanguage": "Tukeli",
        "location": {
          "lat": -1.067,
          "lng": 40.867
        },
        "keyAccentLanguage": "tukeli"
      },
      {
        "code": 0,
        "type": "City",
        "enNameLanguage": "Sumat",
        "location": {
          "lat": -1.133,
          "lng": 40.067
        },
        "keyAccentLanguage": "sumat"
      },
      {
        "code": 0,
        "type": "City",
        "enNameLanguage": "Garissa",
        "location": {
          "lat": -0.445,
          "lng": 39.672
        },
        "keyAccentLanguage": "garissa"
      },
      {
        "code": 0,
        "type": "City",
        "enNameLanguage": "Bata",
        "location": {
          "lat": -1.367,
          "lng": 41.233
        },
        "keyAccentLanguage": "bata"
      },
      {
        "code": 0,
        "type": "City",
        "enNameLanguage": "Haridfi",
        "location": {
          "lat": -0.583,
          "lng": 40.817
        },
        "keyAccentLanguage": "haridfi"
      },
      {
        "code": 0,
        "type": "City",
        "enNameLanguage": "Libat",
        "location": {
          "lat": -0.783,
          "lng": 40.917
        },
        "keyAccentLanguage": "libat"
      },
      {
        "code": 0,
        "type": "City",
        "enNameLanguage": "Haruru",
        "location": {
          "lat": -1.317,
          "lng": 40.183
        },
        "keyAccentLanguage": "haruru"
      },
      {
        "code": 0,
        "type": "City",
        "enNameLanguage": "Kundi",
        "location": {
          "lat": -1.133,
          "lng": 40.683
        },
        "keyAccentLanguage": "kundi"
      },
      {
        "code": 0,
        "type": "City",
        "enNameLanguage": "Fafsula",
        "location": {
          "lat": -1.15,
          "lng": 40.017
        },
        "keyAccentLanguage": "fafsula"
      },
      {
        "code": 0,
        "type": "City",
        "enNameLanguage": "Dar es Salaam",
        "location": {
          "lat": -1.661,
          "lng": 41.558
        },
        "keyAccentLanguage": "dar_es_salaam"
      }
    ],
    "enNameLanguage": "Garissa",
    "keyAccentLanguage": "garissa"
  },
  {
    "code": 0,
    "type": "State",
    "location": {
      "lat": -0.53,
      "lng": 34.457
    },
    "districtList": [
      {
        "code": 0,
        "type": "City",
        "enNameLanguage": "Nyawita",
        "location": {
          "lat": -0.683,
          "lng": 34.417
        },
        "keyAccentLanguage": "nyawita"
      },
      {
        "code": 0,
        "type": "City",
        "enNameLanguage": "Marucha",
        "location": {
          "lat": -0.567,
          "lng": 34.433
        },
        "keyAccentLanguage": "marucha"
      },
      {
        "code": 0,
        "type": "City",
        "enNameLanguage": "Mirogi",
        "location": {
          "lat": -0.717,
          "lng": 34.4
        },
        "keyAccentLanguage": "mirogi"
      },
      {
        "code": 0,
        "type": "City",
        "enNameLanguage": "Kabondo",
        "location": {
          "lat": -0.45,
          "lng": 34.883
        },
        "keyAccentLanguage": "kabondo"
      },
      {
        "code": 0,
        "type": "City",
        "enNameLanguage": "Nyenga",
        "location": {
          "lat": -0.717,
          "lng": 34.1
        },
        "keyAccentLanguage": "nyenga"
      },
      {
        "code": 0,
        "type": "City",
        "enNameLanguage": "Wasis",
        "location": {
          "lat": -0.55,
          "lng": 34.733
        },
        "keyAccentLanguage": "wasis"
      },
      {
        "code": 0,
        "type": "City",
        "enNameLanguage": "Sena",
        "location": {
          "lat": -0.467,
          "lng": 34.067
        },
        "keyAccentLanguage": "sena"
      },
      {
        "code": 0,
        "type": "City",
        "enNameLanguage": "Odoyo",
        "location": {
          "lat": -0.567,
          "lng": 34.433
        },
        "keyAccentLanguage": "odoyo"
      },
      {
        "code": 0,
        "type": "City",
        "enNameLanguage": "Josephs",
        "location": {
          "lat": -0.617,
          "lng": 34.567
        },
        "keyAccentLanguage": "josephs"
      },
      {
        "code": 0,
        "type": "City",
        "enNameLanguage": "Rangwe",
        "location": {
          "lat": -0.601,
          "lng": 34.586
        },
        "keyAccentLanguage": "rangwe"
      },
      {
        "code": 0,
        "type": "City",
        "enNameLanguage": "Magunga",
        "location": {
          "lat": -0.683,
          "lng": 34.15
        },
        "keyAccentLanguage": "magunga"
      },
      {
        "code": 0,
        "type": "City",
        "enNameLanguage": "Homa Bay",
        "location": {
          "lat": -0.53,
          "lng": 34.457
        },
        "keyAccentLanguage": "homa_bay"
      },
      {
        "code": 0,
        "type": "City",
        "enNameLanguage": "Sondu",
        "location": {
          "lat": -0.4,
          "lng": 35.013
        },
        "keyAccentLanguage": "sondu"
      },
      {
        "code": 0,
        "type": "City",
        "enNameLanguage": "Weno",
        "location": {
          "lat": -0.567,
          "lng": 34.433
        },
        "keyAccentLanguage": "weno"
      },
      {
        "code": 0,
        "type": "City",
        "enNameLanguage": "Rodi Kopany",
        "location": {
          "lat": -0.624,
          "lng": 34.504
        },
        "keyAccentLanguage": "rodi_kopany"
      },
      {
        "code": 0,
        "type": "City",
        "enNameLanguage": "Kobodo",
        "location": {
          "lat": -0.667,
          "lng": 34.417
        },
        "keyAccentLanguage": "kobodo"
      },
      {
        "code": 0,
        "type": "City",
        "enNameLanguage": "Akelo's Village",
        "location": {
          "lat": -0.633,
          "lng": 34.583
        },
        "keyAccentLanguage": "akelo's_village"
      },
      {
        "code": 0,
        "type": "City",
        "enNameLanguage": "Awino",
        "location": {
          "lat": -0.55,
          "lng": 34.433
        },
        "keyAccentLanguage": "awino"
      },
      {
        "code": 0,
        "type": "City",
        "enNameLanguage": "Andiwo's Village",
        "location": {
          "lat": -0.517,
          "lng": 34.7
        },
        "keyAccentLanguage": "andiwo's_village"
      },
      {
        "code": 0,
        "type": "City",
        "enNameLanguage": "Nyowita",
        "location": {
          "lat": -0.683,
          "lng": 34.4
        },
        "keyAccentLanguage": "nyowita"
      },
      {
        "code": 0,
        "type": "City",
        "enNameLanguage": "Awundo's Village",
        "location": {
          "lat": -0.633,
          "lng": 34.583
        },
        "keyAccentLanguage": "awundo's_village"
      },
      {
        "code": 0,
        "type": "City",
        "enNameLanguage": "Lwala",
        "location": {
          "lat": -0.5,
          "lng": 34.367
        },
        "keyAccentLanguage": "lwala"
      },
      {
        "code": 0,
        "type": "City",
        "enNameLanguage": "Awach Tende",
        "location": {
          "lat": -0.483,
          "lng": 34.617
        },
        "keyAccentLanguage": "awach_tende"
      },
      {
        "code": 0,
        "type": "City",
        "enNameLanguage": "Kendu Bay",
        "location": {
          "lat": -0.359,
          "lng": 34.651
        },
        "keyAccentLanguage": "kendu_bay"
      },
      {
        "code": 0,
        "type": "City",
        "enNameLanguage": "Ogama",
        "location": {
          "lat": -0.633,
          "lng": 34.45
        },
        "keyAccentLanguage": "ogama"
      },
      {
        "code": 0,
        "type": "City",
        "enNameLanguage": "Pundo",
        "location": {
          "lat": -0.783,
          "lng": 34.317
        },
        "keyAccentLanguage": "pundo"
      },
      {
        "code": 0,
        "type": "City",
        "enNameLanguage": "Homa Lime Kowuor",
        "location": {
          "lat": -0.433,
          "lng": 34.467
        },
        "keyAccentLanguage": "homa_lime_kowuor"
      },
      {
        "code": 0,
        "type": "City",
        "enNameLanguage": "Ndhiwa",
        "location": {
          "lat": -0.733,
          "lng": 34.367
        },
        "keyAccentLanguage": "ndhiwa"
      },
      {
        "code": 0,
        "type": "City",
        "enNameLanguage": "Marinde",
        "location": {
          "lat": -0.651,
          "lng": 34.522
        },
        "keyAccentLanguage": "marinde"
      },
      {
        "code": 0,
        "type": "City",
        "enNameLanguage": "Mbita",
        "location": {
          "lat": -0.423,
          "lng": 34.204
        },
        "keyAccentLanguage": "mbita"
      },
      {
        "code": 0,
        "type": "City",
        "enNameLanguage": "Oyugis",
        "location": {
          "lat": -0.51,
          "lng": 34.737
        },
        "keyAccentLanguage": "oyugis"
      },
      {
        "code": 0,
        "type": "City",
        "enNameLanguage": "Sindo",
        "location": {
          "lat": -0.533,
          "lng": 34.167
        },
        "keyAccentLanguage": "sindo"
      },
      {
        "code": 0,
        "type": "City",
        "enNameLanguage": "Ondiek's",
        "location": {
          "lat": -0.75,
          "lng": 34.3
        },
        "keyAccentLanguage": "ondiek's"
      }
    ],
    "enNameLanguage": "Homa Bay",
    "keyAccentLanguage": "homa_bay"
  },
  {
    "code": 0,
    "type": "State",
    "location": {
      "lat": 0.355636,
      "lng": 37.5833061
    },
    "districtList": [
      {
        "code": 0,
        "type": "City",
        "enNameLanguage": "Korbesa",
        "location": {
          "lat": 0.25,
          "lng": 38.35
        },
        "keyAccentLanguage": "korbesa"
      },
      {
        "code": 0,
        "type": "City",
        "enNameLanguage": "Garba",
        "location": {
          "lat": 0.383,
          "lng": 37.6
        },
        "keyAccentLanguage": "garba"
      },
      {
        "code": 0,
        "type": "City",
        "enNameLanguage": "Isiolo",
        "location": {
          "lat": 0.349,
          "lng": 37.579
        },
        "keyAccentLanguage": "isiolo"
      },
      {
        "code": 0,
        "type": "City",
        "enNameLanguage": "Garba Tula",
        "location": {
          "lat": 0.534,
          "lng": 38.509
        },
        "keyAccentLanguage": "garba_tula"
      },
      {
        "code": 0,
        "type": "City",
        "enNameLanguage": "Sericho",
        "location": {
          "lat": 1.143,
          "lng": 39.085
        },
        "keyAccentLanguage": "sericho"
      },
      {
        "code": 0,
        "type": "City",
        "enNameLanguage": "Mado Yaka",
        "location": {
          "lat": 0.7,
          "lng": 38.333
        },
        "keyAccentLanguage": "mado_yaka"
      },
      {
        "code": 0,
        "type": "City",
        "enNameLanguage": "El Dera",
        "location": {
          "lat": 0.6,
          "lng": 38.85
        },
        "keyAccentLanguage": "el_dera"
      },
      {
        "code": 0,
        "type": "City",
        "enNameLanguage": "Longopito",
        "location": {
          "lat": 0.707,
          "lng": 37.12
        },
        "keyAccentLanguage": "longopito"
      },
      {
        "code": 0,
        "type": "City",
        "enNameLanguage": "Benane",
        "location": {
          "lat": 0.504,
          "lng": 38.649
        },
        "keyAccentLanguage": "benane"
      },
      {
        "code": 0,
        "type": "City",
        "enNameLanguage": "Kampi Ya Juu",
        "location": {
          "lat": 0.333,
          "lng": 37.567
        },
        "keyAccentLanguage": "kampi_ya_juu"
      },
      {
        "code": 0,
        "type": "City",
        "enNameLanguage": "Kula Mawe",
        "location": {
          "lat": 0.579,
          "lng": 38.191
        },
        "keyAccentLanguage": "kula_mawe"
      },
      {
        "code": 0,
        "type": "City",
        "enNameLanguage": "Barchuma Guda",
        "location": {
          "lat": 1.383,
          "lng": 38.217
        },
        "keyAccentLanguage": "barchuma_guda"
      },
      {
        "code": 0,
        "type": "City",
        "enNameLanguage": "Kubi Turkana",
        "location": {
          "lat": 0.567,
          "lng": 38.2
        },
        "keyAccentLanguage": "kubi_turkana"
      },
      {
        "code": 0,
        "type": "City",
        "enNameLanguage": "Kinna",
        "location": {
          "lat": 0.326,
          "lng": 38.196
        },
        "keyAccentLanguage": "kinna"
      },
      {
        "code": 0,
        "type": "City",
        "enNameLanguage": "Kampi Ya Sheikh Omar",
        "location": {
          "lat": 0.333,
          "lng": 37.55
        },
        "keyAccentLanguage": "kampi_ya_sheikh_omar"
      },
      {
        "code": 0,
        "type": "City",
        "enNameLanguage": "Merti",
        "location": {
          "lat": 1.066,
          "lng": 38.657
        },
        "keyAccentLanguage": "merti"
      }
    ],
    "enNameLanguage": "Isiolo",
    "keyAccentLanguage": "isiolo"
  },
  {
    "code": 0,
    "type": "State",
    "location": {
      "lat": -2.0980751,
      "lng": 36.7819505
    },
    "districtList": [
      {
        "code": 0,
        "type": "City",
        "enNameLanguage": "Mosiro",
        "location": {
          "lat": -1.483,
          "lng": 36.1
        },
        "keyAccentLanguage": "mosiro"
      },
      {
        "code": 0,
        "type": "City",
        "enNameLanguage": "Laset",
        "location": {
          "lat": -2.95,
          "lng": 37.567
        },
        "keyAccentLanguage": "laset"
      },
      {
        "code": 0,
        "type": "City",
        "enNameLanguage": "Mbirikani",
        "location": {
          "lat": -2.535,
          "lng": 37.532
        },
        "keyAccentLanguage": "mbirikani"
      },
      {
        "code": 0,
        "type": "City",
        "enNameLanguage": "Samuli",
        "location": {
          "lat": -2.117,
          "lng": 37.433
        },
        "keyAccentLanguage": "samuli"
      },
      {
        "code": 0,
        "type": "City",
        "enNameLanguage": "Lolnguswa",
        "location": {
          "lat": -2.15,
          "lng": 36.65
        },
        "keyAccentLanguage": "lolnguswa"
      },
      {
        "code": 0,
        "type": "City",
        "enNameLanguage": "Kimana",
        "location": {
          "lat": -2.8,
          "lng": 37.533
        },
        "keyAccentLanguage": "kimana"
      },
      {
        "code": 0,
        "type": "City",
        "enNameLanguage": "Rombo",
        "location": {
          "lat": -3.05,
          "lng": 37.7
        },
        "keyAccentLanguage": "rombo"
      },
      {
        "code": 0,
        "type": "City",
        "enNameLanguage": "Magadi",
        "location": {
          "lat": -1.901,
          "lng": 36.305
        },
        "keyAccentLanguage": "magadi"
      },
      {
        "code": 0,
        "type": "City",
        "enNameLanguage": "Kiserian",
        "location": {
          "lat": -1.431,
          "lng": 36.681
        },
        "keyAccentLanguage": "kiserian"
      },
      {
        "code": 0,
        "type": "City",
        "enNameLanguage": "Enkorika",
        "location": {
          "lat": -1.967,
          "lng": 36.917
        },
        "keyAccentLanguage": "enkorika"
      },
      {
        "code": 0,
        "type": "City",
        "enNameLanguage": "Isinya",
        "location": {
          "lat": -1.686,
          "lng": 36.848
        },
        "keyAccentLanguage": "isinya"
      },
      {
        "code": 0,
        "type": "City",
        "enNameLanguage": "Mashuru",
        "location": {
          "lat": -2.05,
          "lng": 37.117
        },
        "keyAccentLanguage": "mashuru"
      },
      {
        "code": 0,
        "type": "City",
        "enNameLanguage": "Ngong Hills",
        "location": {
          "lat": -1.403,
          "lng": 36.587
        },
        "keyAccentLanguage": "ngong_hills"
      },
      {
        "code": 0,
        "type": "City",
        "enNameLanguage": "Bartimaro",
        "location": {
          "lat": -2.3,
          "lng": 36.767
        },
        "keyAccentLanguage": "bartimaro"
      },
      {
        "code": 0,
        "type": "City",
        "enNameLanguage": "Oloitokitok",
        "location": {
          "lat": -2.925,
          "lng": 37.518
        },
        "keyAccentLanguage": "oloitokitok"
      },
      {
        "code": 0,
        "type": "City",
        "enNameLanguage": "Ilpartimaro",
        "location": {
          "lat": -2.267,
          "lng": 36.717
        },
        "keyAccentLanguage": "ilpartimaro"
      },
      {
        "code": 0,
        "type": "City",
        "enNameLanguage": "Olkeramatian",
        "location": {
          "lat": -1.883,
          "lng": 36.133
        },
        "keyAccentLanguage": "olkeramatian"
      },
      {
        "code": 0,
        "type": "City",
        "enNameLanguage": "Kampi ya Bibi",
        "location": {
          "lat": -1.55,
          "lng": 36.55
        },
        "keyAccentLanguage": "kampi_ya_bibi"
      },
      {
        "code": 0,
        "type": "City",
        "enNameLanguage": "Mailua",
        "location": {
          "lat": -2.333,
          "lng": 36.95
        },
        "keyAccentLanguage": "mailua"
      },
      {
        "code": 0,
        "type": "City",
        "enNameLanguage": "Selengai",
        "location": {
          "lat": -2.173,
          "lng": 37.172
        },
        "keyAccentLanguage": "selengai"
      },
      {
        "code": 0,
        "type": "City",
        "enNameLanguage": "Olengarua",
        "location": {
          "lat": -2.083,
          "lng": 36.117
        },
        "keyAccentLanguage": "olengarua"
      },
      {
        "code": 0,
        "type": "City",
        "enNameLanguage": "Kalema",
        "location": {
          "lat": -1.804,
          "lng": 36.045
        },
        "keyAccentLanguage": "kalema"
      },
      {
        "code": 0,
        "type": "City",
        "enNameLanguage": "Poka",
        "location": {
          "lat": -2.133,
          "lng": 37.45
        },
        "keyAccentLanguage": "poka"
      },
      {
        "code": 0,
        "type": "City",
        "enNameLanguage": "Kiu",
        "location": {
          "lat": -1.891,
          "lng": 37.155
        },
        "keyAccentLanguage": "kiu"
      },
      {
        "code": 0,
        "type": "City",
        "enNameLanguage": "Ngong",
        "location": {
          "lat": -1.365,
          "lng": 36.645
        },
        "keyAccentLanguage": "ngong"
      },
      {
        "code": 0,
        "type": "City",
        "enNameLanguage": "Merueshi",
        "location": {
          "lat": -2.367,
          "lng": 37.55
        },
        "keyAccentLanguage": "merueshi"
      },
      {
        "code": 0,
        "type": "City",
        "enNameLanguage": "Karero",
        "location": {
          "lat": -1.917,
          "lng": 36.7
        },
        "keyAccentLanguage": "karero"
      },
      {
        "code": 0,
        "type": "City",
        "enNameLanguage": "Ol Tukai",
        "location": {
          "lat": -2.653,
          "lng": 37.274
        },
        "keyAccentLanguage": "ol_tukai"
      },
      {
        "code": 0,
        "type": "City",
        "enNameLanguage": "Kajiado",
        "location": {
          "lat": -1.836,
          "lng": 36.795
        },
        "keyAccentLanguage": "kajiado"
      },
      {
        "code": 0,
        "type": "City",
        "enNameLanguage": "Elangata Wuas",
        "location": {
          "lat": -1.883,
          "lng": 36.583
        },
        "keyAccentLanguage": "elangata_wuas"
      },
      {
        "code": 0,
        "type": "City",
        "enNameLanguage": "Oltepesi",
        "location": {
          "lat": -1.564,
          "lng": 36.468
        },
        "keyAccentLanguage": "oltepesi"
      },
      {
        "code": 0,
        "type": "City",
        "enNameLanguage": "Matathia",
        "location": {
          "lat": -1.4,
          "lng": 36.683
        },
        "keyAccentLanguage": "matathia"
      },
      {
        "code": 0,
        "type": "City",
        "enNameLanguage": "Amboseli",
        "location": {
          "lat": -2.667,
          "lng": 37.283
        },
        "keyAccentLanguage": "amboseli"
      },
      {
        "code": 0,
        "type": "City",
        "enNameLanguage": "Kuku",
        "location": {
          "lat": -2.9,
          "lng": 37.75
        },
        "keyAccentLanguage": "kuku"
      },
      {
        "code": 0,
        "type": "City",
        "enNameLanguage": "Langata Rongai",
        "location": {
          "lat": -1.4,
          "lng": 36.767
        },
        "keyAccentLanguage": "langata_rongai"
      },
      {
        "code": 0,
        "type": "City",
        "enNameLanguage": "Ilbisil",
        "location": {
          "lat": -2.097,
          "lng": 36.791
        },
        "keyAccentLanguage": "ilbisil"
      },
      {
        "code": 0,
        "type": "City",
        "enNameLanguage": "Oloiserri",
        "location": {
          "lat": -2.233,
          "lng": 36.433
        },
        "keyAccentLanguage": "oloiserri"
      },
      {
        "code": 0,
        "type": "City",
        "enNameLanguage": "Mata",
        "location": {
          "lat": -3.05,
          "lng": 37.75
        },
        "keyAccentLanguage": "mata"
      },
      {
        "code": 0,
        "type": "City",
        "enNameLanguage": "Lengesim",
        "location": {
          "lat": -2.4,
          "lng": 37.217
        },
        "keyAccentLanguage": "lengesim"
      },
      {
        "code": 0,
        "type": "City",
        "enNameLanguage": "Oloyaingalani",
        "location": {
          "lat": -1.75,
          "lng": 36.7
        },
        "keyAccentLanguage": "oloyaingalani"
      }
    ],
    "enNameLanguage": "Kajiado",
    "keyAccentLanguage": "kajiado"
  },
  {
    "code": 0,
    "type": "State",
    "location": {
      "lat": 0.2827307,
      "lng": 34.7518631
    },
    "districtList": [
      {
        "code": 0,
        "type": "City",
        "enNameLanguage": "Shikusa",
        "location": {
          "lat": 0.317,
          "lng": 34.817
        },
        "keyAccentLanguage": "shikusa"
      },
      {
        "code": 0,
        "type": "City",
        "enNameLanguage": "Butsotso",
        "location": {
          "lat": 0.35,
          "lng": 34.7
        },
        "keyAccentLanguage": "butsotso"
      },
      {
        "code": 0,
        "type": "City",
        "enNameLanguage": "Lunza",
        "location": {
          "lat": 0.237,
          "lng": 34.558
        },
        "keyAccentLanguage": "lunza"
      },
      {
        "code": 0,
        "type": "City",
        "enNameLanguage": "Malava",
        "location": {
          "lat": 0.437,
          "lng": 34.85
        },
        "keyAccentLanguage": "malava"
      },
      {
        "code": 0,
        "type": "City",
        "enNameLanguage": "Mumias",
        "location": {
          "lat": 0.338,
          "lng": 34.475
        },
        "keyAccentLanguage": "mumias"
      },
      {
        "code": 0,
        "type": "City",
        "enNameLanguage": "Sigalagala",
        "location": {
          "lat": 0.2,
          "lng": 34.75
        },
        "keyAccentLanguage": "sigalagala"
      },
      {
        "code": 0,
        "type": "City",
        "enNameLanguage": "Mohanda Arunde",
        "location": {
          "lat": 0.11,
          "lng": 34.5
        },
        "keyAccentLanguage": "mohanda_arunde"
      },
      {
        "code": 0,
        "type": "City",
        "enNameLanguage": "Shinyalu",
        "location": {
          "lat": 0.227,
          "lng": 34.817
        },
        "keyAccentLanguage": "shinyalu"
      },
      {
        "code": 0,
        "type": "City",
        "enNameLanguage": "Kakamega",
        "location": {
          "lat": 0.28,
          "lng": 34.752
        },
        "keyAccentLanguage": "kakamega"
      },
      {
        "code": 0,
        "type": "City",
        "enNameLanguage": "Lubao",
        "location": {
          "lat": 0.346,
          "lng": 34.819
        },
        "keyAccentLanguage": "lubao"
      },
      {
        "code": 0,
        "type": "City",
        "enNameLanguage": "Kiming'ini",
        "location": {
          "lat": 0.183,
          "lng": 34.767
        },
        "keyAccentLanguage": "kiming'ini"
      },
      {
        "code": 0,
        "type": "City",
        "enNameLanguage": "Kilingili",
        "location": {
          "lat": 0.127,
          "lng": 34.686
        },
        "keyAccentLanguage": "kilingili"
      },
      {
        "code": 0,
        "type": "City",
        "enNameLanguage": "Shianda",
        "location": {
          "lat": 0.323,
          "lng": 34.56
        },
        "keyAccentLanguage": "shianda"
      },
      {
        "code": 0,
        "type": "City",
        "enNameLanguage": "Shirotsa",
        "location": {
          "lat": 0.233,
          "lng": 34.567
        },
        "keyAccentLanguage": "shirotsa"
      },
      {
        "code": 0,
        "type": "City",
        "enNameLanguage": "Emasatsi",
        "location": {
          "lat": 0.15,
          "lng": 34.65
        },
        "keyAccentLanguage": "emasatsi"
      },
      {
        "code": 0,
        "type": "City",
        "enNameLanguage": "Koyonzo",
        "location": {
          "lat": 0.42,
          "lng": 34.424
        },
        "keyAccentLanguage": "koyonzo"
      },
      {
        "code": 0,
        "type": "City",
        "enNameLanguage": "Aisere",
        "location": {
          "lat": 0.233,
          "lng": 34.7
        },
        "keyAccentLanguage": "aisere"
      },
      {
        "code": 0,
        "type": "City",
        "enNameLanguage": "Musanda",
        "location": {
          "lat": 0.219,
          "lng": 34.449
        },
        "keyAccentLanguage": "musanda"
      },
      {
        "code": 0,
        "type": "City",
        "enNameLanguage": "Kholera",
        "location": {
          "lat": 0.417,
          "lng": 34.471
        },
        "keyAccentLanguage": "kholera"
      },
      {
        "code": 0,
        "type": "City",
        "enNameLanguage": "Soy",
        "location": {
          "lat": 0.678,
          "lng": 35.144
        },
        "keyAccentLanguage": "soy"
      },
      {
        "code": 0,
        "type": "City",
        "enNameLanguage": "Butere",
        "location": {
          "lat": 0.215,
          "lng": 34.483
        },
        "keyAccentLanguage": "butere"
      },
      {
        "code": 0,
        "type": "City",
        "enNameLanguage": "Bukura",
        "location": {
          "lat": 0.231,
          "lng": 34.595
        },
        "keyAccentLanguage": "bukura"
      },
      {
        "code": 0,
        "type": "City",
        "enNameLanguage": "Mureko",
        "location": {
          "lat": 0.233,
          "lng": 34.483
        },
        "keyAccentLanguage": "mureko"
      }
    ],
    "enNameLanguage": "Kakamega",
    "keyAccentLanguage": "kakamega"
  },
  {
    "code": 0,
    "type": "State",
    "location": {
      "lat": -0.3688967,
      "lng": 35.286286
    },
    "districtList": [
      {
        "code": 0,
        "type": "City",
        "enNameLanguage": "Litein",
        "location": {
          "lat": -0.5826239999999999,
          "lng": 35.1901151
        },
        "keyAccentLanguage": "litein"
      },
      {
        "code": 0,
        "type": "City",
        "enNameLanguage": "Kiptere",
        "location": {
          "lat": -0.4,
          "lng": 35.1
        },
        "keyAccentLanguage": "kiptere"
      },
      {
        "code": 0,
        "type": "City",
        "enNameLanguage": "Kapsuser",
        "location": {
          "lat": -0.4,
          "lng": 35.217
        },
        "keyAccentLanguage": "kapsuser"
      },
      {
        "code": 0,
        "type": "City",
        "enNameLanguage": "Sosiot",
        "location": {
          "lat": -0.367,
          "lng": 35.167
        },
        "keyAccentLanguage": "sosiot"
      },
      {
        "code": 0,
        "type": "City",
        "enNameLanguage": "Kapkiam",
        "location": {
          "lat": -0.283,
          "lng": 35.367
        },
        "keyAccentLanguage": "kapkiam"
      },
      {
        "code": 0,
        "type": "City",
        "enNameLanguage": "Kabianga",
        "location": {
          "lat": -0.443,
          "lng": 35.121
        },
        "keyAccentLanguage": "kabianga"
      },
      {
        "code": 0,
        "type": "City",
        "enNameLanguage": "Kipkelion",
        "location": {
          "lat": -0.182,
          "lng": 35.456
        },
        "keyAccentLanguage": "kipkelion"
      },
      {
        "code": 0,
        "type": "City",
        "enNameLanguage": "Kapsamonget",
        "location": {
          "lat": -0.317,
          "lng": 35.217
        },
        "keyAccentLanguage": "kapsamonget"
      },
      {
        "code": 0,
        "type": "City",
        "enNameLanguage": "Kericho",
        "location": {
          "lat": -0.366,
          "lng": 35.282
        },
        "keyAccentLanguage": "kericho"
      },
      {
        "code": 0,
        "type": "City",
        "enNameLanguage": "Sorget",
        "location": {
          "lat": -0.056,
          "lng": 35.534
        },
        "keyAccentLanguage": "sorget"
      },
      {
        "code": 0,
        "type": "City",
        "enNameLanguage": "Londiani",
        "location": {
          "lat": -0.156,
          "lng": 35.581
        },
        "keyAccentLanguage": "londiani"
      },
      {
        "code": 0,
        "type": "City",
        "enNameLanguage": "Kiligis",
        "location": {
          "lat": -0.167,
          "lng": 35.15
        },
        "keyAccentLanguage": "kiligis"
      },
      {
        "code": 0,
        "type": "City",
        "enNameLanguage": "Lumbwa",
        "location": {
          "lat": -0.2,
          "lng": 35.467
        },
        "keyAccentLanguage": "lumbwa"
      },
      {
        "code": 0,
        "type": "City",
        "enNameLanguage": "Masaita",
        "location": {
          "lat": -0.133,
          "lng": 35.583
        },
        "keyAccentLanguage": "masaita"
      },
      {
        "code": 0,
        "type": "City",
        "enNameLanguage": "Kaituiy",
        "location": {
          "lat": -0.283,
          "lng": 35.167
        },
        "keyAccentLanguage": "kaituiy"
      },
      {
        "code": 0,
        "type": "City",
        "enNameLanguage": "Kedowa",
        "location": {
          "lat": -0.233,
          "lng": 35.55
        },
        "keyAccentLanguage": "kedowa"
      },
      {
        "code": 0,
        "type": "City",
        "enNameLanguage": "Ainamoi",
        "location": {
          "lat": -0.3,
          "lng": 35.283
        },
        "keyAccentLanguage": "ainamoi"
      },
      {
        "code": 0,
        "type": "City",
        "enNameLanguage": "Kap Sarok",
        "location": {
          "lat": -0.3,
          "lng": 35.05
        },
        "keyAccentLanguage": "kap_sarok"
      },
      {
        "code": 0,
        "type": "City",
        "enNameLanguage": "Fort Ternan",
        "location": {
          "lat": -0.2,
          "lng": 35.35
        },
        "keyAccentLanguage": "fort_ternan"
      },
      {
        "code": 0,
        "type": "City",
        "enNameLanguage": "Chemosit",
        "location": {
          "lat": -0.467,
          "lng": 35.167
        },
        "keyAccentLanguage": "chemosit"
      },
      {
        "code": 0,
        "type": "City",
        "enNameLanguage": "Kapsoit",
        "location": {
          "lat": -0.317,
          "lng": 35.217
        },
        "keyAccentLanguage": "kapsoit"
      },
      {
        "code": 0,
        "type": "City",
        "enNameLanguage": "Jamji",
        "location": {
          "lat": -0.467,
          "lng": 35.183
        },
        "keyAccentLanguage": "jamji"
      },
      {
        "code": 0,
        "type": "City",
        "enNameLanguage": "Kapsaos",
        "location": {
          "lat": -0.317,
          "lng": 35.35
        },
        "keyAccentLanguage": "kapsaos"
      },
      {
        "code": 0,
        "type": "City",
        "enNameLanguage": "Kebenet",
        "location": {
          "lat": -0.45,
          "lng": 35.083
        },
        "keyAccentLanguage": "kebenet"
      },
      {
        "code": 0,
        "type": "City",
        "enNameLanguage": "Kenegut",
        "location": {
          "lat": -0.267,
          "lng": 35.217
        },
        "keyAccentLanguage": "kenegut"
      }
    ],
    "enNameLanguage": "Kericho",
    "keyAccentLanguage": "kericho"
  },
  {
    "code": 0,
    "type": "State",
    "location": {
      "lat": -1.1748105,
      "lng": 36.8304102
    },
    "districtList": [
      {
        "code": 0,
        "type": "City",
        "enNameLanguage": "Kikuyu",
        "location": {
          "lat": -1.2471951,
          "lng": 36.6790986
        },
        "keyAccentLanguage": "kikuyu"
      },
      {
        "code": 0,
        "type": "City",
        "enNameLanguage": "Chegeini",
        "location": {
          "lat": -1.05,
          "lng": 36.917
        },
        "keyAccentLanguage": "chegeini"
      },
      {
        "code": 0,
        "type": "City",
        "enNameLanguage": "Ekaru",
        "location": {
          "lat": -1.2,
          "lng": 36.7
        },
        "keyAccentLanguage": "ekaru"
      },
      {
        "code": 0,
        "type": "City",
        "enNameLanguage": "Gathage",
        "location": {
          "lat": -1.033,
          "lng": 36.9
        },
        "keyAccentLanguage": "gathage"
      },
      {
        "code": 0,
        "type": "City",
        "enNameLanguage": "Gathiruini",
        "location": {
          "lat": -1.033,
          "lng": 36.817
        },
        "keyAccentLanguage": "gathiruini"
      },
      {
        "code": 0,
        "type": "City",
        "enNameLanguage": "Karuri",
        "location": {
          "lat": -0.967,
          "lng": 36.917
        },
        "keyAccentLanguage": "karuri"
      },
      {
        "code": 0,
        "type": "City",
        "enNameLanguage": "Gachege",
        "location": {
          "lat": -0.9,
          "lng": 36.8
        },
        "keyAccentLanguage": "gachege"
      },
      {
        "code": 0,
        "type": "City",
        "enNameLanguage": "Limuru",
        "location": {
          "lat": -1.115,
          "lng": 36.612
        },
        "keyAccentLanguage": "limuru"
      },
      {
        "code": 0,
        "type": "City",
        "enNameLanguage": "Gatiguru",
        "location": {
          "lat": -1.067,
          "lng": 36.883
        },
        "keyAccentLanguage": "gatiguru"
      },
      {
        "code": 0,
        "type": "City",
        "enNameLanguage": "Gitwamba",
        "location": {
          "lat": -0.983,
          "lng": 36.7
        },
        "keyAccentLanguage": "gitwamba"
      },
      {
        "code": 0,
        "type": "City",
        "enNameLanguage": "Kanyoni",
        "location": {
          "lat": -0.9,
          "lng": 36.833
        },
        "keyAccentLanguage": "kanyoni"
      },
      {
        "code": 0,
        "type": "City",
        "enNameLanguage": "Gatimu",
        "location": {
          "lat": -1.167,
          "lng": 36.65
        },
        "keyAccentLanguage": "gatimu"
      },
      {
        "code": 0,
        "type": "City",
        "enNameLanguage": "Githoito",
        "location": {
          "lat": -0.967,
          "lng": 36.65
        },
        "keyAccentLanguage": "githoito"
      },
      {
        "code": 0,
        "type": "City",
        "enNameLanguage": "Gathithina",
        "location": {
          "lat": -1.217,
          "lng": 36.683
        },
        "keyAccentLanguage": "gathithina"
      },
      {
        "code": 0,
        "type": "City",
        "enNameLanguage": "Kalimoni",
        "location": {
          "lat": -1.1,
          "lng": 37.017
        },
        "keyAccentLanguage": "kalimoni"
      },
      {
        "code": 0,
        "type": "City",
        "enNameLanguage": "Gatunguru",
        "location": {
          "lat": -0.9,
          "lng": 36.833
        },
        "keyAccentLanguage": "gatunguru"
      },
      {
        "code": 0,
        "type": "City",
        "enNameLanguage": "Githamba",
        "location": {
          "lat": -1.067,
          "lng": 36.817
        },
        "keyAccentLanguage": "githamba"
      },
      {
        "code": 0,
        "type": "City",
        "enNameLanguage": "Gikaru",
        "location": {
          "lat": -1.2,
          "lng": 36.7
        },
        "keyAccentLanguage": "gikaru"
      },
      {
        "code": 0,
        "type": "City",
        "enNameLanguage": "Rironi",
        "location": {
          "lat": -1.15,
          "lng": 36.633
        },
        "keyAccentLanguage": "rironi"
      },
      {
        "code": 0,
        "type": "City",
        "enNameLanguage": "Gachika",
        "location": {
          "lat": -0.967,
          "lng": 36.767
        },
        "keyAccentLanguage": "gachika"
      },
      {
        "code": 0,
        "type": "City",
        "enNameLanguage": "Kairi",
        "location": {
          "lat": -1.083,
          "lng": 36.833
        },
        "keyAccentLanguage": "kairi"
      },
      {
        "code": 0,
        "type": "City",
        "enNameLanguage": "Escarpment",
        "location": {
          "lat": -1.017,
          "lng": 36.617
        },
        "keyAccentLanguage": "escarpment"
      },
      {
        "code": 0,
        "type": "City",
        "enNameLanguage": "Gikambura",
        "location": {
          "lat": -1.283,
          "lng": 36.633
        },
        "keyAccentLanguage": "gikambura"
      },
      {
        "code": 0,
        "type": "City",
        "enNameLanguage": "Kagwe",
        "location": {
          "lat": -1,
          "lng": 36.733
        },
        "keyAccentLanguage": "kagwe"
      },
      {
        "code": 0,
        "type": "City",
        "enNameLanguage": "Kiambaa",
        "location": {
          "lat": -1.15,
          "lng": 36.75
        },
        "keyAccentLanguage": "kiambaa"
      },
      {
        "code": 0,
        "type": "City",
        "enNameLanguage": "Gathagi",
        "location": {
          "lat": -1.05,
          "lng": 36.917
        },
        "keyAccentLanguage": "gathagi"
      },
      {
        "code": 0,
        "type": "City",
        "enNameLanguage": "Mataara",
        "location": {
          "lat": -0.867,
          "lng": 36.8
        },
        "keyAccentLanguage": "mataara"
      },
      {
        "code": 0,
        "type": "City",
        "enNameLanguage": "Githiga B",
        "location": {
          "lat": -1.1,
          "lng": 36.75
        },
        "keyAccentLanguage": "githiga_b"
      },
      {
        "code": 0,
        "type": "City",
        "enNameLanguage": "Kijabe",
        "location": {
          "lat": -0.947,
          "lng": 36.599
        },
        "keyAccentLanguage": "kijabe"
      },
      {
        "code": 0,
        "type": "City",
        "enNameLanguage": "Githunguru",
        "location": {
          "lat": -1.017,
          "lng": 36.917
        },
        "keyAccentLanguage": "githunguru"
      },
      {
        "code": 0,
        "type": "City",
        "enNameLanguage": "Kilima Mbogo",
        "location": {
          "lat": -1.055,
          "lng": 37.239
        },
        "keyAccentLanguage": "kilima_mbogo"
      },
      {
        "code": 0,
        "type": "City",
        "enNameLanguage": "Gatwamba",
        "location": {
          "lat": -1.017,
          "lng": 36.7
        },
        "keyAccentLanguage": "gatwamba"
      },
      {
        "code": 0,
        "type": "City",
        "enNameLanguage": "Githigui",
        "location": {
          "lat": -1.05,
          "lng": 36.917
        },
        "keyAccentLanguage": "githigui"
      },
      {
        "code": 0,
        "type": "City",
        "enNameLanguage": "Gathuga",
        "location": {
          "lat": -1,
          "lng": 36.8
        },
        "keyAccentLanguage": "gathuga"
      },
      {
        "code": 0,
        "type": "City",
        "enNameLanguage": "Giagithu",
        "location": {
          "lat": -1.1,
          "lng": 36.85
        },
        "keyAccentLanguage": "giagithu"
      },
      {
        "code": 0,
        "type": "City",
        "enNameLanguage": "Kiambururu",
        "location": {
          "lat": -1.05,
          "lng": 36.817
        },
        "keyAccentLanguage": "kiambururu"
      },
      {
        "code": 0,
        "type": "City",
        "enNameLanguage": "Thika",
        "location": {
          "lat": -1.054,
          "lng": 37.099
        },
        "keyAccentLanguage": "thika"
      },
      {
        "code": 0,
        "type": "City",
        "enNameLanguage": "Gathima",
        "location": {
          "lat": -1.033,
          "lng": 36.75
        },
        "keyAccentLanguage": "gathima"
      },
      {
        "code": 0,
        "type": "City",
        "enNameLanguage": "Gatamaiyu",
        "location": {
          "lat": -1,
          "lng": 36.733
        },
        "keyAccentLanguage": "gatamaiyu"
      },
      {
        "code": 0,
        "type": "City",
        "enNameLanguage": "Barigito",
        "location": {
          "lat": -0.933,
          "lng": 36.867
        },
        "keyAccentLanguage": "barigito"
      },
      {
        "code": 0,
        "type": "City",
        "enNameLanguage": "Gathangwi",
        "location": {
          "lat": -0.967,
          "lng": 36.95
        },
        "keyAccentLanguage": "gathangwi"
      },
      {
        "code": 0,
        "type": "City",
        "enNameLanguage": "Ngecha",
        "location": {
          "lat": -1.167,
          "lng": 36.667
        },
        "keyAccentLanguage": "ngecha"
      },
      {
        "code": 0,
        "type": "City",
        "enNameLanguage": "Gaithege",
        "location": {
          "lat": -1,
          "lng": 36.9
        },
        "keyAccentLanguage": "gaithege"
      },
      {
        "code": 0,
        "type": "City",
        "enNameLanguage": "Gitaru",
        "location": {
          "lat": -1.233,
          "lng": 36.683
        },
        "keyAccentLanguage": "gitaru"
      },
      {
        "code": 0,
        "type": "City",
        "enNameLanguage": "Gikui",
        "location": {
          "lat": -0.933,
          "lng": 36.917
        },
        "keyAccentLanguage": "gikui"
      },
      {
        "code": 0,
        "type": "City",
        "enNameLanguage": "Brackenhurst",
        "location": {
          "lat": -1.121,
          "lng": 36.67
        },
        "keyAccentLanguage": "brackenhurst"
      },
      {
        "code": 0,
        "type": "City",
        "enNameLanguage": "Gatuanibu",
        "location": {
          "lat": -1.2,
          "lng": 36.667
        },
        "keyAccentLanguage": "gatuanibu"
      },
      {
        "code": 0,
        "type": "City",
        "enNameLanguage": "Giachumi",
        "location": {
          "lat": -1.067,
          "lng": 36.783
        },
        "keyAccentLanguage": "giachumi"
      },
      {
        "code": 0,
        "type": "City",
        "enNameLanguage": "Gathiga",
        "location": {
          "lat": -1.217,
          "lng": 36.75
        },
        "keyAccentLanguage": "gathiga"
      },
      {
        "code": 0,
        "type": "City",
        "enNameLanguage": "Gathanje",
        "location": {
          "lat": -1.083,
          "lng": 36.783
        },
        "keyAccentLanguage": "gathanje"
      },
      {
        "code": 0,
        "type": "City",
        "enNameLanguage": "Gathugu",
        "location": {
          "lat": -1.017,
          "lng": 36.8
        },
        "keyAccentLanguage": "gathugu"
      },