[
  {
    "code": 0,
    "type": "State",
    "location": {
      "lat": 32.5719184,
      "lng": -6.0679194
    },
    "districtList": [
      {
        "code": 0,
        "type": "City",
        "enNameLanguage": "Admatene",
        "location": {
          "lat": 32.5719184,
          "lng": -6.0679194
        },
        "keyAccentLanguage": "admatene"
      },
      {
        "code": 0,
        "type": "City",
        "enNameLanguage": "Achbalou",
        "location": {
          "lat": 32.5719184,
          "lng": -6.0679194
        },
        "keyAccentLanguage": "achbalou"
      },
      {
        "code": 0,
        "type": "City",
        "enNameLanguage": "Ag-ni",
        "location": {
          "lat": 32.5719184,
          "lng": -6.0679194
        },
        "keyAccentLanguage": "ag-ni"
      },
      {
        "code": 0,
        "type": "City",
        "enNameLanguage": "Afakhfakh",
        "location": {
          "lat": 32.5719184,
          "lng": -6.0679194
        },
        "keyAccentLanguage": "afakhfakh"
      },
      {
        "code": 0,
        "type": "City",
        "enNameLanguage": "Aguensouk",
        "location": {
          "lat": 32.5719184,
          "lng": -6.0679194
        },
        "keyAccentLanguage": "aguensouk"
      },
      {
        "code": 0,
        "type": "City",
        "enNameLanguage": "Achachka",
        "location": {
          "lat": 32.9166669,
          "lng": -6.533333
        },
        "keyAccentLanguage": "achachka"
      },
      {
        "code": 0,
        "type": "City",
        "enNameLanguage": "Aguensou",
        "location": {
          "lat": 32.5719184,
          "lng": -6.0679194
        },
        "keyAccentLanguage": "aguensou"
      },
      {
        "code": 0,
        "type": "City",
        "enNameLanguage": "El Guefaf",
        "location": {
          "lat": 32.5719184,
          "lng": -6.0679194
        },
        "keyAccentLanguage": "el_guefaf"
      },
      {
        "code": 0,
        "type": "City",
        "enNameLanguage": "Agouti",
        "location": {
          "lat": 31.63930209999999,
          "lng": -6.4809854
        },
        "keyAccentLanguage": "agouti"
      },
      {
        "code": 0,
        "type": "City",
        "enNameLanguage": "Abainou",
        "location": {
          "lat": 31.933333,
          "lng": -6.8
        },
        "keyAccentLanguage": "abainou"
      },
      {
        "code": 0,
        "type": "City",
        "enNameLanguage": "Addamaghane",
        "location": {
          "lat": 32.5719184,
          "lng": -6.0679194
        },
        "keyAccentLanguage": "addamaghane"
      },
      {
        "code": 0,
        "type": "City",
        "enNameLanguage": "Ait Attab",
        "location": {
          "lat": 32.1093373,
          "lng": -6.705254099999999
        },
        "keyAccentLanguage": "ait_attab"
      },
      {
        "code": 0,
        "type": "City",
        "enNameLanguage": "Afert",
        "location": {
          "lat": 32.25,
          "lng": -5.75
        },
        "keyAccentLanguage": "afert"
      },
      {
        "code": 0,
        "type": "City",
        "enNameLanguage": "Agourai",
        "location": {
          "lat": 33.6425383,
          "lng": -5.587986
        },
        "keyAccentLanguage": "agourai"
      },
      {
        "code": 0,
        "type": "City",
        "enNameLanguage": "Azilal",
        "location": {
          "lat": 31.9626582,
          "lng": -6.5681328
        },
        "keyAccentLanguage": "azilal"
      },
      {
        "code": 0,
        "type": "City",
        "enNameLanguage": "Abachkou",
        "location": {
          "lat": 31.5988016,
          "lng": -6.606371999999999
        },
        "keyAccentLanguage": "abachkou"
      },
      {
        "code": 0,
        "type": "City",
        "enNameLanguage": "Aguerd n'Ougidoum",
        "location": {
          "lat": 32.5719184,
          "lng": -6.0679194
        },
        "keyAccentLanguage": "aguerd_n'ougidoum"
      },
      {
        "code": 0,
        "type": "City",
        "enNameLanguage": "Aggarfitane",
        "location": {
          "lat": 32.5719184,
          "lng": -6.0679194
        },
        "keyAccentLanguage": "aggarfitane"
      },
      {
        "code": 0,
        "type": "City",
        "enNameLanguage": "Aghbala",
        "location": {
          "lat": 32.4797549,
          "lng": -5.646992099999999
        },
        "keyAccentLanguage": "aghbala"
      },
      {
        "code": 0,
        "type": "City",
        "enNameLanguage": "Adafa",
        "location": {
          "lat": 32.5719184,
          "lng": -6.0679194
        },
        "keyAccentLanguage": "adafa"
      },
      {
        "code": 0,
        "type": "City",
        "enNameLanguage": "Ahl Souss",
        "location": {
          "lat": 32.4235939,
          "lng": -6.5263094
        },
        "keyAccentLanguage": "ahl_souss"
      },
      {
        "code": 0,
        "type": "City",
        "enNameLanguage": "El Ksiba",
        "location": {
          "lat": 32.5659546,
          "lng": -6.0326835
        },
        "keyAccentLanguage": "el_ksiba"
      },
      {
        "code": 0,
        "type": "City",
        "enNameLanguage": "Adouz",
        "location": {
          "lat": 32.3606887,
          "lng": -6.2933711
        },
        "keyAccentLanguage": "adouz"
      },
      {
        "code": 0,
        "type": "City",
        "enNameLanguage": "El Helalma",
        "location": {
          "lat": 32.5719184,
          "lng": -6.0679194
        },
        "keyAccentLanguage": "el_helalma"
      },
      {
        "code": 0,
        "type": "City",
        "enNameLanguage": "Aguelmous",
        "location": {
          "lat": 33.1584786,
          "lng": -5.8432964
        },
        "keyAccentLanguage": "aguelmous"
      },
      {
        "code": 0,
        "type": "City",
        "enNameLanguage": "Beni Mellal",
        "location": {
          "lat": 32.3325021,
          "lng": -6.3627066
        },
        "keyAccentLanguage": "beni_mellal"
      },
      {
        "code": 0,
        "type": "City",
        "enNameLanguage": "Aderass",
        "location": {
          "lat": 32.733333,
          "lng": -5.483333
        },
        "keyAccentLanguage": "aderass"
      },
      {
        "code": 0,
        "type": "City",
        "enNameLanguage": "Khenifra",
        "location": {
          "lat": 32.9333501,
          "lng": -5.668494099999999
        },
        "keyAccentLanguage": "khenifra"
      },
      {
        "code": 0,
        "type": "City",
        "enNameLanguage": "Aguerd n'Ouzrou",
        "location": {
          "lat": 31.6528162,
          "lng": -6.438357099999999
        },
        "keyAccentLanguage": "aguerd_n'ouzrou"
      },
      {
        "code": 0,
        "type": "City",
        "enNameLanguage": "Oued Zem",
        "location": {
          "lat": 32.8655115,
          "lng": -6.581116799999999
        },
        "keyAccentLanguage": "oued_zem"
      },
      {
        "code": 0,
        "type": "City",
        "enNameLanguage": "Ait Abd er Rahmane",
        "location": {
          "lat": 32.0549171,
          "lng": -6.876651799999999
        },
        "keyAccentLanguage": "ait_abd_er_rahmane"
      },
      {
        "code": 0,
        "type": "City",
        "enNameLanguage": "Aflar Mohammed n'Ait Kadder",
        "location": {
          "lat": 32.5719184,
          "lng": -6.0679194
        },
        "keyAccentLanguage": "aflar_mohammed_n'ait_kadder"
      },
      {
        "code": 0,
        "type": "City",
        "enNameLanguage": "Adekhsal",
        "location": {
          "lat": 32.5719184,
          "lng": -6.0679194
        },
        "keyAccentLanguage": "adekhsal"
      },
      {
        "code": 0,
        "type": "City",
        "enNameLanguage": "Ait Ammar",
        "location": {
          "lat": 33.0627854,
          "lng": -6.6624756
        },
        "keyAccentLanguage": "ait_ammar"
      },
      {
        "code": 0,
        "type": "City",
        "enNameLanguage": "Aghbalou",
        "location": {
          "lat": 31.70277219999999,
          "lng": -6.3478677
        },
        "keyAccentLanguage": "aghbalou"
      },
      {
        "code": 0,
        "type": "City",
        "enNameLanguage": "Afourer",
        "location": {
          "lat": 32.2069633,
          "lng": -6.5396999
        },
        "keyAccentLanguage": "afourer"
      },
      {
        "code": 0,
        "type": "City",
        "enNameLanguage": "Adendoun",
        "location": {
          "lat": 32.05,
          "lng": -6.083333
        },
        "keyAccentLanguage": "adendoun"
      },
      {
        "code": 0,
        "type": "City",
        "enNameLanguage": "Aghbalou-n-Kerkouf",
        "location": {
          "lat": 31.70277219999999,
          "lng": -6.3478677
        },
        "keyAccentLanguage": "aghbalou-n-kerkouf"
      },
      {
        "code": 0,
        "type": "City",
        "enNameLanguage": "Dechra Rouached",
        "location": {
          "lat": 32.95,
          "lng": -6.3
        },
        "keyAccentLanguage": "dechra_rouached"
      },
      {
        "code": 0,
        "type": "City",
        "enNameLanguage": "Oulad Embarek",
        "location": {
          "lat": 32.2811818,
          "lng": -6.4561537
        },
        "keyAccentLanguage": "oulad_embarek"
      },
      {
        "code": 0,
        "type": "City",
        "enNameLanguage": "Agad el Kadir",
        "location": {
          "lat": 31.6945961,
          "lng": -7.296312400000001
        },
        "keyAccentLanguage": "agad_el_kadir"
      },
      {
        "code": 0,
        "type": "City",
        "enNameLanguage": "Bzou",
        "location": {
          "lat": 32.0860889,
          "lng": -7.0552218
        },
        "keyAccentLanguage": "bzou"
      },
      {
        "code": 0,
        "type": "City",
        "enNameLanguage": "Ait Ishak",
        "location": {
          "lat": 32.7598523,
          "lng": -5.722084499999999
        },
        "keyAccentLanguage": "ait_ishak"
      },
      {
        "code": 0,
        "type": "City",
        "enNameLanguage": "Ait Mohammad",
        "location": {
          "lat": 32.5719184,
          "lng": -6.0679194
        },
        "keyAccentLanguage": "ait_mohammad"
      },
      {
        "code": 0,
        "type": "City",
        "enNameLanguage": "Demnate",
        "location": {
          "lat": 31.7320849,
          "lng": -7.011458999999999
        },
        "keyAccentLanguage": "demnate"
      },
      {
        "code": 0,
        "type": "City",
        "enNameLanguage": "Bine el Ouidane",
        "location": {
          "lat": 32.1085649,
          "lng": -6.4616658
        },
        "keyAccentLanguage": "bine_el_ouidane"
      },
      {
        "code": 0,
        "type": "City",
        "enNameLanguage": "Dechra Braksa",
        "location": {
          "lat": 32.8823794,
          "lng": -6.4040558
        },
        "keyAccentLanguage": "dechra_braksa"
      },
      {
        "code": 0,
        "type": "City",
        "enNameLanguage": "Bou Jniba",
        "location": {
          "lat": 32.901093,
          "lng": -6.7761686
        },
        "keyAccentLanguage": "bou_jniba"
      },
      {
        "code": 0,
        "type": "City",
        "enNameLanguage": "Ait Abd el Slam",
        "location": {
          "lat": 32.5719184,
          "lng": -6.0679194
        },
        "keyAccentLanguage": "ait_abd_el_slam"
      },
      {
        "code": 0,
        "type": "City",
        "enNameLanguage": "Aguerd",
        "location": {
          "lat": 32.5719184,
          "lng": -6.0679194
        },
        "keyAccentLanguage": "aguerd"
      },
      {
        "code": 0,
        "type": "City",
        "enNameLanguage": "Aguerd n'Oussoul",
        "location": {
          "lat": 32.25,
          "lng": -6.233333
        },
        "keyAccentLanguage": "aguerd_n'oussoul"
      },
      {
        "code": 0,
        "type": "City",
        "enNameLanguage": "Ahouinez",
        "location": {
          "lat": 32.65,
          "lng": -5.516667
        },
        "keyAccentLanguage": "ahouinez"
      },
      {
        "code": 0,
        "type": "City",
        "enNameLanguage": "Zouair",
        "location": {
          "lat": 32.5719184,
          "lng": -6.0679194
        },
        "keyAccentLanguage": "zouair"
      },
      {
        "code": 0,
        "type": "City",
        "enNameLanguage": "Sebt Bni Yakhlef",
        "location": {
          "lat": 33.0008816,
          "lng": -6.8994495
        },
        "keyAccentLanguage": "sebt_bni_yakhlef"
      },
      {
        "code": 0,
        "type": "City",
        "enNameLanguage": "Dar Ould Ziduoh",
        "location": {
          "lat": 32.29538,
          "lng": -6.69631
        },
        "keyAccentLanguage": "dar_ould_ziduoh"
      },
      {
        "code": 0,
        "type": "City",
        "enNameLanguage": "Dar Ould Zidouh",
        "location": {
          "lat": 32.3089716,
          "lng": -6.9048148
        },
        "keyAccentLanguage": "dar_ould_zidouh"
      },
      {
        "code": 0,
        "type": "City",
        "enNameLanguage": "Jemaa de Mrirt",
        "location": {
          "lat": 33.16271400000001,
          "lng": -5.5669786
        },
        "keyAccentLanguage": "jemaa_de_mrirt"
      },
      {
        "code": 0,
        "type": "City",
        "enNameLanguage": "Aguensou n' Ouarg",
        "location": {
          "lat": 32.5719184,
          "lng": -6.0679194
        },
        "keyAccentLanguage": "aguensou_n'_ouarg"
      },
      {
        "code": 0,
        "type": "City",
        "enNameLanguage": "Khouribga",
        "location": {
          "lat": 32.8867434,
          "lng": -6.9114722
        },
        "keyAccentLanguage": "khouribga"
      },
      {
        "code": 0,
        "type": "City",
        "enNameLanguage": "Ksar Day Oulad Embarek",
        "location": {
          "lat": 32.2811818,
          "lng": -6.4561537
        },
        "keyAccentLanguage": "ksar_day_oulad_embarek"
      },
      {
        "code": 0,
        "type": "City",
        "enNameLanguage": "Kasba Tadla",
        "location": {
          "lat": 32.5958283,
          "lng": -6.2694608
        },
        "keyAccentLanguage": "kasba_tadla"
      },
      {
        "code": 0,
        "type": "City",
        "enNameLanguage": "Tabia",
        "location": {
          "lat": 32.0302286,
          "lng": -6.796922400000001
        },
        "keyAccentLanguage": "tabia"
      },
      {
        "code": 0,
        "type": "City",
        "enNameLanguage": "Tabant",
        "location": {
          "lat": 31.6584818,
          "lng": -6.4103979
        },
        "keyAccentLanguage": "tabant"
      },
      {
        "code": 0,
        "type": "City",
        "enNameLanguage": "Timoulilt",
        "location": {
          "lat": 32.2066153,
          "lng": -6.4649964
        },
        "keyAccentLanguage": "timoulilt"
      },
      {
        "code": 0,
        "type": "City",
        "enNameLanguage": "Foum el Anser",
        "location": {
          "lat": 32.3735609,
          "lng": -6.2614927
        },
        "keyAccentLanguage": "foum_el_anser"
      },
      {
        "code": 0,
        "type": "City",
        "enNameLanguage": "Sidi Jaber",
        "location": {
          "lat": 32.3794719,
          "lng": -6.479652799999999
        },
        "keyAccentLanguage": "sidi_jaber"
      },
      {
        "code": 0,
        "type": "City",
        "enNameLanguage": "Souk et Tleta des Chougrane",
        "location": {
          "lat": 33.016667,
          "lng": -6.283333
        },
        "keyAccentLanguage": "souk_et_tleta_des_chougrane"
      },
      {
        "code": 0,
        "type": "City",
        "enNameLanguage": "Tislit",
        "location": {
          "lat": 31.966667,
          "lng": -6.850000000000001
        },
        "keyAccentLanguage": "tislit"
      },
      {
        "code": 0,
        "type": "City",
        "enNameLanguage": "Fkih Ben Salah",
        "location": {
          "lat": 32.5009216,
          "lng": -6.6905458
        },
        "keyAccentLanguage": "fkih_ben_salah"
      },
      {
        "code": 0,
        "type": "City",
        "enNameLanguage": "Sidi Aissa",
        "location": {
          "lat": 32.3435767,
          "lng": -6.654457799999999
        },
        "keyAccentLanguage": "sidi_aissa"
      },
      {
        "code": 0,
        "type": "City",
        "enNameLanguage": "Ouzoud",
        "location": {
          "lat": 32.014226,
          "lng": -6.7189627
        },
        "keyAccentLanguage": "ouzoud"
      },
      {
        "code": 0,
        "type": "City",
        "enNameLanguage": "Tizi n'Isly",
        "location": {
          "lat": 32.4659619,
          "lng": -5.7734377
        },
        "keyAccentLanguage": "tizi_n'isly"
      },
      {
        "code": 0,
        "type": "City",
        "enNameLanguage": "Ahl Marba",
        "location": {
          "lat": 32.46666700000001,
          "lng": -6.583333
        },
        "keyAccentLanguage": "ahl_marba"
      },
      {
        "code": 0,
        "type": "City",
        "enNameLanguage": "Kef en Nsour",
        "location": {
          "lat": 32.9041667,
          "lng": -5.9688889
        },
        "keyAccentLanguage": "kef_en_nsour"
      },
      {
        "code": 0,
        "type": "City",
        "enNameLanguage": "El Kebab",
        "location": {
          "lat": 32.7405903,
          "lng": -5.5180681
        },
        "keyAccentLanguage": "el_kebab"
      },
      {
        "code": 0,
        "type": "City",
        "enNameLanguage": "Ait `Abbes",
        "location": {
          "lat": 31.7084427,
          "lng": -6.5996963
        },
        "keyAccentLanguage": "ait_`abbes"
      },
      {
        "code": 0,
        "type": "City",
        "enNameLanguage": "Toufrine",
        "location": {
          "lat": 31.4249911,
          "lng": -6.8846971
        },
        "keyAccentLanguage": "toufrine"
      },
      {
        "code": 0,
        "type": "City",
        "enNameLanguage": "Et Tleta des Beni Oukil",
        "location": {
          "lat": 33.016667,
          "lng": -6.283333
        },
        "keyAccentLanguage": "et_tleta_des_beni_oukil"
      },
      {
        "code": 0,
        "type": "City",
        "enNameLanguage": "Tillouguit n'Ait Isha",
        "location": {
          "lat": 32.036861,
          "lng": -6.211506
        },
        "keyAccentLanguage": "tillouguit_n'ait_isha"
      },
      {
        "code": 0,
        "type": "City",
        "enNameLanguage": "Boujad",
        "location": {
          "lat": 32.7691969,
          "lng": -6.393222000000001
        },
        "keyAccentLanguage": "boujad"
      },
      {
        "code": 0,
        "type": "City",
        "enNameLanguage": "Ksar Oulad Azzouz",
        "location": {
          "lat": 32.85,
          "lng": -6.716666999999999
        },
        "keyAccentLanguage": "ksar_oulad_azzouz"
      },
      {
        "code": 0,
        "type": "City",
        "enNameLanguage": "Douar Oulad Ayad",
        "location": {
          "lat": 32.2018894,
          "lng": -6.797592
        },
        "keyAccentLanguage": "douar_oulad_ayad"
      },
      {
        "code": 0,
        "type": "City",
        "enNameLanguage": "Aguerd n'Tafoukt",
        "location": {
          "lat": 32.3,
          "lng": -5.8
        },
        "keyAccentLanguage": "aguerd_n'tafoukt"
      },
      {
        "code": 0,
        "type": "City",
        "enNameLanguage": "Sidi Yahya Ou Saad",
        "location": {
          "lat": 32.6797904,
          "lng": -5.578137799999999
        },
        "keyAccentLanguage": "sidi_yahya_ou_saad"
      },
      {
        "code": 0,
        "type": "City",
        "enNameLanguage": "El Had",
        "location": {
          "lat": 32.065708,
          "lng": -5.943224000000001
        },
        "keyAccentLanguage": "el_had"
      },
      {
        "code": 0,
        "type": "City",
        "enNameLanguage": "Zouiat ech Cheikh",
        "location": {
          "lat": 32.6438724,
          "lng": -5.9171977
        },
        "keyAccentLanguage": "zouiat_ech_cheikh"
      },
      {
        "code": 0,
        "type": "City",
        "enNameLanguage": "Taguelft",
        "location": {
          "lat": 32.2391441,
          "lng": -6.1235425
        },
        "keyAccentLanguage": "taguelft"
      },
      {
        "code": 0,
        "type": "City",
        "enNameLanguage": "Tighassaline",
        "location": {
          "lat": 32.7856913,
          "lng": -5.6484241
        },
        "keyAccentLanguage": "tighassaline"
      },
      {
        "code": 0,
        "type": "City",
        "enNameLanguage": "Douar Oulad Driss",
        "location": {
          "lat": 32.3894818,
          "lng": -6.531643799999999
        },
        "keyAccentLanguage": "douar_oulad_driss"
      },
      {
        "code": 0,
        "type": "City",
        "enNameLanguage": "Tarbat n'Tirssal",
        "location": {
          "lat": 31.5973614,
          "lng": -6.7427087
        },
        "keyAccentLanguage": "tarbat_n'tirssal"
      },
      {
        "code": 0,
        "type": "City",
        "enNameLanguage": "Tachraft",
        "location": {
          "lat": 32.8361944,
          "lng": -6.4773071
        },
        "keyAccentLanguage": "tachraft"
      },
      {
        "code": 0,
        "type": "City",
        "enNameLanguage": "Kerrouchen",
        "location": {
          "lat": 32.7986666,
          "lng": -5.3193997
        },
        "keyAccentLanguage": "kerrouchen"
      },
      {
        "code": 0,
        "type": "City",
        "enNameLanguage": "Ouaouizarht",
        "location": {
          "lat": 32.1584913,
          "lng": -6.3493632
        },
        "keyAccentLanguage": "ouaouizarht"
      },
      {
        "code": 0,
        "type": "City",
        "enNameLanguage": "Zaouia Ahansal",
        "location": {
          "lat": 31.8331255,
          "lng": -6.104333599999999
        },
        "keyAccentLanguage": "zaouia_ahansal"
      },
      {
        "code": 0,
        "type": "City",
        "enNameLanguage": "Souk el Had des Beni Batao",
        "location": {
          "lat": 32.8297898,
          "lng": -6.286728399999999
        },
        "keyAccentLanguage": "souk_el_had_des_beni_batao"
      },
      {
        "code": 0,
        "type": "City",
        "enNameLanguage": "El Khemis des Oulad Ayad",
        "location": {
          "lat": 32.2018894,
          "lng": -6.797592
        },
        "keyAccentLanguage": "el_khemis_des_oulad_ayad"
      },
      {
        "code": 0,
        "type": "City",
        "enNameLanguage": "Tarhzirt",
        "location": {
          "lat": 32.4358139,
          "lng": -6.2004383
        },
        "keyAccentLanguage": "tarhzirt"
      },
      {
        "code": 0,
        "type": "City",
        "enNameLanguage": "Moulay Bou Azza",
        "location": {
          "lat": 33.2240998,
          "lng": -6.197235099999999
        },
        "keyAccentLanguage": "moulay_bou_azza"
      },
      {
        "code": 0,
        "type": "City",
        "enNameLanguage": "Aiaeta",
        "location": {
          "lat": 32.333333,
          "lng": -6.5
        },
        "keyAccentLanguage": "aiaeta"
      },
      {
        "code": 0,
        "type": "City",
        "enNameLanguage": "Souk el Had des Bradia",
        "location": {
          "lat": 32.4500274,
          "lng": -6.532977499999999
        },
        "keyAccentLanguage": "souk_el_had_des_bradia"
      }
    ],
    "enNameLanguage": "Béni Mellal-Khénifra",
    "keyAccentLanguage": "béni_mellal-khénifra"
  },
  {
    "code": 0,
    "type": "State",
    "location": {
      "lat": 33.0266712,
      "lng": -7.6114217
    },
    "districtList": [
      {
        "code": 0,
        "type": "City",
        "enNameLanguage": "Ain Diab",
        "location": {
          "lat": 33.5889916,
          "lng": -7.673848499999999
        },
        "keyAccentLanguage": "ain_diab"
      },
      {
        "code": 0,
        "type": "City",
        "enNameLanguage": "Ben Rhanndour",
        "location": {
          "lat": 33.0266712,
          "lng": -7.6114217
        },
        "keyAccentLanguage": "ben_rhanndour"
      },
      {
        "code": 0,
        "type": "City",
        "enNameLanguage": "Al Amamcha",
        "location": {
          "lat": 33.0266712,
          "lng": -7.6114217
        },
        "keyAccentLanguage": "al_amamcha"
      },
      {
        "code": 0,
        "type": "City",
        "enNameLanguage": "Ben Chaboun",
        "location": {
          "lat": 32.8,
          "lng": -7.466666999999999
        },
        "keyAccentLanguage": "ben_chaboun"
      },
      {
        "code": 0,
        "type": "City",
        "enNameLanguage": "Ain el Ksob",
        "location": {
          "lat": 33.0266712,
          "lng": -7.6114217
        },
        "keyAccentLanguage": "ain_el_ksob"
      },
      {
        "code": 0,
        "type": "City",
        "enNameLanguage": "Abboub",
        "location": {
          "lat": 33.0266712,
          "lng": -7.6114217
        },
        "keyAccentLanguage": "abboub"
      },
      {
        "code": 0,
        "type": "City",
        "enNameLanguage": "Cherga",
        "location": {
          "lat": 33.0266712,
          "lng": -7.6114217
        },
        "keyAccentLanguage": "cherga"
      },
      {
        "code": 0,
        "type": "City",
        "enNameLanguage": "Ait Rkha",
        "location": {
          "lat": 33.0266712,
          "lng": -7.6114217
        },
        "keyAccentLanguage": "ait_rkha"
      },
      {
        "code": 0,
        "type": "City",
        "enNameLanguage": "Ain ej Jmel",
        "location": {
          "lat": 33.0266712,
          "lng": -7.6114217
        },
        "keyAccentLanguage": "ain_ej_jmel"
      },
      {
        "code": 0,
        "type": "City",
        "enNameLanguage": "Anfa-Superieur",
        "location": {
          "lat": 33.5868919,
          "lng": -7.6704072
        },
        "keyAccentLanguage": "anfa-superieur"
      },
      {
        "code": 0,
        "type": "City",
        "enNameLanguage": "Ben Nabet",
        "location": {
          "lat": 33.0266712,
          "lng": -7.6114217
        },
        "keyAccentLanguage": "ben_nabet"
      },
      {
        "code": 0,
        "type": "City",
        "enNameLanguage": "Fedalate",
        "location": {
          "lat": 33.5934793,
          "lng": -7.279242099999998
        },
        "keyAccentLanguage": "fedalate"
      },
      {
        "code": 0,
        "type": "City",
        "enNameLanguage": "Ahiout El Kohia",
        "location": {
          "lat": 32.742778,
          "lng": -9.016943999999999
        },
        "keyAccentLanguage": "ahiout_el_kohia"
      },
      {
        "code": 0,
        "type": "City",
        "enNameLanguage": "Benahmed",
        "location": {
          "lat": 33.0656876,
          "lng": -7.238317800000001
        },
        "keyAccentLanguage": "benahmed"
      },
      {
        "code": 0,
        "type": "City",
        "enNameLanguage": "Ain Chock",
        "location": {
          "lat": 33.5396986,
          "lng": -7.594067
        },
        "keyAccentLanguage": "ain_chock"
      },
      {
        "code": 0,
        "type": "City",
        "enNameLanguage": "Bir el Kelb",
        "location": {
          "lat": 33.333333,
          "lng": -6.916666999999999
        },
        "keyAccentLanguage": "bir_el_kelb"
      },
      {
        "code": 0,
        "type": "City",
        "enNameLanguage": "Chemama",
        "location": {
          "lat": 32.4058867,
          "lng": -8.5442927
        },
        "keyAccentLanguage": "chemama"
      },
      {
        "code": 0,
        "type": "City",
        "enNameLanguage": "Ali Moumene",
        "location": {
          "lat": 32.95,
          "lng": -7.616667
        },
        "keyAccentLanguage": "ali_moumene"
      },
      {
        "code": 0,
        "type": "City",
        "enNameLanguage": "Bouznika",
        "location": {
          "lat": 33.7734338,
          "lng": -7.1599419
        },
        "keyAccentLanguage": "bouznika"
      },
      {
        "code": 0,
        "type": "City",
        "enNameLanguage": "Ben Slimane",
        "location": {
          "lat": 33.6195975,
          "lng": -7.125697799999999
        },
        "keyAccentLanguage": "ben_slimane"
      },
      {
        "code": 0,
        "type": "City",
        "enNameLanguage": "Azemmour",
        "location": {
          "lat": 33.286667,
          "lng": -8.347178099999999
        },
        "keyAccentLanguage": "azemmour"
      },
      {
        "code": 0,
        "type": "City",
        "enNameLanguage": "Bir Jdid",
        "location": {
          "lat": 33.3736523,
          "lng": -8.000163299999999
        },
        "keyAccentLanguage": "bir_jdid"
      },
      {
        "code": 0,
        "type": "City",
        "enNameLanguage": "Abd el Kamel",
        "location": {
          "lat": 32.65,
          "lng": -8.85
        },
        "keyAccentLanguage": "abd_el_kamel"
      },
      {
        "code": 0,
        "type": "City",
        "enNameLanguage": "Ain Sferjila",
        "location": {
          "lat": 33.0266712,
          "lng": -7.6114217
        },
        "keyAccentLanguage": "ain_sferjila"
      },
      {
        "code": 0,
        "type": "City",
        "enNameLanguage": "Brhadda",
        "location": {
          "lat": 33.0266712,
          "lng": -7.6114217
        },
        "keyAccentLanguage": "brhadda"
      },
      {
        "code": 0,
        "type": "City",
        "enNameLanguage": "Ain Harrouda",
        "location": {
          "lat": 33.6354836,
          "lng": -7.4498563
        },
        "keyAccentLanguage": "ain_harrouda"
      },
      {
        "code": 0,
        "type": "City",
        "enNameLanguage": "Chlihat",
        "location": {
          "lat": 32.4729093,
          "lng": -7.463830199999999
        },
        "keyAccentLanguage": "chlihat"
      },
      {
        "code": 0,
        "type": "City",
        "enNameLanguage": "Beni Yakhlef",
        "location": {
          "lat": 33.6812829,
          "lng": -7.3489551
        },
        "keyAccentLanguage": "beni_yakhlef"
      },
      {
        "code": 0,
        "type": "City",
        "enNameLanguage": "Bir Kaddour",
        "location": {
          "lat": 32.366667,
          "lng": -7.116667
        },
        "keyAccentLanguage": "bir_kaddour"
      },
      {
        "code": 0,
        "type": "City",
        "enNameLanguage": "Bouskoura",
        "location": {
          "lat": 33.4573633,
          "lng": -7.6503804
        },
        "keyAccentLanguage": "bouskoura"
      },
      {
        "code": 0,
        "type": "City",
        "enNameLanguage": "Mansouria",
        "location": {
          "lat": 33.7398441,
          "lng": -7.2907327
        },
        "keyAccentLanguage": "mansouria"
      },
      {
        "code": 0,
        "type": "City",
        "enNameLanguage": "Jorf Lasfar",
        "location": {
          "lat": 33.1613889,
          "lng": -8.629444399999999
        },
        "keyAccentLanguage": "jorf_lasfar"
      },
      {
        "code": 0,
        "type": "City",
        "enNameLanguage": "Ain Tekki",
        "location": {
          "lat": 33.6613692,
          "lng": -7.350643000000001
        },
        "keyAccentLanguage": "ain_tekki"
      },
      {
        "code": 0,
        "type": "City",
        "enNameLanguage": "Amdidih",
        "location": {
          "lat": 32.583333,
          "lng": -7.699999999999999
        },
        "keyAccentLanguage": "amdidih"
      },
      {
        "code": 0,
        "type": "City",
        "enNameLanguage": "Bel Rhalmia",
        "location": {
          "lat": 32.533333,
          "lng": -8.866667
        },
        "keyAccentLanguage": "bel_rhalmia"
      },
      {
        "code": 0,
        "type": "City",
        "enNameLanguage": "Bou Chaib",
        "location": {
          "lat": 33.5942788,
          "lng": -7.6139719
        },
        "keyAccentLanguage": "bou_chaib"
      },
      {
        "code": 0,
        "type": "City",
        "enNameLanguage": "Matrann",
        "location": {
          "lat": 33.0266712,
          "lng": -7.6114217
        },
        "keyAccentLanguage": "matrann"
      },
      {
        "code": 0,
        "type": "City",
        "enNameLanguage": "Chouga",
        "location": {
          "lat": 33.0266712,
          "lng": -7.6114217
        },
        "keyAccentLanguage": "chouga"
      },
      {
        "code": 0,
        "type": "City",
        "enNameLanguage": "El Hank",
        "location": {
          "lat": 33.6059481,
          "lng": -7.650742099999999
        },
        "keyAccentLanguage": "el_hank"
      },
      {
        "code": 0,
        "type": "City",
        "enNameLanguage": "Oualidia",
        "location": {
          "lat": 32.7361897,
          "lng": -9.0294708
        },
        "keyAccentLanguage": "oualidia"
      },
      {
        "code": 0,
        "type": "City",
        "enNameLanguage": "Roches Noires",
        "location": {
          "lat": 33.6070335,
          "lng": -7.565350199999999
        },
        "keyAccentLanguage": "roches_noires"
      },
      {
        "code": 0,
        "type": "City",
        "enNameLanguage": "Ben Sassi",
        "location": {
          "lat": 33.0266712,
          "lng": -7.6114217
        },
        "keyAccentLanguage": "ben_sassi"
      },
      {
        "code": 0,
        "type": "City",
        "enNameLanguage": "Chaita",
        "location": {
          "lat": 33.0266712,
          "lng": -7.6114217
        },
        "keyAccentLanguage": "chaita"
      },
      {
        "code": 0,
        "type": "City",
        "enNameLanguage": "L'Oasis",
        "location": {
          "lat": 33.5579775,
          "lng": -7.6365078
        },
        "keyAccentLanguage": "l'oasis"
      },
      {
        "code": 0,
        "type": "City",
        "enNameLanguage": "Caidel Mekki",
        "location": {
          "lat": 33.2875,
          "lng": -7.202777999999999
        },
        "keyAccentLanguage": "caidel_mekki"
      },
      {
        "code": 0,
        "type": "City",
        "enNameLanguage": "Damna",
        "location": {
          "lat": 32.433333,
          "lng": -7.116667
        },
        "keyAccentLanguage": "damna"
      },
      {
        "code": 0,
        "type": "City",
        "enNameLanguage": "Arba Aounate",
        "location": {
          "lat": 32.7407005,
          "lng": -8.1912279
        },
        "keyAccentLanguage": "arba_aounate"
      },
      {
        "code": 0,
        "type": "City",
        "enNameLanguage": "Oulad Said",
        "location": {
          "lat": 32.9675326,
          "lng": -7.8145058
        },
        "keyAccentLanguage": "oulad_said"
      },
      {
        "code": 0,
        "type": "City",
        "enNameLanguage": "Douar Oulad Ziane",
        "location": {
          "lat": 33.5795237,
          "lng": -7.582962200000001
        },
        "keyAccentLanguage": "douar_oulad_ziane"
      },
      {
        "code": 0,
        "type": "City",
        "enNameLanguage": "El Jadida",
        "location": {
          "lat": 33.2347178,
          "lng": -8.5027492
        },
        "keyAccentLanguage": "el_jadida"
      },
      {
        "code": 0,
        "type": "City",
        "enNameLanguage": "Bdaoua",
        "location": {
          "lat": 33.0266712,
          "lng": -7.6114217
        },
        "keyAccentLanguage": "bdaoua"
      },
      {
        "code": 0,
        "type": "City",
        "enNameLanguage": "Casablanca",
        "location": {
          "lat": 33.5731104,
          "lng": -7.589843399999999
        },
        "keyAccentLanguage": "casablanca"
      },
      {
        "code": 0,
        "type": "City",
        "enNameLanguage": "Douar Oulad Hassine",
        "location": {
          "lat": 33.0266712,
          "lng": -7.6114217
        },
        "keyAccentLanguage": "douar_oulad_hassine"
      },
      {
        "code": 0,
        "type": "City",
        "enNameLanguage": "Dar Chafai",
        "location": {
          "lat": 32.5169952,
          "lng": -7.503066899999999
        },
        "keyAccentLanguage": "dar_chafai"
      },
      {
        "code": 0,
        "type": "City",
        "enNameLanguage": "Et Tnine el Rharbia",
        "location": {
          "lat": 33.0266712,
          "lng": -7.6114217
        },
        "keyAccentLanguage": "et_tnine_el_rharbia"
      },
      {
        "code": 0,
        "type": "City",
        "enNameLanguage": "Bir Tsour",
        "location": {
          "lat": 33.0266712,
          "lng": -7.6114217
        },
        "keyAccentLanguage": "bir_tsour"
      },
      {
        "code": 0,
        "type": "City",
        "enNameLanguage": "Oulad Frej",
        "location": {
          "lat": 32.9547248,
          "lng": -8.216481
        },
        "keyAccentLanguage": "oulad_frej"
      },
      {
        "code": 0,
        "type": "City",
        "enNameLanguage": "Chaibat",
        "location": {
          "lat": 33.25,
          "lng": -7.149999999999999
        },
        "keyAccentLanguage": "chaibat"
      },
      {
        "code": 0,
        "type": "City",
        "enNameLanguage": "El Borouj",
        "location": {
          "lat": 32.5068574,
          "lng": -7.195191299999999
        },
        "keyAccentLanguage": "el_borouj"
      },
      {
        "code": 0,
        "type": "City",
        "enNameLanguage": "Caid Said Ben Daouia",
        "location": {
          "lat": 33.0266712,
          "lng": -7.6114217
        },
        "keyAccentLanguage": "caid_said_ben_daouia"
      },
      {
        "code": 0,
        "type": "City",
        "enNameLanguage": "Camp de Mediouna",
        "location": {
          "lat": 33.474722,
          "lng": -7.531944
        },
        "keyAccentLanguage": "camp_de_mediouna"
      },
      {
        "code": 0,
        "type": "City",
        "enNameLanguage": "Ain Sebaa",
        "location": {
          "lat": 33.6005081,
          "lng": -7.535555500000001
        },
        "keyAccentLanguage": "ain_sebaa"
      },
      {
        "code": 0,
        "type": "City",
        "enNameLanguage": "Nouaseur",
        "location": {
          "lat": 33.372091,
          "lng": -7.5671668
        },
        "keyAccentLanguage": "nouaseur"
      },
      {
        "code": 0,
        "type": "City",
        "enNameLanguage": "Moulay Abdallah",
        "location": {
          "lat": 33.1963963,
          "lng": -8.587212
        },
        "keyAccentLanguage": "moulay_abdallah"
      },
      {
        "code": 0,
        "type": "City",
        "enNameLanguage": "Mechra Benabbou",
        "location": {
          "lat": 32.658001,
          "lng": -7.800071000000001
        },
        "keyAccentLanguage": "mechra_benabbou"
      },
      {
        "code": 0,
        "type": "City",
        "enNameLanguage": "Bit el Mekki",
        "location": {
          "lat": 33.35,
          "lng": -8.166667
        },
        "keyAccentLanguage": "bit_el_mekki"
      },
      {
        "code": 0,
        "type": "City",
        "enNameLanguage": "El Gara",
        "location": {
          "lat": 33.2759055,
          "lng": -7.234851099999998
        },
        "keyAccentLanguage": "el_gara"
      },
      {
        "code": 0,
        "type": "City",
        "enNameLanguage": "Dah Hammou Ben Cheikh",
        "location": {
          "lat": 33.0266712,
          "lng": -7.6114217
        },
        "keyAccentLanguage": "dah_hammou_ben_cheikh"
      },
      {
        "code": 0,
        "type": "City",
        "enNameLanguage": "Ziaida",
        "location": {
          "lat": 33.492778,
          "lng": -7.103611
        },
        "keyAccentLanguage": "ziaida"
      },
      {
        "code": 0,
        "type": "City",
        "enNameLanguage": "Ras el Ain",
        "location": {
          "lat": 32.9795925,
          "lng": -7.393530699999999
        },
        "keyAccentLanguage": "ras_el_ain"
      },
      {
        "code": 0,
        "type": "City",
        "enNameLanguage": "Settat",
        "location": {
          "lat": 33.002165,
          "lng": -7.619628899999999
        },
        "keyAccentLanguage": "settat"
      },
      {
        "code": 0,
        "type": "City",
        "enNameLanguage": "El Khemis des Zemamra",
        "location": {
          "lat": 32.621275,
          "lng": -8.702238399999999
        },
        "keyAccentLanguage": "el_khemis_des_zemamra"
      },
      {
        "code": 0,
        "type": "City",
        "enNameLanguage": "Ain el Hamra",
        "location": {
          "lat": 33.5942032,
          "lng": -7.5811488
        },
        "keyAccentLanguage": "ain_el_hamra"
      },
      {
        "code": 0,
        "type": "City",
        "enNameLanguage": "Berrechid",
        "location": {
          "lat": 33.268687,
          "lng": -7.5843171
        },
        "keyAccentLanguage": "berrechid"
      },
      {
        "code": 0,
        "type": "City",
        "enNameLanguage": "El Khemis el Metouh",
        "location": {
          "lat": 32.88,
          "lng": -8.173333
        },
        "keyAccentLanguage": "el_khemis_el_metouh"
      },
      {
        "code": 0,
        "type": "City",
        "enNameLanguage": "Mediouna",
        "location": {
          "lat": 33.4540939,
          "lng": -7.516602000000001
        },
        "keyAccentLanguage": "mediouna"
      },
      {
        "code": 0,
        "type": "City",
        "enNameLanguage": "Mohammedia",
        "location": {
          "lat": 33.6835563,
          "lng": -7.385649399999999
        },
        "keyAccentLanguage": "mohammedia"
      },
      {
        "code": 0,
        "type": "City",
        "enNameLanguage": "Bou Sedra",
        "location": {
          "lat": 33.2,
          "lng": -8.166667
        },
        "keyAccentLanguage": "bou_sedra"
      },
      {
        "code": 0,
        "type": "City",
        "enNameLanguage": "Tit Mellil",
        "location": {
          "lat": 33.5518758,
          "lng": -7.483281999999999
        },
        "keyAccentLanguage": "tit_mellil"
      },
      {
        "code": 0,
        "type": "City",
        "enNameLanguage": "Dar Bel Mati",
        "location": {
          "lat": 33.05,
          "lng": -8.133333
        },
        "keyAccentLanguage": "dar_bel_mati"
      },
      {
        "code": 0,
        "type": "City",
        "enNameLanguage": "Dar Ahmed Ben Hammadi",
        "location": {
          "lat": 33.0266712,
          "lng": -7.6114217
        },
        "keyAccentLanguage": "dar_ahmed_ben_hammadi"
      },
      {
        "code": 0,
        "type": "City",
        "enNameLanguage": "Cherkaoua",
        "location": {
          "lat": 32.8388624,
          "lng": -8.317056899999999
        },
        "keyAccentLanguage": "cherkaoua"
      },
      {
        "code": 0,
        "type": "City",
        "enNameLanguage": "Sidi Ma'rouf",
        "location": {
          "lat": 33.5155613,
          "lng": -7.658315999999999
        },
        "keyAccentLanguage": "sidi_ma'rouf"
      },
      {
        "code": 0,
        "type": "City",
        "enNameLanguage": "Oulad Ben Chaoui",
        "location": {
          "lat": 32.7095589,
          "lng": -8.843856299999999
        },
        "keyAccentLanguage": "oulad_ben_chaoui"
      },
      {
        "code": 0,
        "type": "City",
        "enNameLanguage": "Sidi Said Maachou",
        "location": {
          "lat": 33.1449998,
          "lng": -8.1167895
        },
        "keyAccentLanguage": "sidi_said_maachou"
      },
      {
        "code": 0,
        "type": "City",
        "enNameLanguage": "Mellila",
        "location": {
          "lat": 33.3910123,
          "lng": -7.1453609
        },
        "keyAccentLanguage": "mellila"
      },
      {
        "code": 0,
        "type": "City",
        "enNameLanguage": "Guisser",
        "location": {
          "lat": 32.7668648,
          "lng": -7.5057737
        },
        "keyAccentLanguage": "guisser"
      },
      {
        "code": 0,
        "type": "City",
        "enNameLanguage": "Souk Tleta Loulad",
        "location": {
          "lat": 32.983333,
          "lng": -7.133332999999999
        },
        "keyAccentLanguage": "souk_tleta_loulad"
      },
      {
        "code": 0,
        "type": "City",
        "enNameLanguage": "Dar Ali Ben Nasser",
        "location": {
          "lat": 33.0266712,
          "lng": -7.6114217
        },
        "keyAccentLanguage": "dar_ali_ben_nasser"
      },
      {
        "code": 0,
        "type": "City",
        "enNameLanguage": "Sidi Bennour",
        "location": {
          "lat": 32.6534946,
          "lng": -8.4262757
        },
        "keyAccentLanguage": "sidi_bennour"
      },
      {
        "code": 0,
        "type": "City",
        "enNameLanguage": "Sidi Moussa Ben Ali",
        "location": {
          "lat": 33.5528353,
          "lng": -7.380019900000001
        },
        "keyAccentLanguage": "sidi_moussa_ben_ali"
      },
      {
        "code": 0,
        "type": "City",
        "enNameLanguage": "Sidi Hajaj",
        "location": {
          "lat": 32.9196683,
          "lng": -7.3408535
        },
        "keyAccentLanguage": "sidi_hajaj"
      },
      {
        "code": 0,
        "type": "City",
        "enNameLanguage": "Dar Ali el Abdi",
        "location": {
          "lat": 33.266667,
          "lng": -8.233333
        },
        "keyAccentLanguage": "dar_ali_el_abdi"
      },
      {
        "code": 0,
        "type": "City",
        "enNameLanguage": "Sidi Smail",
        "location": {
          "lat": 32.8282863,
          "lng": -8.5127974
        },
        "keyAccentLanguage": "sidi_smail"
      },
      {
        "code": 0,
        "type": "City",
        "enNameLanguage": "Sebt des Beni Hellal",
        "location": {
          "lat": 32.7989631,
          "lng": -8.3755814
        },
        "keyAccentLanguage": "sebt_des_beni_hellal"
      },
      {
        "code": 0,
        "type": "City",
        "enNameLanguage": "Souk Jemaa des Oulad Abbou",
        "location": {
          "lat": 33.116667,
          "lng": -7.933333
        },
        "keyAccentLanguage": "souk_jemaa_des_oulad_abbou"
      },
      {
        "code": 0,
        "type": "City",
        "enNameLanguage": "Boulaouane",
        "location": {
          "lat": 32.8616618,
          "lng": -8.0547019
        },
        "keyAccentLanguage": "boulaouane"
      },
      {
        "code": 0,
        "type": "City",
        "enNameLanguage": "Cite de Bournazel",
        "location": {
          "lat": 33.572646,
          "lng": -7.559956
        },
        "keyAccentLanguage": "cite_de_bournazel"
      },
      {
        "code": 0,
        "type": "City",
        "enNameLanguage": "Dar Abbou",
        "location": {
          "lat": 33.4428574,
          "lng": -7.633866899999999
        },
        "keyAccentLanguage": "dar_abbou"
      },
      {
        "code": 0,
        "type": "City",
        "enNameLanguage": "Cheikh Ben Soltana",
        "location": {
          "lat": 32.433333,
          "lng": -8.383333
        },
        "keyAccentLanguage": "cheikh_ben_soltana"
      }
    ],
    "enNameLanguage": "Casablanca-Settat",
    "keyAccentLanguage": "casablanca-settat"
  },
  {
    "code": 0,
    "type": "State",
    "location": {
      "lat": 31.1499538,
      "lng": -5.393955099999999
    },
    "districtList": [
      {
        "code": 0,
        "type": "City",
        "enNameLanguage": "`Ifur",
        "location": {
          "lat": 31.1499538,
          "lng": -5.393955099999999
        },
        "keyAccentLanguage": "`ifur"
      },
      {
        "code": 0,
        "type": "City",
        "enNameLanguage": "Imider",
        "location": {
          "lat": 31.36945589999999,
          "lng": -5.7905653
        },
        "keyAccentLanguage": "imider"
      },
      {
        "code": 0,
        "type": "City",
        "enNameLanguage": "Abadou",
        "location": {
          "lat": 31.266667,
          "lng": -7.316667
        },
        "keyAccentLanguage": "abadou"
      },
      {
        "code": 0,
        "type": "City",
        "enNameLanguage": "Aboussas",
        "location": {
          "lat": 31.1499538,
          "lng": -5.393955099999999
        },
        "keyAccentLanguage": "aboussas"
      },
      {
        "code": 0,
        "type": "City",
        "enNameLanguage": "Aoutouss",
        "location": {
          "lat": 31.1499538,
          "lng": -5.393955099999999
        },
        "keyAccentLanguage": "aoutouss"
      },
      {
        "code": 0,
        "type": "City",
        "enNameLanguage": "Ait Ridi",
        "location": {
          "lat": 31.1915998,
          "lng": -6.1918353
        },
        "keyAccentLanguage": "ait_ridi"
      },
      {
        "code": 0,
        "type": "City",
        "enNameLanguage": "Aghbalou n'Serdane",
        "location": {
          "lat": 32.6771605,
          "lng": -5.2971826
        },
        "keyAccentLanguage": "aghbalou_n'serdane"
      },
      {
        "code": 0,
        "type": "City",
        "enNameLanguage": "Agrilaoun",
        "location": {
          "lat": 31.1499538,
          "lng": -5.393955099999999
        },
        "keyAccentLanguage": "agrilaoun"
      },
      {
        "code": 0,
        "type": "City",
        "enNameLanguage": "Ait Saoun",
        "location": {
          "lat": 30.7293311,
          "lng": -6.634417699999999
        },
        "keyAccentLanguage": "ait_saoun"
      },
      {
        "code": 0,
        "type": "City",
        "enNameLanguage": "Amerzgane",
        "location": {
          "lat": 31.046227,
          "lng": -7.2106867
        },
        "keyAccentLanguage": "amerzgane"
      },
      {
        "code": 0,
        "type": "City",
        "enNameLanguage": "Adrouine",
        "location": {
          "lat": 31.1499538,
          "lng": -5.393955099999999
        },
        "keyAccentLanguage": "adrouine"
      },
      {
        "code": 0,
        "type": "City",
        "enNameLanguage": "Aachour",
        "location": {
          "lat": 31.1499538,
          "lng": -5.393955099999999
        },
        "keyAccentLanguage": "aachour"
      },
      {
        "code": 0,
        "type": "City",
        "enNameLanguage": "Abbart",
        "location": {
          "lat": 31.1499538,
          "lng": -5.393955099999999
        },
        "keyAccentLanguage": "abbart"
      },
      {
        "code": 0,
        "type": "City",
        "enNameLanguage": "Abdi n'Ilemchane",
        "location": {
          "lat": 30.7800609,
          "lng": -5.7181361
        },
        "keyAccentLanguage": "abdi_n'ilemchane"
      },
      {
        "code": 0,
        "type": "City",
        "enNameLanguage": "Tamerhout",
        "location": {
          "lat": 31.1499538,
          "lng": -5.393955099999999
        },
        "keyAccentLanguage": "tamerhout"
      },
      {
        "code": 0,
        "type": "City",
        "enNameLanguage": "Aoufous",
        "location": {
          "lat": 31.6890813,
          "lng": -4.1788953
        },
        "keyAccentLanguage": "aoufous"
      },
      {
        "code": 0,
        "type": "City",
        "enNameLanguage": "El Kelaa des Mgouna",
        "location": {
          "lat": 31.2370612,
          "lng": -6.126192500000001
        },
        "keyAccentLanguage": "el_kelaa_des_mgouna"
      },
      {
        "code": 0,
        "type": "City",
        "enNameLanguage": "Agdz",
        "location": {
          "lat": 30.693834,
          "lng": -6.4481166
        },
        "keyAccentLanguage": "agdz"
      },
      {
        "code": 0,
        "type": "City",
        "enNameLanguage": "Bou Mia",
        "location": {
          "lat": 32.7244547,
          "lng": -5.1002296
        },
        "keyAccentLanguage": "bou_mia"
      },
      {
        "code": 0,
        "type": "City",
        "enNameLanguage": "Ait Hani",
        "location": {
          "lat": 31.7781122,
          "lng": -5.455502999999999
        },
        "keyAccentLanguage": "ait_hani"
      },
      {
        "code": 0,
        "type": "City",
        "enNameLanguage": "Mhamid",
        "location": {
          "lat": 29.8257743,
          "lng": -5.7234007
        },
        "keyAccentLanguage": "mhamid"
      },
      {
        "code": 0,
        "type": "City",
        "enNameLanguage": "Assoul",
        "location": {
          "lat": 31.9501627,
          "lng": -5.2097047
        },
        "keyAccentLanguage": "assoul"
      },
      {
        "code": 0,
        "type": "City",
        "enNameLanguage": "Bou Ayach",
        "location": {
          "lat": 31.1499538,
          "lng": -5.393955099999999
        },
        "keyAccentLanguage": "bou_ayach"
      },
      {
        "code": 0,
        "type": "City",
        "enNameLanguage": "Ait Khouia Assaine",
        "location": {
          "lat": 32.37442,
          "lng": -5.1903499
        },
        "keyAccentLanguage": "ait_khouia_assaine"
      },
      {
        "code": 0,
        "type": "City",
        "enNameLanguage": "Borj El Kdim",
        "location": {
          "lat": 31.80036,
          "lng": -4.961917
        },
        "keyAccentLanguage": "borj_el_kdim"
      },
      {
        "code": 0,
        "type": "City",
        "enNameLanguage": "Imilchil",
        "location": {
          "lat": 32.1544853,
          "lng": -5.632651699999999
        },
        "keyAccentLanguage": "imilchil"
      },
      {
        "code": 0,
        "type": "City",
        "enNameLanguage": "Boudenib",
        "location": {
          "lat": 31.9502403,
          "lng": -3.609117
        },
        "keyAccentLanguage": "boudenib"
      },
      {
        "code": 0,
        "type": "City",
        "enNameLanguage": "El Feggoust",
        "location": {
          "lat": 31.1499538,
          "lng": -5.393955099999999
        },
        "keyAccentLanguage": "el_feggoust"
      },
      {
        "code": 0,
        "type": "City",
        "enNameLanguage": "Ait Ali Ou Hassoua",
        "location": {
          "lat": 30.6076622,
          "lng": -5.4279948
        },
        "keyAccentLanguage": "ait_ali_ou_hassoua"
      },
      {
        "code": 0,
        "type": "City",
        "enNameLanguage": "Anou Nizam",
        "location": {
          "lat": 31.343149,
          "lng": -5.857397
        },
        "keyAccentLanguage": "anou_nizam"
      },
      {
        "code": 0,
        "type": "City",
        "enNameLanguage": "Bou Azzer",
        "location": {
          "lat": 30.516809,
          "lng": -6.907953
        },
        "keyAccentLanguage": "bou_azzer"
      },
      {
        "code": 0,
        "type": "City",
        "enNameLanguage": "Irherm n'Ougdal",
        "location": {
          "lat": 31.2299803,
          "lng": -7.423264000000001
        },
        "keyAccentLanguage": "irherm_n'ougdal"
      },
      {
        "code": 0,
        "type": "City",
        "enNameLanguage": "Anzel",
        "location": {
          "lat": 31.1499538,
          "lng": -5.393955099999999
        },
        "keyAccentLanguage": "anzel"
      },
      {
        "code": 0,
        "type": "City",
        "enNameLanguage": "Tarhdout",
        "location": {
          "lat": 31.1499538,
          "lng": -5.393955099999999
        },
        "keyAccentLanguage": "tarhdout"
      },
      {
        "code": 0,
        "type": "City",
        "enNameLanguage": "Iarhabene",
        "location": {
          "lat": 31.1499538,
          "lng": -5.393955099999999
        },
        "keyAccentLanguage": "iarhabene"
      },
      {
        "code": 0,
        "type": "City",
        "enNameLanguage": "Mellab",
        "location": {
          "lat": 31.5428218,
          "lng": -4.8365094
        },
        "keyAccentLanguage": "mellab"
      },
      {
        "code": 0,
        "type": "City",
        "enNameLanguage": "Itzer",
        "location": {
          "lat": 32.8771669,
          "lng": -5.0533632
        },
        "keyAccentLanguage": "itzer"
      },
      {
        "code": 0,
        "type": "City",
        "enNameLanguage": "Oulad Amirat",
        "location": {
          "lat": 31.1499538,
          "lng": -5.393955099999999
        },
        "keyAccentLanguage": "oulad_amirat"
      },
      {
        "code": 0,
        "type": "City",
        "enNameLanguage": "Iknioun",
        "location": {
          "lat": 31.1736495,
          "lng": -5.6734057
        },
        "keyAccentLanguage": "iknioun"
      },
      {
        "code": 0,
        "type": "City",
        "enNameLanguage": "Ait Harou",
        "location": {
          "lat": 32.4650946,
          "lng": -4.4966604
        },
        "keyAccentLanguage": "ait_harou"
      },
      {
        "code": 0,
        "type": "City",
        "enNameLanguage": "Errachidia",
        "location": {
          "lat": 31.9229606,
          "lng": -4.4336669
        },
        "keyAccentLanguage": "errachidia"
      },
      {
        "code": 0,
        "type": "City",
        "enNameLanguage": "Khemliya",
        "location": {
          "lat": 31.0260344,
          "lng": -4.005704199999999
        },
        "keyAccentLanguage": "khemliya"
      },
      {
        "code": 0,
        "type": "City",
        "enNameLanguage": "Erfoud",
        "location": {
          "lat": 31.43663339999999,
          "lng": -4.234383
        },
        "keyAccentLanguage": "erfoud"
      },
      {
        "code": 0,
        "type": "City",
        "enNameLanguage": "Rissani",
        "location": {
          "lat": 31.2798384,
          "lng": -4.2589619
        },
        "keyAccentLanguage": "rissani"
      },
      {
        "code": 0,
        "type": "City",
        "enNameLanguage": "Toundout",
        "location": {
          "lat": 31.2744392,
          "lng": -6.581008
        },
        "keyAccentLanguage": "toundout"
      },
      {
        "code": 0,
        "type": "City",
        "enNameLanguage": "Tmaho",
        "location": {
          "lat": 31.04626099999999,
          "lng": -6.01002
        },
        "keyAccentLanguage": "tmaho"
      },
      {
        "code": 0,
        "type": "City",
        "enNameLanguage": "Alnif",
        "location": {
          "lat": 31.1164073,
          "lng": -5.1666678
        },
        "keyAccentLanguage": "alnif"
      },
      {
        "code": 0,
        "type": "City",
        "enNameLanguage": "Jorf",
        "location": {
          "lat": 31.488688,
          "lng": -4.4014925
        },
        "keyAccentLanguage": "jorf"
      },
      {
        "code": 0,
        "type": "City",
        "enNameLanguage": "Rahmet Allah",
        "location": {
          "lat": 31.900579,
          "lng": -4.309216999999999
        },
        "keyAccentLanguage": "rahmet_allah"
      },
      {
        "code": 0,
        "type": "City",
        "enNameLanguage": "Midelt",
        "location": {
          "lat": 32.6799423,
          "lng": -4.7329268
        },
        "keyAccentLanguage": "midelt"
      },
      {
        "code": 0,
        "type": "City",
        "enNameLanguage": "Nkob",
        "location": {
          "lat": 30.8694027,
          "lng": -5.8644018
        },
        "keyAccentLanguage": "nkob"
      },
      {
        "code": 0,
        "type": "City",
        "enNameLanguage": "Gourrama",
        "location": {
          "lat": 32.3380328,
          "lng": -4.0729201
        },
        "keyAccentLanguage": "gourrama"
      },
      {
        "code": 0,
        "type": "City",
        "enNameLanguage": "Timerzit",
        "location": {
          "lat": 31.1942037,
          "lng": -4.967559899999999
        },
        "keyAccentLanguage": "timerzit"
      },
      {
        "code": 0,
        "type": "City",
        "enNameLanguage": "Sidi Tiar",
        "location": {
          "lat": 32.696869,
          "lng": -5.216017
        },
        "keyAccentLanguage": "sidi_tiar"
      },
      {
        "code": 0,
        "type": "City",
        "enNameLanguage": "Ait Daoud Ou Azzi",
        "location": {
          "lat": 31.83138099999999,
          "lng": -5.471227799999999
        },
        "keyAccentLanguage": "ait_daoud_ou_azzi"
      },
      {
        "code": 0,
        "type": "City",
        "enNameLanguage": "Merdani",
        "location": {
          "lat": 31.0713889,
          "lng": -3.9536111
        },
        "keyAccentLanguage": "merdani"
      },
      {
        "code": 0,
        "type": "City",
        "enNameLanguage": "Tagueroumt",
        "location": {
          "lat": 31.23574099999999,
          "lng": -4.5193709
        },
        "keyAccentLanguage": "tagueroumt"
      },
      {
        "code": 0,
        "type": "City",
        "enNameLanguage": "Irhels",
        "location": {
          "lat": 30.7324807,
          "lng": -7.0888415
        },
        "keyAccentLanguage": "irhels"
      },
      {
        "code": 0,
        "type": "City",
        "enNameLanguage": "Skoura",
        "location": {
          "lat": 31.0604911,
          "lng": -6.555654
        },
        "keyAccentLanguage": "skoura"
      },
      {
        "code": 0,
        "type": "City",
        "enNameLanguage": "Tazzarine",
        "location": {
          "lat": 30.7717757,
          "lng": -5.545978700000001
        },
        "keyAccentLanguage": "tazzarine"
      },
      {
        "code": 0,
        "type": "City",
        "enNameLanguage": "Issil",
        "location": {
          "lat": 30.2942262,
          "lng": -7.2861934
        },
        "keyAccentLanguage": "issil"
      },
      {
        "code": 0,
        "type": "City",
        "enNameLanguage": "Merzouga",
        "location": {
          "lat": 31.0801676,
          "lng": -4.013361
        },
        "keyAccentLanguage": "merzouga"
      },
      {
        "code": 0,
        "type": "City",
        "enNameLanguage": "Agoudim",
        "location": {
          "lat": 32.3819753,
          "lng": -5.1800318
        },
        "keyAccentLanguage": "agoudim"
      },
      {
        "code": 0,
        "type": "City",
        "enNameLanguage": "Rich",
        "location": {
          "lat": 32.2610805,
          "lng": -4.495379499999999
        },
        "keyAccentLanguage": "rich"
      },
      {
        "code": 0,
        "type": "City",
        "enNameLanguage": "Sour",
        "location": {
          "lat": 31.1115242,
          "lng": -7.599223299999999
        },
        "keyAccentLanguage": "sour"
      },
      {
        "code": 0,
        "type": "City",
        "enNameLanguage": "Ouarzazate",
        "location": {
          "lat": 30.9335436,
          "lng": -6.937016
        },
        "keyAccentLanguage": "ouarzazate"
      },
      {
        "code": 0,
        "type": "City",
        "enNameLanguage": "Imi n'Tagoulft",
        "location": {
          "lat": 31.10586,
          "lng": -6.868655
        },
        "keyAccentLanguage": "imi_n'tagoulft"
      },
      {
        "code": 0,
        "type": "City",
        "enNameLanguage": "Mfis",
        "location": {
          "lat": 31.04052099999999,
          "lng": -3.953413
        },
        "keyAccentLanguage": "mfis"
      },
      {
        "code": 0,
        "type": "City",
        "enNameLanguage": "Tarherat",
        "location": {
          "lat": 31.237579,
          "lng": -4.882595999999999
        },
        "keyAccentLanguage": "tarherat"
      },
      {
        "code": 0,
        "type": "City",
        "enNameLanguage": "Msemrir",
        "location": {
          "lat": 31.704172,
          "lng": -5.8116522
        },
        "keyAccentLanguage": "msemrir"
      },
      {
        "code": 0,
        "type": "City",
        "enNameLanguage": "Tineghir",
        "location": {
          "lat": 31.5204633,
          "lng": -5.5302337
        },
        "keyAccentLanguage": "tineghir"
      },
      {
        "code": 0,
        "type": "City",
        "enNameLanguage": "Tansikht",
        "location": {
          "lat": 30.6836997,
          "lng": -6.181205299999999
        },
        "keyAccentLanguage": "tansikht"
      },
      {
        "code": 0,
        "type": "City",
        "enNameLanguage": "Boumalne Dades",
        "location": {
          "lat": 31.3689243,
          "lng": -5.9885456
        },
        "keyAccentLanguage": "boumalne_dades"
      },
      {
        "code": 0,
        "type": "City",
        "enNameLanguage": "Tamgrout",
        "location": {
          "lat": 30.2638799,
          "lng": -5.6799816
        },
        "keyAccentLanguage": "tamgrout"
      },
      {
        "code": 0,
        "type": "City",
        "enNameLanguage": "Tinejad",
        "location": {
          "lat": 31.5128534,
          "lng": -5.0234472
        },
        "keyAccentLanguage": "tinejad"
      },
      {
        "code": 0,
        "type": "City",
        "enNameLanguage": "Mezguida",
        "location": {
          "lat": 31.3223922,
          "lng": -4.2576916
        },
        "keyAccentLanguage": "mezguida"
      },
      {
        "code": 0,
        "type": "City",
        "enNameLanguage": "Tagounite",
        "location": {
          "lat": 29.98035479999999,
          "lng": -5.580107300000001
        },
        "keyAccentLanguage": "tagounite"
      },
      {
        "code": 0,
        "type": "City",
        "enNameLanguage": "El Marka",
        "location": {
          "lat": 31.644239,
          "lng": -4.231729
        },
        "keyAccentLanguage": "el_marka"
      },
      {
        "code": 0,
        "type": "City",
        "enNameLanguage": "Imi n'Kern",
        "location": {
          "lat": 30.841471,
          "lng": -5.958953
        },
        "keyAccentLanguage": "imi_n'kern"
      },
      {
        "code": 0,
        "type": "City",
        "enNameLanguage": "Bou Rbia",
        "location": {
          "lat": 30.145519,
          "lng": -6.36589
        },
        "keyAccentLanguage": "bou_rbia"
      },
      {
        "code": 0,
        "type": "City",
        "enNameLanguage": "Goulmima",
        "location": {
          "lat": 31.6891751,
          "lng": -4.9574947
        },
        "keyAccentLanguage": "goulmima"
      },
      {
        "code": 0,
        "type": "City",
        "enNameLanguage": "Meski",
        "location": {
          "lat": 31.8591738,
          "lng": -4.2801348
        },
        "keyAccentLanguage": "meski"
      },
      {
        "code": 0,
        "type": "City",
        "enNameLanguage": "Zrigat",
        "location": {
          "lat": 31.6547386,
          "lng": -4.2064286
        },
        "keyAccentLanguage": "zrigat"
      },
      {
        "code": 0,
        "type": "City",
        "enNameLanguage": "Tazzakht",
        "location": {
          "lat": 31.252979,
          "lng": -6.096887
        },
        "keyAccentLanguage": "tazzakht"
      },
      {
        "code": 0,
        "type": "City",
        "enNameLanguage": "Tiouit",
        "location": {
          "lat": 31.16256,
          "lng": -5.796069
        },
        "keyAccentLanguage": "tiouit"
      },
      {
        "code": 0,
        "type": "City",
        "enNameLanguage": "Talemdout",
        "location": {
          "lat": 31.425706,
          "lng": -6.2017649
        },
        "keyAccentLanguage": "talemdout"
      },
      {
        "code": 0,
        "type": "City",
        "enNameLanguage": "Telouet",
        "location": {
          "lat": 31.28883279999999,
          "lng": -7.239665899999999
        },
        "keyAccentLanguage": "telouet"
      },
      {
        "code": 0,
        "type": "City",
        "enNameLanguage": "Tazzouguert",
        "location": {
          "lat": 32.0840419,
          "lng": -3.780039999999999
        },
        "keyAccentLanguage": "tazzouguert"
      },
      {
        "code": 0,
        "type": "City",
        "enNameLanguage": "Tifernine",
        "location": {
          "lat": 31.1499538,
          "lng": -5.393955099999999
        },
        "keyAccentLanguage": "tifernine"
      },
      {
        "code": 0,
        "type": "City",
        "enNameLanguage": "Toukter",
        "location": {
          "lat": 31.8999711,
          "lng": -4.9201644
        },
        "keyAccentLanguage": "toukter"
      },
      {
        "code": 0,
        "type": "City",
        "enNameLanguage": "Tarhzout n'Ait Yazza",
        "location": {
          "lat": 31.1499538,
          "lng": -5.393955099999999
        },
        "keyAccentLanguage": "tarhzout_n'ait_yazza"
      },
      {
        "code": 0,
        "type": "City",
        "enNameLanguage": "Tazenakht",
        "location": {
          "lat": 30.5772341,
          "lng": -7.204892399999999
        },
        "keyAccentLanguage": "tazenakht"
      },
      {
        "code": 0,
        "type": "City",
        "enNameLanguage": "Zaouia Ait Kalla",
        "location": {
          "lat": 30.907181,
          "lng": -7.657355
        },
        "keyAccentLanguage": "zaouia_ait_kalla"
      },
      {
        "code": 0,
        "type": "City",
        "enNameLanguage": "Tasga",
        "location": {
          "lat": 30.356762,
          "lng": -7.2443846
        },
        "keyAccentLanguage": "tasga"
      },
      {
        "code": 0,
        "type": "City",
        "enNameLanguage": "Zagora",
        "location": {
          "lat": 30.3428747,
          "lng": -5.8377713
        },
        "keyAccentLanguage": "zagora"
      },
      {
        "code": 0,
        "type": "City",
        "enNameLanguage": "El Hazbane",
        "location": {
          "lat": 30.819031,
          "lng": -5.257714
        },
        "keyAccentLanguage": "el_hazbane"
      },
      {
        "code": 0,
        "type": "City",
        "enNameLanguage": "El Gloa",
        "location": {
          "lat": 30.2599136,
          "lng": -6.4783202
        },
        "keyAccentLanguage": "el_gloa"
      },
      {
        "code": 0,
        "type": "City",
        "enNameLanguage": "Zeida",
        "location": {
          "lat": 32.8175662,
          "lng": -4.961064899999999
        },
        "keyAccentLanguage": "zeida"
      },
      {
        "code": 0,
        "type": "City",
        "enNameLanguage": "Ait el Rhazi",
        "location": {
          "lat": 31.216667,
          "lng": -5.1
        },
        "keyAccentLanguage": "ait_el_rhazi"
      },
      {
        "code": 0,
        "type": "City",
        "enNameLanguage": "Imassine",
        "location": {
          "lat": 31.1235993,
          "lng": -6.3491975
        },
        "keyAccentLanguage": "imassine"
      }
    ],
    "enNameLanguage": "Drâa-Tafilalet",
    "keyAccentLanguage": "drâa-tafilalet"
  },
  {
    "code": 0,
    "type": "State",
    "location": {
      "lat": 34.062529,
      "lng": -4.7277528
    },
    "districtList": [
      {
        "code": 0,
        "type": "City",
        "enNameLanguage": "Agourai",
        "location": {
          "lat": 33.6425383,
          "lng": -5.587986
        },
        "keyAccentLanguage": "agourai"
      },
      {
        "code": 0,
        "type": "City",
        "enNameLanguage": "Ahermoumou",
        "location": {
          "lat": 33.82379780000001,
          "lng": -4.4130648
        },
        "keyAccentLanguage": "ahermoumou"
      },
      {
        "code": 0,
        "type": "City",
        "enNameLanguage": "Aknoul",
        "location": {
          "lat": 34.6495513,
          "lng": -3.8629852
        },
        "keyAccentLanguage": "aknoul"
      },
      {
        "code": 0,
        "type": "City",
        "enNameLanguage": "Azrou",
        "location": {
          "lat": 33.4347305,
          "lng": -5.231887899999999
        },
        "keyAccentLanguage": "azrou"
      },
      {
        "code": 0,
        "type": "City",
        "enNameLanguage": "Ribat El Khair",
        "location": {
          "lat": 33.82379780000001,
          "lng": -4.4130648
        },
        "keyAccentLanguage": "ribat_el_khair"
      },
      {
        "code": 0,
        "type": "City",
        "enNameLanguage": "Ain Aicha",
        "location": {
          "lat": 34.4644135,
          "lng": -4.687833599999999
        },
        "keyAccentLanguage": "ain_aicha"
      },
      {
        "code": 0,
        "type": "City",
        "enNameLanguage": "Aarous",
        "location": {
          "lat": 34.062529,
          "lng": -4.7277528
        },
        "keyAccentLanguage": "aarous"
      },
      {
        "code": 0,
        "type": "City",
        "enNameLanguage": "Addala",
        "location": {
          "lat": 34.062529,
          "lng": -4.7277528
        },
        "keyAccentLanguage": "addala"
      },
      {
        "code": 0,
        "type": "City",
        "enNameLanguage": "Ain Leuh",
        "location": {
          "lat": 33.2875171,
          "lng": -5.3390102
        },
        "keyAccentLanguage": "ain_leuh"
      },
      {
        "code": 0,
        "type": "City",
        "enNameLanguage": "Beni Lent",
        "location": {
          "lat": 34.3268078,
          "lng": -4.1718542
        },
        "keyAccentLanguage": "beni_lent"
      },
      {
        "code": 0,
        "type": "City",
        "enNameLanguage": "Ait Moussa Addi",
        "location": {
          "lat": 33.9782058,
          "lng": -4.716113
        },
        "keyAccentLanguage": "ait_moussa_addi"
      },
      {
        "code": 0,
        "type": "City",
        "enNameLanguage": "Beni Ounnai",
        "location": {
          "lat": 34.683333,
          "lng": -4.8
        },
        "keyAccentLanguage": "beni_ounnai"
      },
      {
        "code": 0,
        "type": "City",
        "enNameLanguage": "Ratba",
        "location": {
          "lat": 34.7778794,
          "lng": -4.9337946
        },
        "keyAccentLanguage": "ratba"
      },
      {
        "code": 0,
        "type": "City",
        "enNameLanguage": "Ain el Aouda",
        "location": {
          "lat": 34.1,
          "lng": -4.05
        },
        "keyAccentLanguage": "ain_el_aouda"
      },
      {
        "code": 0,
        "type": "City",
        "enNameLanguage": "Ait Sbaa",
        "location": {
          "lat": 33.7848154,
          "lng": -5.0325504
        },
        "keyAccentLanguage": "ait_sbaa"
      },
      {
        "code": 0,
        "type": "City",
        "enNameLanguage": "Abdelhadi",
        "location": {
          "lat": 34.062529,
          "lng": -4.7277528
        },
        "keyAccentLanguage": "abdelhadi"
      },
      {
        "code": 0,
        "type": "City",
        "enNameLanguage": "Beni Oulid",
        "location": {
          "lat": 34.5869677,
          "lng": -4.445223299999999
        },
        "keyAccentLanguage": "beni_oulid"
      },
      {
        "code": 0,
        "type": "City",
        "enNameLanguage": "Fes",
        "location": {
          "lat": 34.0181246,
          "lng": -5.0078451
        },
        "keyAccentLanguage": "fes"
      },
      {
        "code": 0,
        "type": "City",
        "enNameLanguage": "Fes El Bali",
        "location": {
          "lat": 34.0630813,
          "lng": -4.9768757
        },
        "keyAccentLanguage": "fes_el_bali"
      },
      {
        "code": 0,
        "type": "City",
        "enNameLanguage": "Ain Bou Kellal, l",
        "location": {
          "lat": 34.062529,
          "lng": -4.7277528
        },
        "keyAccentLanguage": "ain_bou_kellal,_l"
      },
      {
        "code": 0,
        "type": "City",
        "enNameLanguage": "Ifrane",
        "location": {
          "lat": 33.5271746,
          "lng": -5.1171821
        },
        "keyAccentLanguage": "ifrane"
      },
      {
        "code": 0,
        "type": "City",
        "enNameLanguage": "El Adrej",
        "location": {
          "lat": 33.6206259,
          "lng": -4.440076599999999
        },
        "keyAccentLanguage": "el_adrej"
      },
      {
        "code": 0,
        "type": "City",
        "enNameLanguage": "Ad Demna",
        "location": {
          "lat": 34.532203,
          "lng": -4.636641
        },
        "keyAccentLanguage": "ad_demna"
      },
      {
        "code": 0,
        "type": "City",
        "enNameLanguage": "Ait Nador",
        "location": {
          "lat": 33.616667,
          "lng": -3.733333
        },
        "keyAccentLanguage": "ait_nador"
      },
      {
        "code": 0,
        "type": "City",
        "enNameLanguage": "Abouiat",
        "location": {
          "lat": 34.46361100000001,
          "lng": -5.321111
        },
        "keyAccentLanguage": "abouiat"
      },
      {
        "code": 0,
        "type": "City",
        "enNameLanguage": "Admam",
        "location": {
          "lat": 34.062529,
          "lng": -4.7277528
        },
        "keyAccentLanguage": "admam"
      },
      {
        "code": 0,
        "type": "City",
        "enNameLanguage": "Retba",
        "location": {
          "lat": 34.062529,
          "lng": -4.7277528
        },
        "keyAccentLanguage": "retba"
      },
      {
        "code": 0,
        "type": "City",
        "enNameLanguage": "Ain Cheggag",
        "location": {
          "lat": 33.8840842,
          "lng": -5.038247699999999
        },
        "keyAccentLanguage": "ain_cheggag"
      },
      {
        "code": 0,
        "type": "City",
        "enNameLanguage": "Beni Korra",
        "location": {
          "lat": 34.566667,
          "lng": -4.55
        },
        "keyAccentLanguage": "beni_korra"
      },
      {
        "code": 0,
        "type": "City",
        "enNameLanguage": "El Menzel",
        "location": {
          "lat": 33.8412305,
          "lng": -4.5469705
        },
        "keyAccentLanguage": "el_menzel"
      },
      {
        "code": 0,
        "type": "City",
        "enNameLanguage": "El Gouzat",
        "location": {
          "lat": 34.4953956,
          "lng": -4.139861199999999
        },
        "keyAccentLanguage": "el_gouzat"
      },
      {
        "code": 0,
        "type": "City",
        "enNameLanguage": "Abinane",
        "location": {
          "lat": 34.5,
          "lng": -4.516667
        },
        "keyAccentLanguage": "abinane"
      },
      {
        "code": 0,
        "type": "City",
        "enNameLanguage": "Douar Oulad Snoussi",
        "location": {
          "lat": 34.062529,
          "lng": -4.7277528
        },
        "keyAccentLanguage": "douar_oulad_snoussi"
      },
      {
        "code": 0,
        "type": "City",
        "enNameLanguage": "Bir Tamtam",
        "location": {
          "lat": 33.9809515,
          "lng": -4.643743499999999
        },
        "keyAccentLanguage": "bir_tamtam"
      },
      {
        "code": 0,
        "type": "City",
        "enNameLanguage": "El Hajeb",
        "location": {
          "lat": 33.685735,
          "lng": -5.3677844
        },
        "keyAccentLanguage": "el_hajeb"
      },
      {
        "code": 0,
        "type": "City",
        "enNameLanguage": "Oued Ouahar",
        "location": {
          "lat": 33.793121,
          "lng": -3.471109
        },
        "keyAccentLanguage": "oued_ouahar"
      },
      {
        "code": 0,
        "type": "City",
        "enNameLanguage": "Boured",
        "location": {
          "lat": 34.7302376,
          "lng": -4.0976604
        },
        "keyAccentLanguage": "boured"
      },
      {
        "code": 0,
        "type": "City",
        "enNameLanguage": "Ksar d'el Mers",
        "location": {
          "lat": 34.062529,
          "lng": -4.7277528
        },
        "keyAccentLanguage": "ksar_d'el_mers"
      },
      {
        "code": 0,
        "type": "City",
        "enNameLanguage": "Ourtzagh",
        "location": {
          "lat": 34.5190047,
          "lng": -4.9558696
        },
        "keyAccentLanguage": "ourtzagh"
      },
      {
        "code": 0,
        "type": "City",
        "enNameLanguage": "Klaia",
        "location": {
          "lat": 34.062529,
          "lng": -4.7277528
        },
        "keyAccentLanguage": "klaia"
      },
      {
        "code": 0,
        "type": "City",
        "enNameLanguage": "Outat El Hajj",
        "location": {
          "lat": 33.3433415,
          "lng": -3.7282769
        },
        "keyAccentLanguage": "outat_el_hajj"
      },
      {
        "code": 0,
        "type": "City",
        "enNameLanguage": "Ksabi",
        "location": {
          "lat": 32.8271358,
          "lng": -4.4027782
        },
        "keyAccentLanguage": "ksabi"
      },
      {
        "code": 0,
        "type": "City",
        "enNameLanguage": "Moulay Idriss",
        "location": {
          "lat": 34.056811,
          "lng": -5.522951900000001
        },
        "keyAccentLanguage": "moulay_idriss"
      },
      {
        "code": 0,
        "type": "City",
        "enNameLanguage": "Almis du Guigou",
        "location": {
          "lat": 33.3865187,
          "lng": -4.8339175
        },
        "keyAccentLanguage": "almis_du_guigou"
      },
      {
        "code": 0,
        "type": "City",
        "enNameLanguage": "Ajdir",
        "location": {
          "lat": 34.7418947,
          "lng": -3.9744506
        },
        "keyAccentLanguage": "ajdir"
      },
      {
        "code": 0,
        "type": "City",
        "enNameLanguage": "Ait Hamza",
        "location": {
          "lat": 33.266667,
          "lng": -4.75
        },
        "keyAccentLanguage": "ait_hamza"
      },
      {
        "code": 0,
        "type": "City",
        "enNameLanguage": "Ras Tabouda",
        "location": {
          "lat": 34.00543630000001,
          "lng": -4.7128802
        },
        "keyAccentLanguage": "ras_tabouda"
      },
      {
        "code": 0,
        "type": "City",
        "enNameLanguage": "Ain Mediouna",
        "location": {
          "lat": 34.4967927,
          "lng": -4.548904300000001
        },
        "keyAccentLanguage": "ain_mediouna"
      },
      {
        "code": 0,
        "type": "City",
        "enNameLanguage": "Al Khelalfa",
        "location": {
          "lat": 34.062529,
          "lng": -4.7277528
        },
        "keyAccentLanguage": "al_khelalfa"
      },
      {
        "code": 0,
        "type": "City",
        "enNameLanguage": "Ain el Orma",
        "location": {
          "lat": 33.8941043,
          "lng": -5.7484139
        },
        "keyAccentLanguage": "ain_el_orma"
      },
      {
        "code": 0,
        "type": "City",
        "enNameLanguage": "Douar Toulal",
        "location": {
          "lat": 33.8897153,
          "lng": -5.594626600000001
        },
        "keyAccentLanguage": "douar_toulal"
      },
      {
        "code": 0,
        "type": "City",
        "enNameLanguage": "El Hammam",
        "location": {
          "lat": 34.062529,
          "lng": -4.7277528
        },
        "keyAccentLanguage": "el_hammam"
      },
      {
        "code": 0,
        "type": "City",
        "enNameLanguage": "Zbair",
        "location": {
          "lat": 34.062529,
          "lng": -4.7277528
        },
        "keyAccentLanguage": "zbair"
      },
      {
        "code": 0,
        "type": "City",
        "enNameLanguage": "Beni Ali",
        "location": {
          "lat": 34.062529,
          "lng": -4.7277528
        },
        "keyAccentLanguage": "beni_ali"
      },
      {
        "code": 0,
        "type": "City",
        "enNameLanguage": "Timhadit",
        "location": {
          "lat": 33.2371814,
          "lng": -5.0599571
        },
        "keyAccentLanguage": "timhadit"
      },
      {
        "code": 0,
        "type": "City",
        "enNameLanguage": "Galaz",
        "location": {
          "lat": 34.5665418,
          "lng": -4.8728093
        },
        "keyAccentLanguage": "galaz"
      },
      {
        "code": 0,
        "type": "City",
        "enNameLanguage": "Almis Marmoucha",
        "location": {
          "lat": 33.3206172,
          "lng": -4.1795354
        },
        "keyAccentLanguage": "almis_marmoucha"
      },
      {
        "code": 0,
        "type": "City",
        "enNameLanguage": "Ain ej Jemaa",
        "location": {
          "lat": 34.0253645,
          "lng": -5.789455500000001
        },
        "keyAccentLanguage": "ain_ej_jemaa"
      },
      {
        "code": 0,
        "type": "City",
        "enNameLanguage": "Douar Hamariene",
        "location": {
          "lat": 34.062529,
          "lng": -4.7277528
        },
        "keyAccentLanguage": "douar_hamariene"
      },
      {
        "code": 0,
        "type": "City",
        "enNameLanguage": "Tizi Ouzli",
        "location": {
          "lat": 34.7634908,
          "lng": -3.7937502
        },
        "keyAccentLanguage": "tizi_ouzli"
      },
      {
        "code": 0,
        "type": "City",
        "enNameLanguage": "Meknes",
        "location": {
          "lat": 33.8674514,
          "lng": -5.538211599999999
        },
        "keyAccentLanguage": "meknes"
      },
      {
        "code": 0,
        "type": "City",
        "enNameLanguage": "Matmata",
        "location": {
          "lat": 34.0932607,
          "lng": -4.5005808
        },
        "keyAccentLanguage": "matmata"
      },
      {
        "code": 0,
        "type": "City",
        "enNameLanguage": "Tabouda",
        "location": {
          "lat": 34.7220005,
          "lng": -5.1441842
        },
        "keyAccentLanguage": "tabouda"
      },
      {
        "code": 0,
        "type": "City",
        "enNameLanguage": "Oulad Mkoudo",
        "location": {
          "lat": 33.8130678,
          "lng": -4.517328099999999
        },
        "keyAccentLanguage": "oulad_mkoudo"
      },
      {
        "code": 0,
        "type": "City",
        "enNameLanguage": "Tissaf",
        "location": {
          "lat": 33.3964116,
          "lng": -3.5832217
        },
        "keyAccentLanguage": "tissaf"
      },
      {
        "code": 0,
        "type": "City",
        "enNameLanguage": "Meghraoua",
        "location": {
          "lat": 33.9538797,
          "lng": -4.028678
        },
        "keyAccentLanguage": "meghraoua"
      },
      {
        "code": 0,
        "type": "City",
        "enNameLanguage": "Taza",
        "location": {
          "lat": 34.2105603,
          "lng": -3.9980485
        },
        "keyAccentLanguage": "taza"
      },
      {
        "code": 0,
        "type": "City",
        "enNameLanguage": "Kef el Rhar",
        "location": {
          "lat": 34.5093791,
          "lng": -4.2564094
        },
        "keyAccentLanguage": "kef_el_rhar"
      },
      {
        "code": 0,
        "type": "City",
        "enNameLanguage": "Ain Taoujdat",
        "location": {
          "lat": 33.9403286,
          "lng": -5.2084001
        },
        "keyAccentLanguage": "ain_taoujdat"
      },
      {
        "code": 0,
        "type": "City",
        "enNameLanguage": "Fes Jedid",
        "location": {
          "lat": 34.0540932,
          "lng": -4.9900506
        },
        "keyAccentLanguage": "fes_jedid"
      },
      {
        "code": 0,
        "type": "City",
        "enNameLanguage": "Taounate",
        "location": {
          "lat": 34.536917,
          "lng": -4.6398693
        },
        "keyAccentLanguage": "taounate"
      },
      {
        "code": 0,
        "type": "City",
        "enNameLanguage": "Boulemane",
        "location": {
          "lat": 33.3674836,
          "lng": -4.7296471
        },
        "keyAccentLanguage": "boulemane"
      },
      {
        "code": 0,
        "type": "City",
        "enNameLanguage": "Oulad Ali",
        "location": {
          "lat": 33.466667,
          "lng": -3.95
        },
        "keyAccentLanguage": "oulad_ali"
      },
      {
        "code": 0,
        "type": "City",
        "enNameLanguage": "Skoura",
        "location": {
          "lat": 33.5173315,
          "lng": -4.5447355
        },
        "keyAccentLanguage": "skoura"
      },
      {
        "code": 0,
        "type": "City",
        "enNameLanguage": "Oued Amlil",
        "location": {
          "lat": 34.1922572,
          "lng": -4.2668906
        },
        "keyAccentLanguage": "oued_amlil"
      },
      {
        "code": 0,
        "type": "City",
        "enNameLanguage": "Sidi Harazem",
        "location": {
          "lat": 34.0260083,
          "lng": -4.8805909
        },
        "keyAccentLanguage": "sidi_harazem"
      },
      {
        "code": 0,
        "type": "City",
        "enNameLanguage": "Tazouta",
        "location": {
          "lat": 33.6722582,
          "lng": -4.630830500000001
        },
        "keyAccentLanguage": "tazouta"
      },
      {
        "code": 0,
        "type": "City",
        "enNameLanguage": "Sebaa Rouadi",
        "location": {
          "lat": 34.1463173,
          "lng": -5.1477679
        },
        "keyAccentLanguage": "sebaa_rouadi"
      },
      {
        "code": 0,
        "type": "City",
        "enNameLanguage": "Le Sais",
        "location": {
          "lat": 34.0096771,
          "lng": -4.9790521
        },
        "keyAccentLanguage": "le_sais"
      },
      {
        "code": 0,
        "type": "City",
        "enNameLanguage": "Bou Fekrane",
        "location": {
          "lat": 33.7557952,
          "lng": -5.485646
        },
        "keyAccentLanguage": "bou_fekrane"
      },
      {
        "code": 0,
        "type": "City",
        "enNameLanguage": "Tissa",
        "location": {
          "lat": 34.2882068,
          "lng": -4.6669947
        },
        "keyAccentLanguage": "tissa"
      },
      {
        "code": 0,
        "type": "City",
        "enNameLanguage": "Sefrou",
        "location": {
          "lat": 33.8305244,
          "lng": -4.835315400000001
        },
        "keyAccentLanguage": "sefrou"
      },
      {
        "code": 0,
        "type": "City",
        "enNameLanguage": "Tazarine",
        "location": {
          "lat": 33.8720882,
          "lng": -4.1859373
        },
        "keyAccentLanguage": "tazarine"
      },
      {
        "code": 0,
        "type": "City",
        "enNameLanguage": "Missour",
        "location": {
          "lat": 33.0460809,
          "lng": -3.9954969
        },
        "keyAccentLanguage": "missour"
      },
      {
        "code": 0,
        "type": "City",
        "enNameLanguage": "Sebaa Aioun",
        "location": {
          "lat": 33.9053487,
          "lng": -5.3756344
        },
        "keyAccentLanguage": "sebaa_aioun"
      },
      {
        "code": 0,
        "type": "City",
        "enNameLanguage": "Moulay Yacoub",
        "location": {
          "lat": 34.08744790000001,
          "lng": -5.1784019
        },
        "keyAccentLanguage": "moulay_yacoub"
      },
      {
        "code": 0,
        "type": "City",
        "enNameLanguage": "Zaouia d'Ifrane",
        "location": {
          "lat": 33.5687116,
          "lng": -5.134085799999999
        },
        "keyAccentLanguage": "zaouia_d'ifrane"
      },
      {
        "code": 0,
        "type": "City",
        "enNameLanguage": "Tilmirat",
        "location": {
          "lat": 33.5384803,
          "lng": -4.3539439
        },
        "keyAccentLanguage": "tilmirat"
      },
      {
        "code": 0,
        "type": "City",
        "enNameLanguage": "Imouzzer Du Kandar",
        "location": {
          "lat": 33.7311674,
          "lng": -5.0156456
        },
        "keyAccentLanguage": "imouzzer_du_kandar"
      },
      {
        "code": 0,
        "type": "City",
        "enNameLanguage": "Tahala",
        "location": {
          "lat": 34.0542897,
          "lng": -4.4259259
        },
        "keyAccentLanguage": "tahala"
      },
      {
        "code": 0,
        "type": "City",
        "enNameLanguage": "Nzala Beni Ammar",
        "location": {
          "lat": 34.1238097,
          "lng": -5.4293045
        },
        "keyAccentLanguage": "nzala_beni_ammar"
      },
      {
        "code": 0,
        "type": "City",
        "enNameLanguage": "Taineste",
        "location": {
          "lat": 34.5521246,
          "lng": -4.1385819
        },
        "keyAccentLanguage": "taineste"
      },
      {
        "code": 0,
        "type": "City",
        "enNameLanguage": "Sidi Abdallah",
        "location": {
          "lat": 34.179581,
          "lng": -4.318379
        },
        "keyAccentLanguage": "sidi_abdallah"
      },
      {
        "code": 0,
        "type": "City",
        "enNameLanguage": "Bhalil",
        "location": {
          "lat": 33.8512937,
          "lng": -4.8676221
        },
        "keyAccentLanguage": "bhalil"
      },
      {
        "code": 0,
        "type": "City",
        "enNameLanguage": "Imouzzer des Marmoucha",
        "location": {
          "lat": 33.4713821,
          "lng": -4.2946726
        },
        "keyAccentLanguage": "imouzzer_des_marmoucha"
      },
      {
        "code": 0,
        "type": "City",
        "enNameLanguage": "Enjil des Ait Lahsene",
        "location": {
          "lat": 33.1856927,
          "lng": -4.5508381
        },
        "keyAccentLanguage": "enjil_des_ait_lahsene"
      },
      {
        "code": 0,
        "type": "City",
        "enNameLanguage": "Karia Ba Mohamed",
        "location": {
          "lat": 34.3670576,
          "lng": -5.2188379
        },
        "keyAccentLanguage": "karia_ba_mohamed"
      },
      {
        "code": 0,
        "type": "City",
        "enNameLanguage": "Sebt Jahjouh",
        "location": {
          "lat": 33.7190024,
          "lng": -5.6661782
        },
        "keyAccentLanguage": "sebt_jahjouh"
      },
      {
        "code": 0,
        "type": "City",
        "enNameLanguage": "Bab el Mrouj",
        "location": {
          "lat": 34.062529,
          "lng": -4.7277528
        },
        "keyAccentLanguage": "bab_el_mrouj"
      },
      {
        "code": 0,
        "type": "City",
        "enNameLanguage": "Achaari",
        "location": {
          "lat": 34.062529,
          "lng": -4.7277528
        },
        "keyAccentLanguage": "achaari"
      }
    ],
    "enNameLanguage": "Fès-Meknès",
    "keyAccentLanguage": "fès-meknès"
  },
  {
    "code": 0,
    "type": "State",
    "location": {
      "lat": 28.4844281,
      "lng": -10.0807298
    },
    "districtList": [
      {
        "code": 0,
        "type": "City",
        "enNameLanguage": "Akerz",
        "location": {
          "lat": 28.4844281,
          "lng": -10.0807298
        },
        "keyAccentLanguage": "akerz"
      },
      {
        "code": 0,
        "type": "City",
        "enNameLanguage": "Abouda",
        "location": {
          "lat": 28.4844281,
          "lng": -10.0807298
        },
        "keyAccentLanguage": "abouda"
      },
      {
        "code": 0,
        "type": "City",
        "enNameLanguage": "Aguezzrane",
        "location": {
          "lat": 28.4844281,
          "lng": -10.0807298
        },
        "keyAccentLanguage": "aguezzrane"
      },
      {
        "code": 0,
        "type": "City",
        "enNameLanguage": "Abeinou",
        "location": {
          "lat": 28.4844281,
          "lng": -10.0807298
        },
        "keyAccentLanguage": "abeinou"
      },
      {
        "code": 0,
        "type": "City",
        "enNameLanguage": "Afa Inellas",
        "location": {
          "lat": 28.4844281,
          "lng": -10.0807298
        },
        "keyAccentLanguage": "afa_inellas"
      },
      {
        "code": 0,
        "type": "City",
        "enNameLanguage": "Akalmun",
        "location": {
          "lat": 28.4844281,
          "lng": -10.0807298
        },
        "keyAccentLanguage": "akalmun"
      },
      {
        "code": 0,
        "type": "City",
        "enNameLanguage": "Ait Muguen",
        "location": {
          "lat": 28.4844281,
          "lng": -10.0807298
        },
        "keyAccentLanguage": "ait_muguen"
      },
      {
        "code": 0,
        "type": "City",
        "enNameLanguage": "Ait Heraibsa",
        "location": {
          "lat": 28.4844281,
          "lng": -10.0807298
        },
        "keyAccentLanguage": "ait_heraibsa"
      },
      {
        "code": 0,
        "type": "City",
        "enNameLanguage": "Afa Nid",
        "location": {
          "lat": 28.4844281,
          "lng": -10.0807298
        },
        "keyAccentLanguage": "afa_nid"
      },
      {
        "code": 0,
        "type": "City",
        "enNameLanguage": "Adai",
        "location": {
          "lat": 29.14382659999999,
          "lng": -9.2979641
        },
        "keyAccentLanguage": "adai"
      },
      {
        "code": 0,
        "type": "City",
        "enNameLanguage": "Aguni",
        "location": {
          "lat": 29.483333,
          "lng": -10.066667
        },
        "keyAccentLanguage": "aguni"
      },
      {
        "code": 0,
        "type": "City",
        "enNameLanguage": "Abattekh",
        "location": {
          "lat": 27.833333,
          "lng": -11.466667
        },
        "keyAccentLanguage": "abattekh"
      },
      {
        "code": 0,
        "type": "City",
        "enNameLanguage": "Agouni Adanne",
        "location": {
          "lat": 28.4844281,
          "lng": -10.0807298
        },
        "keyAccentLanguage": "agouni_adanne"
      },
      {
        "code": 0,
        "type": "City",
        "enNameLanguage": "Aguechgal",
        "location": {
          "lat": 28.4844281,
          "lng": -10.0807298
        },
        "keyAccentLanguage": "aguechgal"
      },
      {
        "code": 0,
        "type": "City",
        "enNameLanguage": "Ait Brahim",
        "location": {
          "lat": 28.4844281,
          "lng": -10.0807298
        },
        "keyAccentLanguage": "ait_brahim"
      },
      {
        "code": 0,
        "type": "City",
        "enNameLanguage": "Ait Tanout",
        "location": {
          "lat": 28.4844281,
          "lng": -10.0807298
        },
        "keyAccentLanguage": "ait_tanout"
      },
      {
        "code": 0,
        "type": "City",
        "enNameLanguage": "Agouni Ou Ram",
        "location": {
          "lat": 28.4844281,
          "lng": -10.0807298
        },
        "keyAccentLanguage": "agouni_ou_ram"
      },
      {
        "code": 0,
        "type": "City",
        "enNameLanguage": "Aguejsal",
        "location": {
          "lat": 28.4844281,
          "lng": -10.0807298
        },
        "keyAccentLanguage": "aguejsal"
      },
      {
        "code": 0,
        "type": "City",
        "enNameLanguage": "Ait Cacas",
        "location": {
          "lat": 28.4844281,
          "lng": -10.0807298
        },
        "keyAccentLanguage": "ait_cacas"
      },
      {
        "code": 0,
        "type": "City",
        "enNameLanguage": "Agouni Izim",
        "location": {
          "lat": 28.4844281,
          "lng": -10.0807298
        },
        "keyAccentLanguage": "agouni_izim"
      },
      {
        "code": 0,
        "type": "City",
        "enNameLanguage": "Ait Hamed Ou Said",
        "location": {
          "lat": 28.4844281,
          "lng": -10.0807298
        },
        "keyAccentLanguage": "ait_hamed_ou_said"
      },
      {
        "code": 0,
        "type": "City",
        "enNameLanguage": "Ait Driss",
        "location": {
          "lat": 28.4844281,
          "lng": -10.0807298
        },
        "keyAccentLanguage": "ait_driss"
      },
      {
        "code": 0,
        "type": "City",
        "enNameLanguage": "Agourout",
        "location": {
          "lat": 29.21,
          "lng": -10.2
        },