[
  {
    "code": 0,
    "type": "State",
    "location": {
      "lat": -22.2565682,
      "lng": 15.4068079
    },
    "districtList": [
      {
        "code": 0,
        "type": "City",
        "enNameLanguage": "Klein-Ais",
        "location": {
          "lat": -20.95,
          "lng": 14.966667
        },
        "keyAccentLanguage": "klein-ais"
      },
      {
        "code": 0,
        "type": "City",
        "enNameLanguage": "Amasbank",
        "location": {
          "lat": -21.116667,
          "lng": 15.066667
        },
        "keyAccentLanguage": "amasbank"
      },
      {
        "code": 0,
        "type": "City",
        "enNameLanguage": "Douglas",
        "location": {
          "lat": -22.2565682,
          "lng": 15.4068079
        },
        "keyAccentLanguage": "douglas"
      },
      {
        "code": 0,
        "type": "City",
        "enNameLanguage": "Ebony",
        "location": {
          "lat": -22.2565682,
          "lng": 15.4068079
        },
        "keyAccentLanguage": "ebony"
      },
      {
        "code": 0,
        "type": "City",
        "enNameLanguage": "Emeritus",
        "location": {
          "lat": -22.2565682,
          "lng": 15.4068079
        },
        "keyAccentLanguage": "emeritus"
      },
      {
        "code": 0,
        "type": "City",
        "enNameLanguage": "Kaltenhausen",
        "location": {
          "lat": -22.2565682,
          "lng": 15.4068079
        },
        "keyAccentLanguage": "kaltenhausen"
      },
      {
        "code": 0,
        "type": "City",
        "enNameLanguage": "Goanikontes",
        "location": {
          "lat": -22.666667,
          "lng": 14.833333
        },
        "keyAccentLanguage": "goanikontes"
      },
      {
        "code": 0,
        "type": "City",
        "enNameLanguage": "Ebenhaezer",
        "location": {
          "lat": -22.2565682,
          "lng": 15.4068079
        },
        "keyAccentLanguage": "ebenhaezer"
      },
      {
        "code": 0,
        "type": "City",
        "enNameLanguage": "Cape Cross",
        "location": {
          "lat": -21.7822089,
          "lng": 14.0043327
        },
        "keyAccentLanguage": "cape_cross"
      },
      {
        "code": 0,
        "type": "City",
        "enNameLanguage": "Kwaggaspan",
        "location": {
          "lat": -20.766667,
          "lng": 15.266667
        },
        "keyAccentLanguage": "kwaggaspan"
      },
      {
        "code": 0,
        "type": "City",
        "enNameLanguage": "Kramersdorf",
        "location": {
          "lat": -22.6785897,
          "lng": 14.5393097
        },
        "keyAccentLanguage": "kramersdorf"
      },
      {
        "code": 0,
        "type": "City",
        "enNameLanguage": "Walvis Bay",
        "location": {
          "lat": -22.9585126,
          "lng": 14.5038721
        },
        "keyAccentLanguage": "walvis_bay"
      },
      {
        "code": 0,
        "type": "City",
        "enNameLanguage": "Epako",
        "location": {
          "lat": -21.22978,
          "lng": 16.03009
        },
        "keyAccentLanguage": "epako"
      },
      {
        "code": 0,
        "type": "City",
        "enNameLanguage": "Jakkalsputz",
        "location": {
          "lat": -22.1908311,
          "lng": 14.3104665
        },
        "keyAccentLanguage": "jakkalsputz"
      },
      {
        "code": 0,
        "type": "City",
        "enNameLanguage": "Arandis",
        "location": {
          "lat": -22.4195347,
          "lng": 14.9782707
        },
        "keyAccentLanguage": "arandis"
      },
      {
        "code": 0,
        "type": "City",
        "enNameLanguage": "Brandberg West",
        "location": {
          "lat": -21.1333359,
          "lng": 14.5833382
        },
        "keyAccentLanguage": "brandberg_west"
      },
      {
        "code": 0,
        "type": "City",
        "enNameLanguage": "Gobabeb",
        "location": {
          "lat": -23.5602935,
          "lng": 15.0403993
        },
        "keyAccentLanguage": "gobabeb"
      },
      {
        "code": 0,
        "type": "City",
        "enNameLanguage": "Meersig",
        "location": {
          "lat": -22.974085,
          "lng": 14.4902551
        },
        "keyAccentLanguage": "meersig"
      },
      {
        "code": 0,
        "type": "City",
        "enNameLanguage": "Edoseb",
        "location": {
          "lat": -23.266667,
          "lng": 14.75
        },
        "keyAccentLanguage": "edoseb"
      },
      {
        "code": 0,
        "type": "City",
        "enNameLanguage": "Natab",
        "location": {
          "lat": -23.6,
          "lng": 15.083333
        },
        "keyAccentLanguage": "natab"
      },
      {
        "code": 0,
        "type": "City",
        "enNameLanguage": "Hadi-Aus",
        "location": {
          "lat": -21.383333,
          "lng": 15.283333
        },
        "keyAccentLanguage": "hadi-aus"
      },
      {
        "code": 0,
        "type": "City",
        "enNameLanguage": "Arixa Ams",
        "location": {
          "lat": -21.183333,
          "lng": 14.783333
        },
        "keyAccentLanguage": "arixa_ams"
      },
      {
        "code": 0,
        "type": "City",
        "enNameLanguage": "Bethal",
        "location": {
          "lat": -22.566667,
          "lng": 15.866667
        },
        "keyAccentLanguage": "bethal"
      },
      {
        "code": 0,
        "type": "City",
        "enNameLanguage": "Otjimbingwe",
        "location": {
          "lat": -22.3531369,
          "lng": 16.1286901
        },
        "keyAccentLanguage": "otjimbingwe"
      },
      {
        "code": 0,
        "type": "City",
        "enNameLanguage": "Okombaha",
        "location": {
          "lat": -20.9833329,
          "lng": 15.333333
        },
        "keyAccentLanguage": "okombaha"
      },
      {
        "code": 0,
        "type": "City",
        "enNameLanguage": "Grieserau",
        "location": {
          "lat": -22.2565682,
          "lng": 15.4068079
        },
        "keyAccentLanguage": "grieserau"
      },
      {
        "code": 0,
        "type": "City",
        "enNameLanguage": "Okaperre",
        "location": {
          "lat": -20.966667,
          "lng": 15.666667
        },
        "keyAccentLanguage": "okaperre"
      },
      {
        "code": 0,
        "type": "City",
        "enNameLanguage": "Okaserawe",
        "location": {
          "lat": -20.55,
          "lng": 15.45
        },
        "keyAccentLanguage": "okaserawe"
      },
      {
        "code": 0,
        "type": "City",
        "enNameLanguage": "Kuisebmond",
        "location": {
          "lat": -22.2565682,
          "lng": 15.4068079
        },
        "keyAccentLanguage": "kuisebmond"
      },
      {
        "code": 0,
        "type": "City",
        "enNameLanguage": "Okotjandjoura",
        "location": {
          "lat": -20.6,
          "lng": 15.483333
        },
        "keyAccentLanguage": "okotjandjoura"
      },
      {
        "code": 0,
        "type": "City",
        "enNameLanguage": "Kraaipoort",
        "location": {
          "lat": -23.116667,
          "lng": 15.816667
        },
        "keyAccentLanguage": "kraaipoort"
      },
      {
        "code": 0,
        "type": "City",
        "enNameLanguage": "Anichab",
        "location": {
          "lat": -23.35,
          "lng": 14.516667
        },
        "keyAccentLanguage": "anichab"
      },
      {
        "code": 0,
        "type": "City",
        "enNameLanguage": "Ruhleben",
        "location": {
          "lat": -22.2565682,
          "lng": 15.4068079
        },
        "keyAccentLanguage": "ruhleben"
      },
      {
        "code": 0,
        "type": "City",
        "enNameLanguage": "Omangambo",
        "location": {
          "lat": -22.2565682,
          "lng": 15.4068079
        },
        "keyAccentLanguage": "omangambo"
      },
      {
        "code": 0,
        "type": "City",
        "enNameLanguage": "Orumwe",
        "location": {
          "lat": -21.066667,
          "lng": 15.15
        },
        "keyAccentLanguage": "orumwe"
      },
      {
        "code": 0,
        "type": "City",
        "enNameLanguage": "Birkenfels",
        "location": {
          "lat": -22.635878,
          "lng": 14.734911
        },
        "keyAccentLanguage": "birkenfels"
      },
      {
        "code": 0,
        "type": "City",
        "enNameLanguage": "Rooikop",
        "location": {
          "lat": -22.9832948,
          "lng": 14.6573246
        },
        "keyAccentLanguage": "rooikop"
      },
      {
        "code": 0,
        "type": "City",
        "enNameLanguage": "Santa",
        "location": {
          "lat": -22.2565682,
          "lng": 15.4068079
        },
        "keyAccentLanguage": "santa"
      },
      {
        "code": 0,
        "type": "City",
        "enNameLanguage": "Mondesa",
        "location": {
          "lat": -22.6600513,
          "lng": 14.5509614
        },
        "keyAccentLanguage": "mondesa"
      },
      {
        "code": 0,
        "type": "City",
        "enNameLanguage": "Okawarongo",
        "location": {
          "lat": -22.2565682,
          "lng": 15.4068079
        },
        "keyAccentLanguage": "okawarongo"
      },
      {
        "code": 0,
        "type": "City",
        "enNameLanguage": "Omaruru",
        "location": {
          "lat": -21.4206681,
          "lng": 15.9523622
        },
        "keyAccentLanguage": "omaruru"
      },
      {
        "code": 0,
        "type": "City",
        "enNameLanguage": "Ondundotjivapa",
        "location": {
          "lat": -22.2565682,
          "lng": 15.4068079
        },
        "keyAccentLanguage": "ondundotjivapa"
      },
      {
        "code": 0,
        "type": "City",
        "enNameLanguage": "Otjongundu",
        "location": {
          "lat": -22.2565682,
          "lng": 15.4068079
        },
        "keyAccentLanguage": "otjongundu"
      },
      {
        "code": 0,
        "type": "City",
        "enNameLanguage": "Narraville",
        "location": {
          "lat": -22.9584081,
          "lng": 14.5057511
        },
        "keyAccentLanguage": "narraville"
      },
      {
        "code": 0,
        "type": "City",
        "enNameLanguage": "Otjotopero",
        "location": {
          "lat": -20.75,
          "lng": 15.516667
        },
        "keyAccentLanguage": "otjotopero"
      },
      {
        "code": 0,
        "type": "City",
        "enNameLanguage": "Hildenhof",
        "location": {
          "lat": -22.699869,
          "lng": 14.909114
        },
        "keyAccentLanguage": "hildenhof"
      },
      {
        "code": 0,
        "type": "City",
        "enNameLanguage": "Karibib",
        "location": {
          "lat": -21.936425,
          "lng": 15.8535887
        },
        "keyAccentLanguage": "karibib"
      },
      {
        "code": 0,
        "type": "City",
        "enNameLanguage": "Rooibank",
        "location": {
          "lat": -23.1796416,
          "lng": 14.6493083
        },
        "keyAccentLanguage": "rooibank"
      },
      {
        "code": 0,
        "type": "City",
        "enNameLanguage": "Henties Bay",
        "location": {
          "lat": -22.1165483,
          "lng": 14.2825787
        },
        "keyAccentLanguage": "henties_bay"
      },
      {
        "code": 0,
        "type": "City",
        "enNameLanguage": "Oswater",
        "location": {
          "lat": -23.6355036,
          "lng": 15.1629674
        },
        "keyAccentLanguage": "oswater"
      },
      {
        "code": 0,
        "type": "City",
        "enNameLanguage": "Klein Klipneus",
        "location": {
          "lat": -23.4,
          "lng": 14.916667
        },
        "keyAccentLanguage": "klein_klipneus"
      },
      {
        "code": 0,
        "type": "City",
        "enNameLanguage": "Richthofen",
        "location": {
          "lat": -22.633333,
          "lng": 14.733333
        },
        "keyAccentLanguage": "richthofen"
      },
      {
        "code": 0,
        "type": "City",
        "enNameLanguage": "Trekkopje",
        "location": {
          "lat": -22.29108,
          "lng": 15.10248
        },
        "keyAccentLanguage": "trekkopje"
      },
      {
        "code": 0,
        "type": "City",
        "enNameLanguage": "Omizema",
        "location": {
          "lat": -20.8,
          "lng": 15.166667
        },
        "keyAccentLanguage": "omizema"
      },
      {
        "code": 0,
        "type": "City",
        "enNameLanguage": "Omutiwanduka",
        "location": {
          "lat": -22.2565682,
          "lng": 15.4068079
        },
        "keyAccentLanguage": "omutiwanduka"
      },
      {
        "code": 0,
        "type": "City",
        "enNameLanguage": "Daweb",
        "location": {
          "lat": -21,
          "lng": 14.883333
        },
        "keyAccentLanguage": "daweb"
      },
      {
        "code": 0,
        "type": "City",
        "enNameLanguage": "Otuwe",
        "location": {
          "lat": -22.2565682,
          "lng": 15.4068079
        },
        "keyAccentLanguage": "otuwe"
      },
      {
        "code": 0,
        "type": "City",
        "enNameLanguage": "Omatjete",
        "location": {
          "lat": -21.0529881,
          "lng": 15.5049436
        },
        "keyAccentLanguage": "omatjete"
      },
      {
        "code": 0,
        "type": "City",
        "enNameLanguage": "Wilhelmstal",
        "location": {
          "lat": -21.9129323,
          "lng": 16.3235695
        },
        "keyAccentLanguage": "wilhelmstal"
      },
      {
        "code": 0,
        "type": "City",
        "enNameLanguage": "Nu-Uis",
        "location": {
          "lat": -21.2333329,
          "lng": 15.4
        },
        "keyAccentLanguage": "nu-uis"
      },
      {
        "code": 0,
        "type": "City",
        "enNameLanguage": "Okatjiho",
        "location": {
          "lat": -21.183333,
          "lng": 15.233333
        },
        "keyAccentLanguage": "okatjiho"
      },
      {
        "code": 0,
        "type": "City",
        "enNameLanguage": "Rossing Village",
        "location": {
          "lat": -22.6376488,
          "lng": 14.6514945
        },
        "keyAccentLanguage": "rossing_village"
      },
      {
        "code": 0,
        "type": "City",
        "enNameLanguage": "Okombahe",
        "location": {
          "lat": -21.3594114,
          "lng": 15.3775245
        },
        "keyAccentLanguage": "okombahe"
      },
      {
        "code": 0,
        "type": "City",
        "enNameLanguage": "Ruimte",
        "location": {
          "lat": -23.066667,
          "lng": 15.716667
        },
        "keyAccentLanguage": "ruimte"
      },
      {
        "code": 0,
        "type": "City",
        "enNameLanguage": "Salem",
        "location": {
          "lat": -22.683333,
          "lng": 15.433333
        },
        "keyAccentLanguage": "salem"
      },
      {
        "code": 0,
        "type": "City",
        "enNameLanguage": "Okamaere",
        "location": {
          "lat": -20.833333,
          "lng": 15.466667
        },
        "keyAccentLanguage": "okamaere"
      },
      {
        "code": 0,
        "type": "City",
        "enNameLanguage": "Palmenhorst",
        "location": {
          "lat": -22.7,
          "lng": 14.9
        },
        "keyAccentLanguage": "palmenhorst"
      },
      {
        "code": 0,
        "type": "City",
        "enNameLanguage": "Okotjize",
        "location": {
          "lat": -20.666667,
          "lng": 15.283333
        },
        "keyAccentLanguage": "okotjize"
      },
      {
        "code": 0,
        "type": "City",
        "enNameLanguage": "Uis",
        "location": {
          "lat": -21.2186578,
          "lng": 14.8673531
        },
        "keyAccentLanguage": "uis"
      },
      {
        "code": 0,
        "type": "City",
        "enNameLanguage": "Ondundo",
        "location": {
          "lat": -22.2565682,
          "lng": 15.4068079
        },
        "keyAccentLanguage": "ondundo"
      },
      {
        "code": 0,
        "type": "City",
        "enNameLanguage": "Okondomba",
        "location": {
          "lat": -20.95,
          "lng": 15.166667
        },
        "keyAccentLanguage": "okondomba"
      },
      {
        "code": 0,
        "type": "City",
        "enNameLanguage": "Usakos",
        "location": {
          "lat": -22.0042153,
          "lng": 15.5855438
        },
        "keyAccentLanguage": "usakos"
      },
      {
        "code": 0,
        "type": "City",
        "enNameLanguage": "Swakopmund",
        "location": {
          "lat": -22.6749351,
          "lng": 14.5257611
        },
        "keyAccentLanguage": "swakopmund"
      },
      {
        "code": 0,
        "type": "City",
        "enNameLanguage": "Otjiperongo",
        "location": {
          "lat": -20.833333,
          "lng": 15.583333
        },
        "keyAccentLanguage": "otjiperongo"
      },
      {
        "code": 0,
        "type": "City",
        "enNameLanguage": "Rand Rifles",
        "location": {
          "lat": -22.833333,
          "lng": 14.55
        },
        "keyAccentLanguage": "rand_rifles"
      },
      {
        "code": 0,
        "type": "City",
        "enNameLanguage": "Wlotzkasbaken",
        "location": {
          "lat": -22.4086945,
          "lng": 14.4504954
        },
        "keyAccentLanguage": "wlotzkasbaken"
      },
      {
        "code": 0,
        "type": "City",
        "enNameLanguage": "Ozondati",
        "location": {
          "lat": -20.9958635,
          "lng": 15.3379997
        },
        "keyAccentLanguage": "ozondati"
      },
      {
        "code": 0,
        "type": "City",
        "enNameLanguage": "Otjivero",
        "location": {
          "lat": -20.866667,
          "lng": 15.35
        },
        "keyAccentLanguage": "otjivero"
      },
      {
        "code": 0,
        "type": "City",
        "enNameLanguage": "Otjozondjou",
        "location": {
          "lat": -20.916667,
          "lng": 15.466667
        },
        "keyAccentLanguage": "otjozondjou"
      },
      {
        "code": 0,
        "type": "City",
        "enNameLanguage": "Otjongeama",
        "location": {
          "lat": -21.183333,
          "lng": 15.316667
        },
        "keyAccentLanguage": "otjongeama"
      },
      {
        "code": 0,
        "type": "City",
        "enNameLanguage": "Homeb",
        "location": {
          "lat": -23.6366097,
          "lng": 15.181821
        },
        "keyAccentLanguage": "homeb"
      },
      {
        "code": 0,
        "type": "City",
        "enNameLanguage": "Omutjenya",
        "location": {
          "lat": -21.05,
          "lng": 15.633333
        },
        "keyAccentLanguage": "omutjenya"
      },
      {
        "code": 0,
        "type": "City",
        "enNameLanguage": "Okongwe",
        "location": {
          "lat": -20.666667,
          "lng": 15.366667
        },
        "keyAccentLanguage": "okongwe"
      },
      {
        "code": 0,
        "type": "City",
        "enNameLanguage": "Nainais",
        "location": {
          "lat": -21.45,
          "lng": 15.066667
        },
        "keyAccentLanguage": "nainais"
      },
      {
        "code": 0,
        "type": "City",
        "enNameLanguage": "Otjiwapeke",
        "location": {
          "lat": -22.2565682,
          "lng": 15.4068079
        },
        "keyAccentLanguage": "otjiwapeke"
      },
      {
        "code": 0,
        "type": "City",
        "enNameLanguage": "Schlesien Noord",
        "location": {
          "lat": -23.183333,
          "lng": 15.8
        },
        "keyAccentLanguage": "schlesien_noord"
      },
      {
        "code": 0,
        "type": "City",
        "enNameLanguage": "Otjohorongo",
        "location": {
          "lat": -20.9,
          "lng": 15.55
        },
        "keyAccentLanguage": "otjohorongo"
      },
      {
        "code": 0,
        "type": "City",
        "enNameLanguage": "Okotjoto",
        "location": {
          "lat": -22.2565682,
          "lng": 15.4068079
        },
        "keyAccentLanguage": "okotjoto"
      },
      {
        "code": 0,
        "type": "City",
        "enNameLanguage": "Okomize",
        "location": {
          "lat": -22.6308729,
          "lng": 17.0834266
        },
        "keyAccentLanguage": "okomize"
      },
      {
        "code": 0,
        "type": "City",
        "enNameLanguage": "Soutrivier",
        "location": {
          "lat": -22.2565682,
          "lng": 15.4068079
        },
        "keyAccentLanguage": "soutrivier"
      },
      {
        "code": 0,
        "type": "City",
        "enNameLanguage": "Khan Mine",
        "location": {
          "lat": -22.55,
          "lng": 15
        },
        "keyAccentLanguage": "khan_mine"
      },
      {
        "code": 0,
        "type": "City",
        "enNameLanguage": "Okajape",
        "location": {
          "lat": -20.95,
          "lng": 15.533333
        },
        "keyAccentLanguage": "okajape"
      },
      {
        "code": 0,
        "type": "City",
        "enNameLanguage": "Omitjira",
        "location": {
          "lat": -21.083333,
          "lng": 15.333333
        },
        "keyAccentLanguage": "omitjira"
      },
      {
        "code": 0,
        "type": "City",
        "enNameLanguage": "Otupopero",
        "location": {
          "lat": -22.2565682,
          "lng": 15.4068079
        },
        "keyAccentLanguage": "otupopero"
      },
      {
        "code": 0,
        "type": "City",
        "enNameLanguage": "Nanibecheb",
        "location": {
          "lat": -23.265009,
          "lng": 14.750206
        },
        "keyAccentLanguage": "nanibecheb"
      },
      {
        "code": 0,
        "type": "City",
        "enNameLanguage": "Haigamkab",
        "location": {
          "lat": -22.692484,
          "lng": 14.910732
        },
        "keyAccentLanguage": "haigamkab"
      },
      {
        "code": 0,
        "type": "City",
        "enNameLanguage": "Nuniab",
        "location": {
          "lat": -21.35,
          "lng": 15.033333
        },
        "keyAccentLanguage": "nuniab"
      },
      {
        "code": 0,
        "type": "City",
        "enNameLanguage": "Ovehotua",
        "location": {
          "lat": -22.2565682,
          "lng": 15.4068079
        },
        "keyAccentLanguage": "ovehotua"
      },
      {
        "code": 0,
        "type": "City",
        "enNameLanguage": "Okomapuku",
        "location": {
          "lat": -21.1,
          "lng": 15.45
        },
        "keyAccentLanguage": "okomapuku"
      },
      {
        "code": 0,
        "type": "City",
        "enNameLanguage": "Omauzongoka",
        "location": {
          "lat": -20.833333,
          "lng": 15.216667
        },
        "keyAccentLanguage": "omauzongoka"
      }
    ],
    "enNameLanguage": "Erongo",
    "keyAccentLanguage": "erongo"
  },
  {
    "code": 0,
    "type": "State",
    "location": {
      "lat": -24.2310134,
      "lng": 17.668887
    },
    "districtList": [
      {
        "code": 0,
        "type": "City",
        "enNameLanguage": "Rehoboth",
        "location": {
          "lat": -23.3196141,
          "lng": 17.0893798
        },
        "keyAccentLanguage": "rehoboth"
      },
      {
        "code": 0,
        "type": "City",
        "enNameLanguage": "Hardap",
        "location": {
          "lat": -24.533333,
          "lng": 17.933333
        },
        "keyAccentLanguage": "hardap"
      },
      {
        "code": 0,
        "type": "City",
        "enNameLanguage": "Bullsport",
        "location": {
          "lat": -24.1493158,
          "lng": 16.3633039
        },
        "keyAccentLanguage": "bullsport"
      },
      {
        "code": 0,
        "type": "City",
        "enNameLanguage": "Gamis",
        "location": {
          "lat": -24.533333,
          "lng": 17.933333
        },
        "keyAccentLanguage": "gamis"
      },
      {
        "code": 0,
        "type": "City",
        "enNameLanguage": "Dempster",
        "location": {
          "lat": -24.533333,
          "lng": 17.933333
        },
        "keyAccentLanguage": "dempster"
      },
      {
        "code": 0,
        "type": "City",
        "enNameLanguage": "Asab",
        "location": {
          "lat": -25.465378,
          "lng": 17.9509614
        },
        "keyAccentLanguage": "asab"
      },
      {
        "code": 0,
        "type": "City",
        "enNameLanguage": "Aurus",
        "location": {
          "lat": -24.533333,
          "lng": 17.933333
        },
        "keyAccentLanguage": "aurus"
      },
      {
        "code": 0,
        "type": "City",
        "enNameLanguage": "Grootfontein",
        "location": {
          "lat": -25.016667,
          "lng": 16.75
        },
        "keyAccentLanguage": "grootfontein"
      },
      {
        "code": 0,
        "type": "City",
        "enNameLanguage": "Kub",
        "location": {
          "lat": -24.533333,
          "lng": 17.933333
        },
        "keyAccentLanguage": "kub"
      },
      {
        "code": 0,
        "type": "City",
        "enNameLanguage": "Die Kalk",
        "location": {
          "lat": -24.533333,
          "lng": 17.933333
        },
        "keyAccentLanguage": "die_kalk"
      },
      {
        "code": 0,
        "type": "City",
        "enNameLanguage": "Bosduin",
        "location": {
          "lat": -24.533333,
          "lng": 17.933333
        },
        "keyAccentLanguage": "bosduin"
      },
      {
        "code": 0,
        "type": "City",
        "enNameLanguage": "Nooitgedacht",
        "location": {
          "lat": -24.533333,
          "lng": 17.933333
        },
        "keyAccentLanguage": "nooitgedacht"
      },
      {
        "code": 0,
        "type": "City",
        "enNameLanguage": "Derm",
        "location": {
          "lat": -23.643702,
          "lng": 18.1977188
        },
        "keyAccentLanguage": "derm"
      },
      {
        "code": 0,
        "type": "City",
        "enNameLanguage": "Naomi",
        "location": {
          "lat": -24.533333,
          "lng": 17.933333
        },
        "keyAccentLanguage": "naomi"
      },
      {
        "code": 0,
        "type": "City",
        "enNameLanguage": "Lendepas",
        "location": {
          "lat": -24.533333,
          "lng": 17.933333
        },
        "keyAccentLanguage": "lendepas"
      },
      {
        "code": 0,
        "type": "City",
        "enNameLanguage": "Mariental",
        "location": {
          "lat": -24.628762,
          "lng": 17.960556
        },
        "keyAccentLanguage": "mariental"
      },
      {
        "code": 0,
        "type": "City",
        "enNameLanguage": "Aranos",
        "location": {
          "lat": -24.1377718,
          "lng": 19.1107114
        },
        "keyAccentLanguage": "aranos"
      },
      {
        "code": 0,
        "type": "City",
        "enNameLanguage": "Bossiosvlei",
        "location": {
          "lat": -24.533333,
          "lng": 17.933333
        },
        "keyAccentLanguage": "bossiosvlei"
      },
      {
        "code": 0,
        "type": "City",
        "enNameLanguage": "Karanas",
        "location": {
          "lat": -23.8478399,
          "lng": 16.8901194
        },
        "keyAccentLanguage": "karanas"
      },
      {
        "code": 0,
        "type": "City",
        "enNameLanguage": "Hammerstein",
        "location": {
          "lat": -24.866667,
          "lng": 16.166667
        },
        "keyAccentLanguage": "hammerstein"
      },
      {
        "code": 0,
        "type": "City",
        "enNameLanguage": "Hoop",
        "location": {
          "lat": -24.533333,
          "lng": 17.933333
        },
        "keyAccentLanguage": "hoop"
      },
      {
        "code": 0,
        "type": "City",
        "enNameLanguage": "Akanous",
        "location": {
          "lat": -24.6554797,
          "lng": 19.7725614
        },
        "keyAccentLanguage": "akanous"
      },
      {
        "code": 0,
        "type": "City",
        "enNameLanguage": "Goricia",
        "location": {
          "lat": -24.533333,
          "lng": 17.933333
        },
        "keyAccentLanguage": "goricia"
      },
      {
        "code": 0,
        "type": "City",
        "enNameLanguage": "Eidsemub",
        "location": {
          "lat": -24.533333,
          "lng": 17.933333
        },
        "keyAccentLanguage": "eidsemub"
      },
      {
        "code": 0,
        "type": "City",
        "enNameLanguage": "Gross Nabas",
        "location": {
          "lat": -24.533333,
          "lng": 17.933333
        },
        "keyAccentLanguage": "gross_nabas"
      },
      {
        "code": 0,
        "type": "City",
        "enNameLanguage": "Gibeon",
        "location": {
          "lat": -25.1284305,
          "lng": 17.766582
        },
        "keyAccentLanguage": "gibeon"
      },
      {
        "code": 0,
        "type": "City",
        "enNameLanguage": "Blokwater",
        "location": {
          "lat": -23.933333,
          "lng": 17.533333
        },
        "keyAccentLanguage": "blokwater"
      },
      {
        "code": 0,
        "type": "City",
        "enNameLanguage": "Petrusdal",
        "location": {
          "lat": -24.533333,
          "lng": 17.933333
        },
        "keyAccentLanguage": "petrusdal"
      },
      {
        "code": 0,
        "type": "City",
        "enNameLanguage": "Lidfontein",
        "location": {
          "lat": -24.533333,
          "lng": 17.933333
        },
        "keyAccentLanguage": "lidfontein"
      },
      {
        "code": 0,
        "type": "City",
        "enNameLanguage": "Brakpan",
        "location": {
          "lat": -24.533333,
          "lng": 17.933333
        },
        "keyAccentLanguage": "brakpan"
      },
      {
        "code": 0,
        "type": "City",
        "enNameLanguage": "Haribes",
        "location": {
          "lat": -24.633333,
          "lng": 17.566667
        },
        "keyAccentLanguage": "haribes"
      },
      {
        "code": 0,
        "type": "City",
        "enNameLanguage": "Gochas",
        "location": {
          "lat": -24.8598097,
          "lng": 18.8046491
        },
        "keyAccentLanguage": "gochas"
      },
      {
        "code": 0,
        "type": "City",
        "enNameLanguage": "Naukluft",
        "location": {
          "lat": -24.2624283,
          "lng": 16.2430209
        },
        "keyAccentLanguage": "naukluft"
      },
      {
        "code": 0,
        "type": "City",
        "enNameLanguage": "Uhlenhorst",
        "location": {
          "lat": -23.6928054,
          "lng": 17.9679983
        },
        "keyAccentLanguage": "uhlenhorst"
      },
      {
        "code": 0,
        "type": "City",
        "enNameLanguage": "Kalkrand",
        "location": {
          "lat": -24.0716993,
          "lng": 17.5830623
        },
        "keyAccentLanguage": "kalkrand"
      },
      {
        "code": 0,
        "type": "City",
        "enNameLanguage": "Kobos",
        "location": {
          "lat": -23.5841199,
          "lng": 16.6740811
        },
        "keyAccentLanguage": "kobos"
      },
      {
        "code": 0,
        "type": "City",
        "enNameLanguage": "Isabis",
        "location": {
          "lat": -23.478951,
          "lng": 16.502939
        },
        "keyAccentLanguage": "isabis"
      },
      {
        "code": 0,
        "type": "City",
        "enNameLanguage": "Maltahohe",
        "location": {
          "lat": -24.8380587,
          "lng": 16.9801346
        },
        "keyAccentLanguage": "maltahohe"
      },
      {
        "code": 0,
        "type": "City",
        "enNameLanguage": "Cambells Aub",
        "location": {
          "lat": -23.816667,
          "lng": 16.766667
        },
        "keyAccentLanguage": "cambells_aub"
      },
      {
        "code": 0,
        "type": "City",
        "enNameLanguage": "Eirup",
        "location": {
          "lat": -24.226761,
          "lng": 18.401291
        },
        "keyAccentLanguage": "eirup"
      },
      {
        "code": 0,
        "type": "City",
        "enNameLanguage": "Tsumis",
        "location": {
          "lat": -23.72205,
          "lng": 17.437019
        },
        "keyAccentLanguage": "tsumis"
      },
      {
        "code": 0,
        "type": "City",
        "enNameLanguage": "Sesriem",
        "location": {
          "lat": -24.486698,
          "lng": 15.8011445
        },
        "keyAccentLanguage": "sesriem"
      },
      {
        "code": 0,
        "type": "City",
        "enNameLanguage": "Oorwinning",
        "location": {
          "lat": -24.533333,
          "lng": 17.933333
        },
        "keyAccentLanguage": "oorwinning"
      },
      {
        "code": 0,
        "type": "City",
        "enNameLanguage": "Stampriet",
        "location": {
          "lat": -24.3436153,
          "lng": 18.4023837
        },
        "keyAccentLanguage": "stampriet"
      },
      {
        "code": 0,
        "type": "City",
        "enNameLanguage": "Lammerwater",
        "location": {
          "lat": -23.916667,
          "lng": 17.033333
        },
        "keyAccentLanguage": "lammerwater"
      },
      {
        "code": 0,
        "type": "City",
        "enNameLanguage": "Oamseb",
        "location": {
          "lat": -24.533333,
          "lng": 17.933333
        },
        "keyAccentLanguage": "oamseb"
      },
      {
        "code": 0,
        "type": "City",
        "enNameLanguage": "Kamkam",
        "location": {
          "lat": -23.583333,
          "lng": 17.016667
        },
        "keyAccentLanguage": "kamkam"
      },
      {
        "code": 0,
        "type": "City",
        "enNameLanguage": "Abbabis",
        "location": {
          "lat": -23.966667,
          "lng": 16.083333
        },
        "keyAccentLanguage": "abbabis"
      },
      {
        "code": 0,
        "type": "City",
        "enNameLanguage": "Schlip",
        "location": {
          "lat": -24.0441297,
          "lng": 17.1277751
        },
        "keyAccentLanguage": "schlip"
      },
      {
        "code": 0,
        "type": "City",
        "enNameLanguage": "Twee Rivier",
        "location": {
          "lat": -25.4620907,
          "lng": 19.4381816
        },
        "keyAccentLanguage": "twee_rivier"
      },
      {
        "code": 0,
        "type": "City",
        "enNameLanguage": "Hoachanas",
        "location": {
          "lat": -23.9239385,
          "lng": 18.0509743
        },
        "keyAccentLanguage": "hoachanas"
      },
      {
        "code": 0,
        "type": "City",
        "enNameLanguage": "Groendraai",
        "location": {
          "lat": -23.7333329,
          "lng": 16.9833329
        },
        "keyAccentLanguage": "groendraai"
      },
      {
        "code": 0,
        "type": "City",
        "enNameLanguage": "Nuwedam",
        "location": {
          "lat": -23.783333,
          "lng": 16.566667
        },
        "keyAccentLanguage": "nuwedam"
      },
      {
        "code": 0,
        "type": "City",
        "enNameLanguage": "Nomtsas",
        "location": {
          "lat": -24.4257374,
          "lng": 16.84365
        },
        "keyAccentLanguage": "nomtsas"
      },
      {
        "code": 0,
        "type": "City",
        "enNameLanguage": "Witkop",
        "location": {
          "lat": -23.783333,
          "lng": 17.083333
        },
        "keyAccentLanguage": "witkop"
      },
      {
        "code": 0,
        "type": "City",
        "enNameLanguage": "Naris",
        "location": {
          "lat": -23.7,
          "lng": 17.133333
        },
        "keyAccentLanguage": "naris"
      },
      {
        "code": 0,
        "type": "City",
        "enNameLanguage": "Klein Aub",
        "location": {
          "lat": -23.7930784,
          "lng": 16.630604
        },
        "keyAccentLanguage": "klein_aub"
      },
      {
        "code": 0,
        "type": "City",
        "enNameLanguage": "Wolwekraal",
        "location": {
          "lat": -24.533333,
          "lng": 17.933333
        },
        "keyAccentLanguage": "wolwekraal"
      },
      {
        "code": 0,
        "type": "City",
        "enNameLanguage": "Witvley",
        "location": {
          "lat": -24.533333,
          "lng": 17.933333
        },
        "keyAccentLanguage": "witvley"
      },
      {
        "code": 0,
        "type": "City",
        "enNameLanguage": "Duwisib",
        "location": {
          "lat": -25.2570438,
          "lng": 16.5412712
        },
        "keyAccentLanguage": "duwisib"
      },
      {
        "code": 0,
        "type": "City",
        "enNameLanguage": "Rietoog",
        "location": {
          "lat": -23.9653561,
          "lng": 16.5598803
        },
        "keyAccentLanguage": "rietoog"
      },
      {
        "code": 0,
        "type": "City",
        "enNameLanguage": "Zais",
        "location": {
          "lat": -24.016667,
          "lng": 16.133333
        },
        "keyAccentLanguage": "zais"
      },
      {
        "code": 0,
        "type": "City",
        "enNameLanguage": "Slaaipoort",
        "location": {
          "lat": -23.766667,
          "lng": 16.75
        },
        "keyAccentLanguage": "slaaipoort"
      },
      {
        "code": 0,
        "type": "City",
        "enNameLanguage": "Vogelpan",
        "location": {
          "lat": -23.3,
          "lng": 17.183333
        },
        "keyAccentLanguage": "vogelpan"
      },
      {
        "code": 0,
        "type": "City",
        "enNameLanguage": "Witbooisvlei",
        "location": {
          "lat": -25.0604459,
          "lng": 18.4557951
        },
        "keyAccentLanguage": "witbooisvlei"
      },
      {
        "code": 0,
        "type": "City",
        "enNameLanguage": "Voigtsgrund",
        "location": {
          "lat": -24.816667,
          "lng": 17.433333
        },
        "keyAccentLanguage": "voigtsgrund"
      },
      {
        "code": 0,
        "type": "City",
        "enNameLanguage": "Meob",
        "location": {
          "lat": -24.6833333,
          "lng": 14.7333333
        },
        "keyAccentLanguage": "meob"
      }
    ],
    "enNameLanguage": "Hardap",
    "keyAccentLanguage": "hardap"
  },
  {
    "code": 0,
    "type": "State",
    "location": {
      "lat": 36.0771566,
      "lng": -94.17053410000001
    },
    "districtList": [
      {
        "code": 0,
        "type": "City",
        "enNameLanguage": "Shirley",
        "location": {
          "lat": -25.925,
          "lng": 18.644
        },
        "keyAccentLanguage": "shirley"
      },
      {
        "code": 0,
        "type": "City",
        "enNameLanguage": "Austerlitz",
        "location": {
          "lat": 49.1532539,
          "lng": 16.8764982
        },
        "keyAccentLanguage": "austerlitz"
      },
      {
        "code": 0,
        "type": "City",
        "enNameLanguage": "Beenbreek",
        "location": {
          "lat": -28.7,
          "lng": 19.416667
        },
        "keyAccentLanguage": "beenbreek"
      },
      {
        "code": 0,
        "type": "City",
        "enNameLanguage": "Brukkaros",
        "location": {
          "lat": -25.6951171,
          "lng": 18.0494924
        },
        "keyAccentLanguage": "brukkaros"
      },
      {
        "code": 0,
        "type": "City",
        "enNameLanguage": "Bethanien",
        "location": {
          "lat": -26.5090889,
          "lng": 17.1514061
        },
        "keyAccentLanguage": "bethanien"
      },
      {
        "code": 0,
        "type": "City",
        "enNameLanguage": "Berseba",
        "location": {
          "lat": -25.9989259,
          "lng": 17.7710234
        },
        "keyAccentLanguage": "berseba"
      },
      {
        "code": 0,
        "type": "City",
        "enNameLanguage": "Angras Juntas",
        "location": {
          "lat": -27.658489,
          "lng": 15.53303
        },
        "keyAccentLanguage": "angras_juntas"
      },
      {
        "code": 0,
        "type": "City",
        "enNameLanguage": "Helmeringhausen",
        "location": {
          "lat": -25.8890519,
          "lng": 16.8222625
        },
        "keyAccentLanguage": "helmeringhausen"
      },
      {
        "code": 0,
        "type": "City",
        "enNameLanguage": "Ai-Ais",
        "location": {
          "lat": -27.9222424,
          "lng": 17.4898699
        },
        "keyAccentLanguage": "ai-ais"
      },
      {
        "code": 0,
        "type": "City",
        "enNameLanguage": "Affenrucken",
        "location": {
          "lat": -28.086269,
          "lng": 15.81757
        },
        "keyAccentLanguage": "affenrucken"
      },
      {
        "code": 0,
        "type": "City",
        "enNameLanguage": "Goageb",
        "location": {
          "lat": -26.7508704,
          "lng": 17.2282225
        },
        "keyAccentLanguage": "goageb"
      },
      {
        "code": 0,
        "type": "City",
        "enNameLanguage": "Haldenwang",
        "location": {
          "lat": -28.39747,
          "lng": 18.604071
        },
        "keyAccentLanguage": "haldenwang"
      },
      {
        "code": 0,
        "type": "City",
        "enNameLanguage": "Elizabeth Bay",
        "location": {
          "lat": -33.87180240000001,
          "lng": 151.227634
        },
        "keyAccentLanguage": "elizabeth_bay"
      },
      {
        "code": 0,
        "type": "City",
        "enNameLanguage": "Aroab",
        "location": {
          "lat": -26.8010284,
          "lng": 19.6490516
        },
        "keyAccentLanguage": "aroab"
      },
      {
        "code": 0,
        "type": "City",
        "enNameLanguage": "Charliesputs",
        "location": {
          "lat": -28.083333,
          "lng": 19.683333
        },
        "keyAccentLanguage": "charliesputs"
      },
      {
        "code": 0,
        "type": "City",
        "enNameLanguage": "Ariamsvlei",
        "location": {
          "lat": -28.1166141,
          "lng": 19.8365586
        },
        "keyAccentLanguage": "ariamsvlei"
      },
      {
        "code": 0,
        "type": "City",
        "enNameLanguage": "Noordoewer",
        "location": {
          "lat": -28.7154971,
          "lng": 17.6185727
        },
        "keyAccentLanguage": "noordoewer"
      },
      {
        "code": 0,
        "type": "City",
        "enNameLanguage": "Davignab",
        "location": {
          "lat": -27.527309,
          "lng": 19.81917
        },
        "keyAccentLanguage": "davignab"
      },
      {
        "code": 0,
        "type": "City",
        "enNameLanguage": "Seeheim",
        "location": {
          "lat": -26.8148287,
          "lng": 17.8021158
        },
        "keyAccentLanguage": "seeheim"
      },
      {
        "code": 0,
        "type": "City",
        "enNameLanguage": "Drei Kameelbaum",
        "location": {
          "lat": -28.15,
          "lng": 19.083333
        },
        "keyAccentLanguage": "drei_kameelbaum"
      },
      {
        "code": 0,
        "type": "City",
        "enNameLanguage": "Misgund",
        "location": {
          "lat": -33.7530694,
          "lng": 23.4994925
        },
        "keyAccentLanguage": "misgund"
      },
      {
        "code": 0,
        "type": "City",
        "enNameLanguage": "Kolmanskop",
        "location": {
          "lat": -26.7049924,
          "lng": 15.2326454
        },
        "keyAccentLanguage": "kolmanskop"
      },
      {
        "code": 0,
        "type": "City",
        "enNameLanguage": "Ariamab",
        "location": {
          "lat": -27.283333,
          "lng": 17.466667
        },
        "keyAccentLanguage": "ariamab"
      },
      {
        "code": 0,
        "type": "City",
        "enNameLanguage": "Ganigobes",
        "location": {
          "lat": -25.833333,
          "lng": 18
        },
        "keyAccentLanguage": "ganigobes"
      },
      {
        "code": 0,
        "type": "City",
        "enNameLanguage": "Lichtenfels",
        "location": {
          "lat": 50.1435387,
          "lng": 11.0555414
        },
        "keyAccentLanguage": "lichtenfels"
      },
      {
        "code": 0,
        "type": "City",
        "enNameLanguage": "Aus",
        "location": {
          "lat": -25.274398,
          "lng": 133.775136
        },
        "keyAccentLanguage": "aus"
      },
      {
        "code": 0,
        "type": "City",
        "enNameLanguage": "Mittag",
        "location": {
          "lat": -28.34878,
          "lng": 16.122641
        },
        "keyAccentLanguage": "mittag"
      },
      {
        "code": 0,
        "type": "City",
        "enNameLanguage": "De Villiersputs",
        "location": {
          "lat": -28.083333,
          "lng": 19.183333
        },
        "keyAccentLanguage": "de_villiersputs"
      },
      {
        "code": 0,
        "type": "City",
        "enNameLanguage": "Chameis",
        "location": {
          "lat": -27.849569,
          "lng": 15.73601
        },
        "keyAccentLanguage": "chameis"
      },
      {
        "code": 0,
        "type": "City",
        "enNameLanguage": "Chrisjansputs",
        "location": {
          "lat": -28.083333,
          "lng": 18.266667
        },
        "keyAccentLanguage": "chrisjansputs"
      },
      {
        "code": 0,
        "type": "City",
        "enNameLanguage": "Keetmanshoop",
        "location": {
          "lat": -26.577858,
          "lng": 18.1323574
        },
        "keyAccentLanguage": "keetmanshoop"
      },
      {
        "code": 0,
        "type": "City",
        "enNameLanguage": "Gainachas",
        "location": {
          "lat": -25.766667,
          "lng": 17.7
        },
        "keyAccentLanguage": "gainachas"
      },
      {
        "code": 0,
        "type": "City",
        "enNameLanguage": "Grootplaas",
        "location": {
          "lat": -27.9908472,
          "lng": 18.165103
        },
        "keyAccentLanguage": "grootplaas"
      },
      {
        "code": 0,
        "type": "City",
        "enNameLanguage": "Grillenthal",
        "location": {
          "lat": -26.983333,
          "lng": 15.35
        },
        "keyAccentLanguage": "grillenthal"
      },
      {
        "code": 0,
        "type": "City",
        "enNameLanguage": "Eselsruhe",
        "location": {
          "lat": -28.75,
          "lng": 18.866667
        },
        "keyAccentLanguage": "eselsruhe"
      },
      {
        "code": 0,
        "type": "City",
        "enNameLanguage": "Haalenberg",
        "location": {
          "lat": -26.6112542,
          "lng": 15.5159324
        },
        "keyAccentLanguage": "haalenberg"
      },
      {
        "code": 0,
        "type": "City",
        "enNameLanguage": "Velloor",
        "location": {
          "lat": -28.5810909,
          "lng": 19.1961808
        },
        "keyAccentLanguage": "velloor"
      },
      {
        "code": 0,
        "type": "City",
        "enNameLanguage": "Luderitz",
        "location": {
          "lat": -26.6420382,
          "lng": 15.1639082
        },
        "keyAccentLanguage": "luderitz"
      },
      {
        "code": 0,
        "type": "City",
        "enNameLanguage": "Mooifontein",
        "location": {
          "lat": -24.7802269,
          "lng": 26.2160006
        },
        "keyAccentLanguage": "mooifontein"
      },
      {
        "code": 0,
        "type": "City",
        "enNameLanguage": "Hochland",
        "location": {
          "lat": -28.483333,
          "lng": 18.383333
        },
        "keyAccentLanguage": "hochland"
      },
      {
        "code": 0,
        "type": "City",
        "enNameLanguage": "Gaibis",
        "location": {
          "lat": -26.1528177,
          "lng": 19.5456516
        },
        "keyAccentLanguage": "gaibis"
      },
      {
        "code": 0,
        "type": "City",
        "enNameLanguage": "Granitberg",
        "location": {
          "lat": -27.366667,
          "lng": 15.4
        },
        "keyAccentLanguage": "granitberg"
      },
      {
        "code": 0,
        "type": "City",
        "enNameLanguage": "Koes",
        "location": {
          "lat": -25.9368204,
          "lng": 19.1226018
        },
        "keyAccentLanguage": "koes"
      },
      {
        "code": 0,
        "type": "City",
        "enNameLanguage": "Grootplaats",
        "location": {
          "lat": -28.033333,
          "lng": 18.2333329
        },
        "keyAccentLanguage": "grootplaats"
      },
      {
        "code": 0,
        "type": "City",
        "enNameLanguage": "Aluriesfontein",
        "location": {
          "lat": -28.533333,
          "lng": 18.7
        },
        "keyAccentLanguage": "aluriesfontein"
      },
      {
        "code": 0,
        "type": "City",
        "enNameLanguage": "Grunau",
        "location": {
          "lat": -27.7314883,
          "lng": 18.3771645
        },
        "keyAccentLanguage": "grunau"
      },
      {
        "code": 0,
        "type": "City",
        "enNameLanguage": "Tses",
        "location": {
          "lat": -25.8842455,
          "lng": 18.1221146
        },
        "keyAccentLanguage": "tses"
      },
      {
        "code": 0,
        "type": "City",
        "enNameLanguage": "Duurdrift Sud",
        "location": {
          "lat": -28.35,
          "lng": 19.366667
        },
        "keyAccentLanguage": "duurdrift_sud"
      },
      {
        "code": 0,
        "type": "City",
        "enNameLanguage": "Blouwes",
        "location": {
          "lat": -26.1816405,
          "lng": 18.1710329
        },
        "keyAccentLanguage": "blouwes"
      },
      {
        "code": 0,
        "type": "City",
        "enNameLanguage": "Oranjemund",
        "location": {
          "lat": -28.5515133,
          "lng": 16.4272427
        },
        "keyAccentLanguage": "oranjemund"
      },
      {
        "code": 0,
        "type": "City",
        "enNameLanguage": "Warmbad",
        "location": {
          "lat": -28.4490458,
          "lng": 18.7333671
        },
        "keyAccentLanguage": "warmbad"
      },
      {
        "code": 0,
        "type": "City",
        "enNameLanguage": "Saddle Hill North",
        "location": {
          "lat": -25.8,
          "lng": 14.883333
        },
        "keyAccentLanguage": "saddle_hill_north"
      },
      {
        "code": 0,
        "type": "City",
        "enNameLanguage": "Blydeverwacht",
        "location": {
          "lat": -28.301689,
          "lng": 19.60013
        },
        "keyAccentLanguage": "blydeverwacht"
      },
      {
        "code": 0,
        "type": "City",
        "enNameLanguage": "Karasburg",
        "location": {
          "lat": -28.0164791,
          "lng": 18.748
        },
        "keyAccentLanguage": "karasburg"
      },
      {
        "code": 0,
        "type": "City",
        "enNameLanguage": "Groot Schwarzkuppe",
        "location": {
          "lat": -26.633333,
          "lng": 17.033333
        },
        "keyAccentLanguage": "groot_schwarzkuppe"
      },
      {
        "code": 0,
        "type": "City",
        "enNameLanguage": "Gaobis",
        "location": {
          "lat": -28.766667,
          "lng": 18.35
        },
        "keyAccentLanguage": "gaobis"
      },
      {
        "code": 0,
        "type": "City",
        "enNameLanguage": "Narubis",
        "location": {
          "lat": -26.9,
          "lng": 18.6
        },
        "keyAccentLanguage": "narubis"
      },
      {
        "code": 0,
        "type": "City",
        "enNameLanguage": "Nieuwefontein",
        "location": {
          "lat": -28.0067501,
          "lng": 19.061667
        },
        "keyAccentLanguage": "nieuwefontein"
      },
      {
        "code": 0,
        "type": "City",
        "enNameLanguage": "Gross Aub",
        "location": {
          "lat": -26.5480079,
          "lng": 19.1385801
        },
        "keyAccentLanguage": "gross_aub"
      },
      {
        "code": 0,
        "type": "City",
        "enNameLanguage": "Guichabis",
        "location": {
          "lat": -28.033333,
          "lng": 18.45
        },
        "keyAccentLanguage": "guichabis"
      },
      {
        "code": 0,
        "type": "City",
        "enNameLanguage": "Witputs",
        "location": {
          "lat": -28.6,
          "lng": 18.016667
        },
        "keyAccentLanguage": "witputs"
      },
      {
        "code": 0,
        "type": "City",
        "enNameLanguage": "Klein Karas",
        "location": {
          "lat": -27.5647622,
          "lng": 18.076909
        },
        "keyAccentLanguage": "klein_karas"
      },
      {
        "code": 0,
        "type": "City",
        "enNameLanguage": "Sendelingsdrif",
        "location": {
          "lat": -28.099333,
          "lng": 16.8775791
        },
        "keyAccentLanguage": "sendelingsdrif"
      },
      {
        "code": 0,
        "type": "City",
        "enNameLanguage": "Hamab",
        "location": {
          "lat": -28.09514,
          "lng": 19.25964
        },
        "keyAccentLanguage": "hamab"
      },
      {
        "code": 0,
        "type": "City",
        "enNameLanguage": "Houniams",
        "location": {
          "lat": -28.883333,
          "lng": 18.516667
        },
        "keyAccentLanguage": "houniams"
      },
      {
        "code": 0,
        "type": "City",
        "enNameLanguage": "Sandykop",
        "location": {
          "lat": -32.3333333,
          "lng": 22.2333333
        },
        "keyAccentLanguage": "sandykop"
      },
      {
        "code": 0,
        "type": "City",
        "enNameLanguage": "Rosh Pinah",
        "location": {
          "lat": -27.9652225,
          "lng": 16.7621461
        },
        "keyAccentLanguage": "rosh_pinah"
      },
      {
        "code": 0,
        "type": "City",
        "enNameLanguage": "Holoog",
        "location": {
          "lat": -27.4336663,
          "lng": 17.9461468
        },
        "keyAccentLanguage": "holoog"
      },
      {
        "code": 0,
        "type": "City",
        "enNameLanguage": "Haib Rhenish Mission",
        "location": {
          "lat": -28.205721,
          "lng": 18.32177
        },
        "keyAccentLanguage": "haib_rhenish_mission"
      },
      {
        "code": 0,
        "type": "City",
        "enNameLanguage": "Elandsdraai",
        "location": {
          "lat": -29.670384,
          "lng": 24.289984
        },
        "keyAccentLanguage": "elandsdraai"
      },
      {
        "code": 0,
        "type": "City",
        "enNameLanguage": "Hoapegas",
        "location": {
          "lat": -26.2,
          "lng": 17.666667
        },
        "keyAccentLanguage": "hoapegas"
      },
      {
        "code": 0,
        "type": "City",
        "enNameLanguage": "Uubvlei",
        "location": {
          "lat": -28.4363466,
          "lng": 16.2610404
        },
        "keyAccentLanguage": "uubvlei"
      },
      {
        "code": 0,
        "type": "City",
        "enNameLanguage": "Huitsib",
        "location": {
          "lat": -26.133333,
          "lng": 17.683333
        },
        "keyAccentLanguage": "huitsib"
      },
      {
        "code": 0,
        "type": "City",
        "enNameLanguage": "Aurus",
        "location": {
          "lat": -26.117,
          "lng": 14.983
        },
        "keyAccentLanguage": "aurus"
      },
      {
        "code": 0,
        "type": "City",
        "enNameLanguage": "Enoch",
        "location": {
          "lat": -25.833,
          "lng": 18.35
        },
        "keyAccentLanguage": "enoch"
      },
      {
        "code": 0,
        "type": "City",
        "enNameLanguage": "Gaibes",
        "location": {
          "lat": -28.083,
          "lng": 17.75
        },
        "keyAccentLanguage": "gaibes"
      },
      {
        "code": 0,
        "type": "City",
        "enNameLanguage": "Bokiesbank Ost",
        "location": {
          "lat": -28.333,
          "lng": 19.333
        },
        "keyAccentLanguage": "bokiesbank_ost"
      },
      {
        "code": 0,
        "type": "City",
        "enNameLanguage": "Gariganus",
        "location": {
          "lat": -26.481,
          "lng": 18.255
        },
        "keyAccentLanguage": "gariganus"
      },
      {
        "code": 0,
        "type": "City",
        "enNameLanguage": "Kubis North",
        "location": {
          "lat": -26.271,
          "lng": 18.719
        },
        "keyAccentLanguage": "kubis_north"
      },
      {
        "code": 0,
        "type": "City",
        "enNameLanguage": "Dabegabis",
        "location": {
          "lat": -28.267,
          "lng": 18.617
        },
        "keyAccentLanguage": "dabegabis"
      },
      {
        "code": 0,
        "type": "City",
        "enNameLanguage": "Garep",
        "location": {
          "lat": -25.983,
          "lng": 16.183
        },
        "keyAccentLanguage": "garep"
      },
      {
        "code": 0,
        "type": "City",
        "enNameLanguage": "Hogeis",
        "location": {
          "lat": -28.3,
          "lng": 19.267
        },
        "keyAccentLanguage": "hogeis"
      },
      {
        "code": 0,
        "type": "City",
        "enNameLanguage": "Guibes",
        "location": {
          "lat": -26.695,
          "lng": 16.836
        },
        "keyAccentLanguage": "guibes"
      },
      {
        "code": 0,
        "type": "City",
        "enNameLanguage": "Nugnais",
        "location": {
          "lat": -26.502,
          "lng": 17.479
        },
        "keyAccentLanguage": "nugnais"
      },
      {
        "code": 0,
        "type": "City",
        "enNameLanguage": "Hohenfels",
        "location": {
          "lat": -28.5,
          "lng": 16.6
        },
        "keyAccentLanguage": "hohenfels"
      },
      {
        "code": 0,
        "type": "City",
        "enNameLanguage": "Blumtal",
        "location": {
          "lat": -26.536,
          "lng": 19.535
        },
        "keyAccentLanguage": "blumtal"
      },
      {
        "code": 0,
        "type": "City",
        "enNameLanguage": "Dreihuk",
        "location": {
          "lat": -28.1,
          "lng": 18.6
        },
        "keyAccentLanguage": "dreihuk"
      },
      {
        "code": 0,
        "type": "City",
        "enNameLanguage": "Nordeck",
        "location": {
          "lat": -26.934,
          "lng": 18.255
        },
        "keyAccentLanguage": "nordeck"
      },
      {
        "code": 0,
        "type": "City",
        "enNameLanguage": "Nakop",
        "location": {
          "lat": -28.097,
          "lng": 19.995
        },
        "keyAccentLanguage": "nakop"
      },
      {
        "code": 0,
        "type": "City",
        "enNameLanguage": "Spencer Bay",
        "location": {
          "lat": -25.737,
          "lng": 14.836
        },
        "keyAccentLanguage": "spencer_bay"
      },
      {
        "code": 0,
        "type": "City",
        "enNameLanguage": "Bruinheuwel",
        "location": {
          "lat": -28.467,
          "lng": 18.167
        },
        "keyAccentLanguage": "bruinheuwel"
      },
      {
        "code": 0,
        "type": "City",
        "enNameLanguage": "Hakiesdoorn",
        "location": {
          "lat": -28.883,
          "lng": 18.217
        },
        "keyAccentLanguage": "hakiesdoorn"
      },
      {
        "code": 0,
        "type": "City",
        "enNameLanguage": "Leybank",
        "location": {
          "lat": -25.584,
          "lng": 18.633
        },
        "keyAccentLanguage": "leybank"
      },
      {
        "code": 0,
        "type": "City",
        "enNameLanguage": "Hochfeld",
        "location": {
          "lat": -28.683,
          "lng": 18.8
        },
        "keyAccentLanguage": "hochfeld"
      },
      {
        "code": 0,
        "type": "City",
        "enNameLanguage": "Hope",
        "location": {
          "lat": -27.399,
          "lng": 17.282
        },
        "keyAccentLanguage": "hope"
      },
      {
        "code": 0,
        "type": "City",
        "enNameLanguage": "Hottentoten Bay",
        "location": {
          "lat": -26.133,
          "lng": 14.933
        },
        "keyAccentLanguage": "hottentoten_bay"
      },
      {
        "code": 0,
        "type": "City",
        "enNameLanguage": "Haib",
        "location": {
          "lat": -28.2,
          "lng": 18.35
        },
        "keyAccentLanguage": "haib"
      },
      {
        "code": 0,
        "type": "City",
        "enNameLanguage": "Geigoab",
        "location": {
          "lat": -27.067,
          "lng": 17.267
        },
        "keyAccentLanguage": "geigoab"
      },
      {
        "code": 0,
        "type": "City",
        "enNameLanguage": "Springboktrek",
        "location": {
          "lat": -26.432,
          "lng": 19.234
        },
        "keyAccentLanguage": "springboktrek"
      },
      {
        "code": 0,
        "type": "City",
        "enNameLanguage": "Dobegabis",
        "location": {
          "lat": -28.3,
          "lng": 18.7
        },
        "keyAccentLanguage": "dobegabis"
      }
    ],
    "enNameLanguage": "Karas",
    "keyAccentLanguage": "karas"
  },
  {
    "code": 0,
    "type": "State",
    "location": {
      "lat": 0,
      "lng": 0
    },
    "districtList": [
      {
        "code": 0,
        "type": "City",
        "enNameLanguage": "Cwa",
        "location": {
          "lat": -18.133333,
          "lng": 20.966667
        },
        "keyAccentLanguage": "cwa"
      },
      {
        "code": 0,
        "type": "City",
        "enNameLanguage": "Cuma",
        "location": {
          "lat": -18.133333,
          "lng": 20.883333
        },
        "keyAccentLanguage": "cuma"
      },
      {
        "code": 0,
        "type": "City",
        "enNameLanguage": "Bagani",
        "location": {
          "lat": -18.1112146,
          "lng": 21.6198661
        },
        "keyAccentLanguage": "bagani"
      },
      {
        "code": 0,
        "type": "City",
        "enNameLanguage": "Lilira",
        "location": {
          "lat": -18.083333,
          "lng": 20.133333
        },
        "keyAccentLanguage": "lilira"
      },
      {
        "code": 0,
        "type": "City",
        "enNameLanguage": "Andara",
        "location": {
          "lat": -18.061493,
          "lng": 21.4439843
        },
        "keyAccentLanguage": "andara"
      },
      {
        "code": 0,
        "type": "City",
        "enNameLanguage": "Diyogha",
        "location": {
          "lat": -18.0828022,
          "lng": 21.4642327
        },
        "keyAccentLanguage": "diyogha"
      },
      {
        "code": 0,
        "type": "City",
        "enNameLanguage": "Dikundhu",
        "location": {
          "lat": -18.2333329,
          "lng": 21.516667
        },
        "keyAccentLanguage": "dikundhu"
      },
      {
        "code": 0,
        "type": "City",
        "enNameLanguage": "Fumbe",
        "location": {
          "lat": -17.966667,
          "lng": 20.166667
        },
        "keyAccentLanguage": "fumbe"
      },
      {
        "code": 0,
        "type": "City",
        "enNameLanguage": "Kapako",
        "location": {
          "lat": -18.0158227,
          "lng": 21.3804371
        },
        "keyAccentLanguage": "kapako"
      },
      {
        "code": 0,
        "type": "City",
        "enNameLanguage": "Kake",
        "location": {
          "lat": -18.083333,
          "lng": 21.516667
        },
        "keyAccentLanguage": "kake"
      },
      {
        "code": 0,
        "type": "City",
        "enNameLanguage": "Djadjasa",
        "location": {
          "lat": -18.2333329,
          "lng": 20.833333
        },
        "keyAccentLanguage": "djadjasa"
      },
      {
        "code": 0,
        "type": "City",
        "enNameLanguage": "Katere",
        "location": {
          "lat": -18.0307455,
          "lng": 20.7867474
        },
        "keyAccentLanguage": "katere"
      },
      {
        "code": 0,
        "type": "City",
        "enNameLanguage": "Gcama",
        "location": {
          "lat": -18.466667,
          "lng": 19.666667
        },
        "keyAccentLanguage": "gcama"
      },
      {
        "code": 0,
        "type": "City",
        "enNameLanguage": "Kansukwa",
        "location": {
          "lat": -17.933333,
          "lng": 19.7
        },
        "keyAccentLanguage": "kansukwa"
      },
      {
        "code": 0,
        "type": "City",
        "enNameLanguage": "Kambowo",
        "location": {
          "lat": -17.933333,
          "lng": 19.966667
        },
        "keyAccentLanguage": "kambowo"
      },
      {
        "code": 0,
        "type": "City",
        "enNameLanguage": "Mupini",
        "location": {
          "lat": -17.8811652,
          "lng": 19.6341727
        },
        "keyAccentLanguage": "mupini"
      },
      {
        "code": 0,
        "type": "City",
        "enNameLanguage": "Mahango",
        "location": {
          "lat": -18.15,
          "lng": 21.7
        },
        "keyAccentLanguage": "mahango"
      },
      {
        "code": 0,
        "type": "City",
        "enNameLanguage": "Gcunda",
        "location": {
          "lat": -18.166667,
          "lng": 19.75
        },
        "keyAccentLanguage": "gcunda"
      },
      {
        "code": 0,
        "type": "City",
        "enNameLanguage": "Mayara",
        "location": {
          "lat": -17.966552,
          "lng": 21.2308467
        },
        "keyAccentLanguage": "mayara"
      },
      {
        "code": 0,
        "type": "City",
        "enNameLanguage": "Mavanze",
        "location": {
          "lat": -17.9833329,
          "lng": 19.75
        },
        "keyAccentLanguage": "mavanze"
      },
      {
        "code": 0,
        "type": "City",
        "enNameLanguage": "Kandjara",
        "location": {
          "lat": -18.183333,
          "lng": 20.766667
        },
        "keyAccentLanguage": "kandjara"
      },
      {
        "code": 0,
        "type": "City",
        "enNameLanguage": "Mashari",
        "location": {
          "lat": -17.891062,
          "lng": 20.181954
        },
        "keyAccentLanguage": "mashari"
      },
      {
        "code": 0,
        "type": "City",
        "enNameLanguage": "Mukuvi",
        "location": {
          "lat": -17.96,
          "lng": 20.98
        },
        "keyAccentLanguage": "mukuvi"
      },
      {
        "code": 0,
        "type": "City",
        "enNameLanguage": "Kaisosi",
        "location": {
          "lat": -17.9033387,
          "lng": 19.8142332
        },
        "keyAccentLanguage": "kaisosi"
      },
      {
        "code": 0,
        "type": "City",
        "enNameLanguage": "Gcwatjinga",
        "location": {
          "lat": -18.4833329,
          "lng": 19.75
        },
        "keyAccentLanguage": "gcwatjinga"
      },
      {
        "code": 0,
        "type": "City",
        "enNameLanguage": "Rundu",
        "location": {
          "lat": -17.9253295,
          "lng": 19.7532148
        },
        "keyAccentLanguage": "rundu"
      },
      {
        "code": 0,
        "type": "City",
        "enNameLanguage": "Mupapama",
        "location": {
          "lat": -17.8930897,
          "lng": 20.254925
        },
        "keyAccentLanguage": "mupapama"
      },
      {
        "code": 0,
        "type": "City",
        "enNameLanguage": "Kapupahedi",
        "location": {
          "lat": -18.15,
          "lng": 20.283333
        },
        "keyAccentLanguage": "kapupahedi"
      },
      {
        "code": 0,
        "type": "City",
        "enNameLanguage": "Tamsu",
        "location": {
          "lat": -18.583333,
          "lng": 20.566667
        },
        "keyAccentLanguage": "tamsu"
      },
      {
        "code": 0,
        "type": "City",
        "enNameLanguage": "Naingopo",
        "location": {
          "lat": -18.55,
          "lng": 19.7
        },
        "keyAccentLanguage": "naingopo"
      },
      {
        "code": 0,
        "type": "City",
        "enNameLanguage": "Makadena",
        "location": {
          "lat": -18.35,
          "lng": 19.866667
        },
        "keyAccentLanguage": "makadena"
      },
      {
        "code": 0,
        "type": "City",
        "enNameLanguage": "Ncame",
        "location": {
          "lat": -18.183333,
          "lng": 20.683333
        },
        "keyAccentLanguage": "ncame"
      },
      {
        "code": 0,
        "type": "City",
        "enNameLanguage": "Mabushe",
        "location": {
          "lat": -17.9021269,
          "lng": 20.3800333
        },
        "keyAccentLanguage": "mabushe"
      },
      {
        "code": 0,
        "type": "City",
        "enNameLanguage": "Mwitjiku",
        "location": {
          "lat": -18.0864841,
          "lng": 21.6273187
        },
        "keyAccentLanguage": "mwitjiku"
      },
      {
        "code": 0,
        "type": "City",
        "enNameLanguage": "Ncoco",
        "location": {
          "lat": -18.116667,
          "lng": 20.366667
        },
        "keyAccentLanguage": "ncoco"
      },
      {
        "code": 0,
        "type": "City",
        "enNameLanguage": "Nyangana",
        "location": {
          "lat": -18.0095294,
          "lng": 20.6735079
        },
        "keyAccentLanguage": "nyangana"
      },
      {
        "code": 0,
        "type": "City",
        "enNameLanguage": "Musiluku",
        "location": {
          "lat": -18.166667,
          "lng": 21.333333
        },
        "keyAccentLanguage": "musiluku"
      },
      {
        "code": 0,
        "type": "City",
        "enNameLanguage": "Nhoma",
        "location": {
          "lat": -18.916667,
          "lng": 20.933333
        },
        "keyAccentLanguage": "nhoma"
      },
      {
        "code": 0,
        "type": "City",
        "enNameLanguage": "Ngumbo",
        "location": {
          "lat": -10.8113921,
          "lng": 34.72248039999999
        },
        "keyAccentLanguage": "ngumbo"
      },
      {
        "code": 0,
        "type": "City",
        "enNameLanguage": "Ngcarama",
        "location": {
          "lat": -17.95,
          "lng": 19.883333
        },
        "keyAccentLanguage": "ngcarama"
      },
      {
        "code": 0,
        "type": "City",
        "enNameLanguage": "Kangongo",
        "location": {
          "lat": -17.9508436,
          "lng": 21.1712303
        },
        "keyAccentLanguage": "kangongo"
      },
      {
        "code": 0,
        "type": "City",
        "enNameLanguage": "Mushovoyi",
        "location": {
          "lat": -17.91,
          "lng": 20.0799999
        },
        "keyAccentLanguage": "mushovoyi"
      },
      {
        "code": 0,
        "type": "City",
        "enNameLanguage": "Ncaute",
        "location": {
          "lat": -18.3718944,
          "lng": 19.8291167
        },
        "keyAccentLanguage": "ncaute"
      },
      {
        "code": 0,
        "type": "City",
        "enNameLanguage": "Catjo",
        "location": {
          "lat": -18.1,
          "lng": 21.6
        },
        "keyAccentLanguage": "catjo"
      },
      {
        "code": 0,
        "type": "City",
        "enNameLanguage": "Ncamakora",
        "location": {
          "lat": -18.183,
          "lng": 19.467
        },
        "keyAccentLanguage": "ncamakora"
      },
      {
        "code": 0,
        "type": "City",
        "enNameLanguage": "Dancence",
        "location": {
          "lat": -18.317,
          "lng": 20.617
        },
        "keyAccentLanguage": "dancence"
      },
      {
        "code": 0,
        "type": "City",
        "enNameLanguage": "Kwaviyi",
        "location": {
          "lat": -18.237,
          "lng": 21.769
        },
        "keyAccentLanguage": "kwaviyi"
      },
      {
        "code": 0,
        "type": "City",
        "enNameLanguage": "Biro",
        "location": {
          "lat": -17.983,
          "lng": 21.317
        },
        "keyAccentLanguage": "biro"
      },
      {
        "code": 0,
        "type": "City",
        "enNameLanguage": "Mukwe",
        "location": {
          "lat": -18.038,
          "lng": 21.413
        },
        "keyAccentLanguage": "mukwe"
      },
      {
        "code": 0,
        "type": "City",
        "enNameLanguage": "Gcaru",
        "location": {
          "lat": -18.417,
          "lng": 19.7
        },
        "keyAccentLanguage": "gcaru"
      },
      {
        "code": 0,
        "type": "City",
        "enNameLanguage": "Madudu",
        "location": {
          "lat": -18.117,
          "lng": 19.75
        },
        "keyAccentLanguage": "madudu"
      },
      {
        "code": 0,
        "type": "City",
        "enNameLanguage": "Kadedere",
        "location": {
          "lat": -18,
          "lng": 20.633
        },
        "keyAccentLanguage": "kadedere"
      },
      {
        "code": 0,
        "type": "City",
        "enNameLanguage": "Kandenga",
        "location": {
          "lat": -18,
          "lng": 20.6
        },
        "keyAccentLanguage": "kandenga"
      },
      {
        "code": 0,
        "type": "City",
        "enNameLanguage": "Ndonga",
        "location": {
          "lat": -17.95,
          "lng": 20.467
        },
        "keyAccentLanguage": "ndonga"
      },
      {
        "code": 0,
        "type": "City",
        "enNameLanguage": "Korokoko",
        "location": {
          "lat": -17.983,
          "lng": 20.933
        },
        "keyAccentLanguage": "korokoko"
      },
      {
        "code": 0,
        "type": "City",
        "enNameLanguage": "Kambu",
        "location": {
          "lat": -18.15,
          "lng": 20.95
        },
        "keyAccentLanguage": "kambu"
      },
      {
        "code": 0,
        "type": "City",
        "enNameLanguage": "Dumushe",
        "location": {
          "lat": -18.233,
          "lng": 20.867
        },
        "keyAccentLanguage": "dumushe"
      },
      {
        "code": 0,
        "type": "City",
        "enNameLanguage": "Mungunda",
        "location": {
          "lat": -17.967,
          "lng": 20.083
        },
        "keyAccentLanguage": "mungunda"
      },
      {
        "code": 0,
        "type": "City",
        "enNameLanguage": "Katimba",
        "location": {
          "lat": -17.9,
          "lng": 20
        },
        "keyAccentLanguage": "katimba"
      },
      {
        "code": 0,
        "type": "City",
        "enNameLanguage": "Makando",
        "location": {
          "lat": -17.967,
          "lng": 20.45
        },
        "keyAccentLanguage": "makando"
      },
      {
        "code": 0,
        "type": "City",
        "enNameLanguage": "Mangarangandja",
        "location": {
          "lat": -17.883,
          "lng": 19.8
        },
        "keyAccentLanguage": "mangarangandja"
      },
      {
        "code": 0,
        "type": "City",
        "enNameLanguage": "Cowenga",
        "location": {
          "lat": -18.1,
          "lng": 21.617
        },
        "keyAccentLanguage": "cowenga"
      },
      {
        "code": 0,
        "type": "City",
        "enNameLanguage": "Dyapanga",
        "location": {
          "lat": -18.067,
          "lng": 21.45
        },
        "keyAccentLanguage": "dyapanga"
      },
      {
        "code": 0,
        "type": "City",
        "enNameLanguage": "Sikereti",
        "location": {
          "lat": -19.06,
          "lng": 20.708
        },
        "keyAccentLanguage": "sikereti"
      },
      {
        "code": 0,
        "type": "City",
        "enNameLanguage": "Ncuncuni",
        "location": {
          "lat": -18.15,
          "lng": 19.75
        },
        "keyAccentLanguage": "ncuncuni"
      },
      {
        "code": 0,
        "type": "City",
        "enNameLanguage": "Ngcamadang",
        "location": {
          "lat": -18.5,
          "lng": 19.733
        },
        "keyAccentLanguage": "ngcamadang"
      },
      {
        "code": 0,
        "type": "City",
        "enNameLanguage": "Kapupayedi",
        "location": {
          "lat": -18.165,
          "lng": 20.369
        },
        "keyAccentLanguage": "kapupayedi"
      },
      {
        "code": 0,
        "type": "City",
        "enNameLanguage": "Kaundu Kavambanda",
        "location": {
          "lat": -17.983,
          "lng": 20.433
        },
        "keyAccentLanguage": "kaundu_kavambanda"
      },
      {
        "code": 0,
        "type": "City",
        "enNameLanguage": "Popa",
        "location": {
          "lat": -18.117,
          "lng": 21.583
        },
        "keyAccentLanguage": "popa"
      },
      {
        "code": 0,
        "type": "City",
        "enNameLanguage": "Khance",
        "location": {
          "lat": -18.2,
          "lng": 21.783
        },
        "keyAccentLanguage": "khance"
      },
      {
        "code": 0,
        "type": "City",
        "enNameLanguage": "Magongo",
        "location": {
          "lat": -18,
          "lng": 20.683
        },
        "keyAccentLanguage": "magongo"
      },
      {
        "code": 0,
        "type": "City",
        "enNameLanguage": "Makena",
        "location": {
          "lat": -18.05,
          "lng": 20.817
        },
        "keyAccentLanguage": "makena"
      },
      {
        "code": 0,
        "type": "City",
        "enNameLanguage": "Dosa",
        "location": {
          "lat": -18.217,
          "lng": 20.85
        },
        "keyAccentLanguage": "dosa"
      },
      {
        "code": 0,
        "type": "City",
        "enNameLanguage": "Nossiko",
        "location": {
          "lat": -18.233,
          "lng": 21.783
        },
        "keyAccentLanguage": "nossiko"
      },
      {
        "code": 0,
        "type": "City",
        "enNameLanguage": "Hamoye",
        "location": {
          "lat": -18.2,
          "lng": 19.733
        },
        "keyAccentLanguage": "hamoye"
      },
      {
        "code": 0,
        "type": "City",
        "enNameLanguage": "Guma",
        "location": {
          "lat": -18,
          "lng": 20.667
        },
        "keyAccentLanguage": "guma"
      },
      {
        "code": 0,
        "type": "City",
        "enNameLanguage": "Koro",
        "location": {
          "lat": -18.217,
          "lng": 19.733
        },
        "keyAccentLanguage": "koro"
      },
      {
        "code": 0,
        "type": "City",
        "enNameLanguage": "Namu",
        "location": {
          "lat": -17.95,
          "lng": 20.283
        },
        "keyAccentLanguage": "namu"
      },
      {
        "code": 0,
        "type": "City",
        "enNameLanguage": "Mbumbi",
        "location": {
          "lat": -18.367,
          "lng": 19.917
        },
        "keyAccentLanguage": "mbumbi"
      },
      {
        "code": 0,
        "type": "City",
        "enNameLanguage": "Matende",
        "location": {
          "lat": -17.867,
          "lng": 19.6
        },
        "keyAccentLanguage": "matende"
      },
      {
        "code": 0,
        "type": "City",
        "enNameLanguage": "Mayowe",
        "location": {
          "lat": -17.983,
          "lng": 20.6
        },
        "keyAccentLanguage": "mayowe"
      },
      {
        "code": 0,
        "type": "City",
        "enNameLanguage": "Mashivi",
        "location": {
          "lat": -17.983,
          "lng": 20.967
        },
        "keyAccentLanguage": "mashivi"
      },
      {
        "code": 0,
        "type": "City",
        "enNameLanguage": "Kora",
        "location": {
          "lat": -18.033,
          "lng": 20.317
        },
        "keyAccentLanguage": "kora"
      },
      {
        "code": 0,
        "type": "City",
        "enNameLanguage": "Nyondo",
        "location": {
          "lat": -17.983,
          "lng": 20.6
        },
        "keyAccentLanguage": "nyondo"
      },
      {
        "code": 0,
        "type": "City",
        "enNameLanguage": "Rundjarara",
        "location": {
          "lat": -17.9,
          "lng": 20.233
        },
        "keyAccentLanguage": "rundjarara"
      },
      {
        "code": 0,
        "type": "City",
        "enNameLanguage": "Karuci",
        "location": {
          "lat": -18,
          "lng": 20.65
        },
        "keyAccentLanguage": "karuci"
      },
      {
        "code": 0,
        "type": "City",
        "enNameLanguage": "Mantjenya",
        "location": {
          "lat": -17.9,
          "lng": 20.067
        },
        "keyAccentLanguage": "mantjenya"
      },
      {
        "code": 0,
        "type": "City",
        "enNameLanguage": "Livuyu",
        "location": {
          "lat": -18,
          "lng": 20.917
        },
        "keyAccentLanguage": "livuyu"
      },
      {
        "code": 0,
        "type": "City",
        "enNameLanguage": "Ndongo",
        "location": {
          "lat": -18.083,
          "lng": 21.55
        },
        "keyAccentLanguage": "ndongo"
      },
      {
        "code": 0,
        "type": "City",
        "enNameLanguage": "Ncecwa",
        "location": {
          "lat": -18.15,
          "lng": 19.767
        },
        "keyAccentLanguage": "ncecwa"
      },
      {
        "code": 0,
        "type": "City",
        "enNameLanguage": "Sembio",
        "location": {
          "lat": -17.912,
          "lng": 20.032
        },
        "keyAccentLanguage": "sembio"
      },
      {
        "code": 0,
        "type": "City",
        "enNameLanguage": "Kangweru",
        "location": {
          "lat": -18,
          "lng": 20.683
        },
        "keyAccentLanguage": "kangweru"
      },
      {
        "code": 0,
        "type": "City",
        "enNameLanguage": "Kanzoni",
        "location": {
          "lat": -17.867,
          "lng": 19.667
        },
        "keyAccentLanguage": "kanzoni"
      },
      {
        "code": 0,
        "type": "City",
        "enNameLanguage": "Mangandu",
        "location": {
          "lat": -17.983,
          "lng": 20.583
        },
        "keyAccentLanguage": "mangandu"
      },
      {
        "code": 0,
        "type": "City",
        "enNameLanguage": "Kasote",
        "location": {
          "lat": -17.9,
          "lng": 19.7
        },
        "keyAccentLanguage": "kasote"
      },
      {
        "code": 0,
        "type": "City",
        "enNameLanguage": "Gcude",
        "location": {
          "lat": -18.333,
          "lng": 20.65
        },
        "keyAccentLanguage": "gcude"
      },
      {
        "code": 0,
        "type": "City",
        "enNameLanguage": "Kashivi",
        "location": {
          "lat": -17.9,
          "lng": 20.083
        },
        "keyAccentLanguage": "kashivi"
      },
      {
        "code": 0,
        "type": "City",
        "enNameLanguage": "Rughongo",
        "location": {
          "lat": -18.017,
          "lng": 21.417
        },
        "keyAccentLanguage": "rughongo"
      },
      {
        "code": 0,
        "type": "City",
        "enNameLanguage": "Mbambi",
        "location": {
          "lat": -17.983,
          "lng": 21
        },
        "keyAccentLanguage": "mbambi"
      },
      {
        "code": 0,
        "type": "City",
        "enNameLanguage": "Ngcangcana",
        "location": {
          "lat": -17.983,
          "lng": 19.833
        },
        "keyAccentLanguage": "ngcangcana"
      }
    ],
    "enNameLanguage": "Kavango East",
    "keyAccentLanguage": "kavango_east"
  },
  {
    "code": 0,
    "type": "State",
    "location": {
      "lat": 0,
      "lng": 0
    },
    "districtList": [
      {
        "code": 0,
        "type": "City",
        "enNameLanguage": "Gcagcawe",
        "location": {
          "lat": -18.166667,
          "lng": 19.15
        },
        "keyAccentLanguage": "gcagcawe"
      },
      {
        "code": 0,
        "type": "City",
        "enNameLanguage": "Mbora",
        "location": {
          "lat": 9.044494799999999,
          "lng": 7.407044300000001
        },
        "keyAccentLanguage": "mbora"
      },
      {
        "code": 0,
        "type": "City",
        "enNameLanguage": "Mpungu",
        "location": {
          "lat": -17.6688938,
          "lng": 18.2318208
        },
        "keyAccentLanguage": "mpungu"
      },
      {
        "code": 0,
        "type": "City",
        "enNameLanguage": "Nkurenkuru",
        "location": {
          "lat": -17.6282228,
          "lng": 18.6101405
        },
        "keyAccentLanguage": "nkurenkuru"
      },
      {
        "code": 0,
        "type": "City",
        "enNameLanguage": "Muparara",
        "location": {
          "lat": -18.033333,
          "lng": 18.383333
        },
        "keyAccentLanguage": "muparara"
      },
      {
        "code": 0,
        "type": "City",
        "enNameLanguage": "Ngcasawa",
        "location": {
          "lat": -18.583333,
          "lng": 19.583333
        },
        "keyAccentLanguage": "ngcasawa"
      },
      {
        "code": 0,
        "type": "City",
        "enNameLanguage": "Karakuwisa",
        "location": {
          "lat": -18.9333333,
          "lng": 19.7333333
        },
        "keyAccentLanguage": "karakuwisa"
      },
      {
        "code": 0,
        "type": "City",
        "enNameLanguage": "Nsivi",
        "location": {
          "lat": -17.8,
          "lng": 18.65
        },
        "keyAccentLanguage": "nsivi"
      },
      {
        "code": 0,
        "type": "City",
        "enNameLanguage": "Kankudi",
        "location": {
          "lat": -17.733,
          "lng": 18.483
        },
        "keyAccentLanguage": "kankudi"
      },
      {
        "code": 0,
        "type": "City",
        "enNameLanguage": "Gcwagi",
        "location": {
          "lat": -17.833,
          "lng": 19.15
        },
        "keyAccentLanguage": "gcwagi"
      },
      {
        "code": 0,
        "type": "City",
        "enNameLanguage": "Kapako",
        "location": {
          "lat": -17.9,
          "lng": 19.567
        },
        "keyAccentLanguage": "kapako"
      },
      {
        "code": 0,
        "type": "City",
        "enNameLanguage": "Ehafo",
        "location": {
          "lat": -18,
          "lng": 19
        },
        "keyAccentLanguage": "ehafo"
      },
      {
        "code": 0,
        "type": "City",
        "enNameLanguage": "Dumsis",
        "location": {
          "lat": -18.4,
          "lng": 18.133
        },
        "keyAccentLanguage": "dumsis"
      },
      {
        "code": 0,
        "type": "City",
        "enNameLanguage": "Nkonke",
        "location": {
          "lat": -17.8,
          "lng": 18.85
        },
        "keyAccentLanguage": "nkonke"
      },
      {
        "code": 0,
        "type": "City",
        "enNameLanguage": "Gcugcuma",
        "location": {
          "lat": -18.067,
          "lng": 19.35
        },
        "keyAccentLanguage": "gcugcuma"
      },
      {
        "code": 0,
        "type": "City",
        "enNameLanguage": "Kaparara",
        "location": {
          "lat": -17.983,
          "lng": 18.833
        },
        "keyAccentLanguage": "kaparara"
      },
      {
        "code": 0,
        "type": "City",
        "enNameLanguage": "Marema",
        "location": {
          "lat": -17.717,
          "lng": 18.7
        },
        "keyAccentLanguage": "marema"
      },
      {
        "code": 0,
        "type": "City",
        "enNameLanguage": "Gcaruha",
        "location": {
          "lat": -18.017,
          "lng": 18.933
        },
        "keyAccentLanguage": "gcaruha"
      },
      {
        "code": 0,
        "type": "City",
        "enNameLanguage": "Ntara",
        "location": {
          "lat": -17.833,
          "lng": 19.267
        },
        "keyAccentLanguage": "ntara"
      },
      {
        "code": 0,
        "type": "City",
        "enNameLanguage": "Dudu",
        "location": {
          "lat": -17.867,
          "lng": 19.333
        },
        "keyAccentLanguage": "dudu"
      },
      {
        "code": 0,
        "type": "City",
        "enNameLanguage": "Makuzu",
        "location": {
          "lat": -17.483,
          "lng": 18.467
        },
        "keyAccentLanguage": "makuzu"
      },
      {
        "code": 0,
        "type": "City",
        "enNameLanguage": "Mugandwizi",
        "location": {
          "lat": -17.8,
          "lng": 18.817
        },
        "keyAccentLanguage": "mugandwizi"
      },
      {
        "code": 0,
        "type": "City",
        "enNameLanguage": "Katope-Komugoro",
        "location": {
          "lat": -17.75,
          "lng": 18.217
        },
        "keyAccentLanguage": "katope-komugoro"
      },
      {
        "code": 0,
        "type": "City",
        "enNameLanguage": "Mburuuru",
        "location": {
          "lat": -18.05,
          "lng": 18.717
        },
        "keyAccentLanguage": "mburuuru"
      },
      {
        "code": 0,
        "type": "City",
        "enNameLanguage": "Katomeno",
        "location": {
          "lat": -17.5,
          "lng": 18.5
        },
        "keyAccentLanguage": "katomeno"
      },
      {
        "code": 0,
        "type": "City",
        "enNameLanguage": "Cuseva",
        "location": {
          "lat": -17.833,
          "lng": 18.517
        },
        "keyAccentLanguage": "cuseva"
      },
      {
        "code": 0,
        "type": "City",
        "enNameLanguage": "Kasoro",
        "location": {
          "lat": -17.517,
          "lng": 18.317
        },
        "keyAccentLanguage": "kasoro"
      },
      {
        "code": 0,
        "type": "City",
        "enNameLanguage": "Gawa",
        "location": {
          "lat": -17.883,
          "lng": 18.433
        },
        "keyAccentLanguage": "gawa"
      },
      {
        "code": 0,
        "type": "City",
        "enNameLanguage": "Ntaranga",
        "location": {
          "lat": -17.867,
          "lng": 19.45
        },
        "keyAccentLanguage": "ntaranga"
      },
      {
        "code": 0,
        "type": "City",
        "enNameLanguage": "Manyondo",
        "location": {
          "lat": -17.833,
          "lng": 19.283
        },
        "keyAccentLanguage": "manyondo"
      },
      {
        "code": 0,
        "type": "City",
        "enNameLanguage": "Kuseka",
        "location": {
          "lat": -18.267,
          "lng": 19.417
        },
        "keyAccentLanguage": "kuseka"
      },
      {
        "code": 0,
        "type": "City",
        "enNameLanguage": "Numkaub",
        "location": {
          "lat": -18.6,
          "lng": 19.683
        },
        "keyAccentLanguage": "numkaub"
      },
      {
        "code": 0,
        "type": "City",
        "enNameLanguage": "Kakuwa",
        "location": {
          "lat": -17.767,
          "lng": 18.483
        },
        "keyAccentLanguage": "kakuwa"
      },
      {
        "code": 0,
        "type": "City",
        "enNameLanguage": "Kaguni",
        "location": {
          "lat": -17.667,
          "lng": 18.433
        },
        "keyAccentLanguage": "kaguni"
      },
      {
        "code": 0,
        "type": "City",
        "enNameLanguage": "Ekuli",
        "location": {
          "lat": -17.8,
          "lng": 18.683
        },
        "keyAccentLanguage": "ekuli"
      },
      {
        "code": 0,
        "type": "City",
        "enNameLanguage": "Nyege",
        "location": {
          "lat": -17.8,
          "lng": 18.533
        },
        "keyAccentLanguage": "nyege"
      },
      {
        "code": 0,
        "type": "City",
        "enNameLanguage": "Ngcana",
        "location": {
          "lat": -18.033,
          "lng": 19.167
        },
        "keyAccentLanguage": "ngcana"
      },
      {
        "code": 0,
        "type": "City",
        "enNameLanguage": "Karo",
        "location": {
          "lat": -18,
          "lng": 19.317
        },
        "keyAccentLanguage": "karo"
      },
      {
        "code": 0,
        "type": "City",
        "enNameLanguage": "Aimbir",
        "location": {
          "lat": -17.55,
          "lng": 18.533
        },
        "keyAccentLanguage": "aimbir"
      },
      {
        "code": 0,
        "type": "City",
        "enNameLanguage": "Ncarise",
        "location": {
          "lat": -17.85,
          "lng": 18.317
        },
        "keyAccentLanguage": "ncarise"
      },
      {
        "code": 0,
        "type": "City",
        "enNameLanguage": "Rupeho",
        "location": {
          "lat": -17.75,
          "lng": 18.367
        },
        "keyAccentLanguage": "rupeho"
      },
      {
        "code": 0,
        "type": "City",
        "enNameLanguage": "Etope-Lya Simpungu",
        "location": {
          "lat": -17.517,
          "lng": 18.3
        },
        "keyAccentLanguage": "etope-lya_simpungu"
      },
      {
        "code": 0,
        "type": "City",
        "enNameLanguage": "Mbome",
        "location": {
          "lat": -17.85,
          "lng": 18.783
        },
        "keyAccentLanguage": "mbome"
      },
      {
        "code": 0,
        "type": "City",
        "enNameLanguage": "Keni",
        "location": {
          "lat": -17.7,
          "lng": 18.283
        },
        "keyAccentLanguage": "keni"
      },
      {
        "code": 0,
        "type": "City",
        "enNameLanguage": "Kasima",
        "location": {
          "lat": -17.833,
          "lng": 18.1
        },
        "keyAccentLanguage": "kasima"
      },
      {
        "code": 0,
        "type": "City",
        "enNameLanguage": "Nkwizu",
        "location": {
          "lat": -17.867,
          "lng": 18.533
        },
        "keyAccentLanguage": "nkwizu"
      },
      {
        "code": 0,
        "type": "City",
        "enNameLanguage": "Musu",
        "location": {
          "lat": -17.6,
          "lng": 18.6
        },
        "keyAccentLanguage": "musu"
      },
      {
        "code": 0,
        "type": "City",
        "enNameLanguage": "Muveve",
        "location": {
          "lat": -17.833,
          "lng": 19.217
        },
        "keyAccentLanguage": "muveve"
      },
      {
        "code": 0,
        "type": "City",
        "enNameLanguage": "Katwitwi",
        "location": {
          "lat": -17.4,
          "lng": 18.417
        },
        "keyAccentLanguage": "katwitwi"
      },
      {
        "code": 0,
        "type": "City",
        "enNameLanguage": "Runda",
        "location": {
          "lat": -17.6,
          "lng": 18.233
        },
        "keyAccentLanguage": "runda"
      },
      {
        "code": 0,
        "type": "City",
        "enNameLanguage": "Kapengwena",
        "location": {
          "lat": -17.833,
          "lng": 18.733
        },
        "keyAccentLanguage": "kapengwena"
      },
      {
        "code": 0,
        "type": "City",
        "enNameLanguage": "Desi",
        "location": {
          "lat": -17.983,
          "lng": 18.783
        },
        "keyAccentLanguage": "desi"
      },
      {
        "code": 0,
        "type": "City",
        "enNameLanguage": "Mbunza",
        "location": {
          "lat": -17.867,
          "lng": 19.367
        },
        "keyAccentLanguage": "mbunza"
      },
      {
        "code": 0,
        "type": "City",
        "enNameLanguage": "Mbimbi",
        "location": {
          "lat": -17.483,
          "lng": 18.233
        },
        "keyAccentLanguage": "mbimbi"
      },
      {
        "code": 0,
        "type": "City",
        "enNameLanguage": "Karayi",
        "location": {
          "lat": -17.75,
          "lng": 18.75
        },
        "keyAccentLanguage": "karayi"
      },
      {
        "code": 0,
        "type": "City",
        "enNameLanguage": "Katara",
        "location": {
          "lat": -17.817,
          "lng": 18.867
        },
        "keyAccentLanguage": "katara"
      },
      {
        "code": 0,
        "type": "City",
        "enNameLanguage": "Nangoni",
        "location": {
          "lat": -17.85,
          "lng": 19.267
        },
        "keyAccentLanguage": "nangoni"
      },
      {
        "code": 0,
        "type": "City",
        "enNameLanguage": "Kanyekama",
        "location": {
          "lat": -17.55,
          "lng": 18.533
        },
        "keyAccentLanguage": "kanyekama"
      },
      {
        "code": 0,
        "type": "City",
        "enNameLanguage": "Mpanda",
        "location": {
          "lat": -18.033,
          "lng": 18.933
        },
        "keyAccentLanguage": "mpanda"
      },
      {
        "code": 0,
        "type": "City",
        "enNameLanguage": "Dakwa",
        "location": {
          "lat": -17.717,
          "lng": 18.167
        },
        "keyAccentLanguage": "dakwa"
      },
      {
        "code": 0,
        "type": "City",
        "enNameLanguage": "Mbango",
        "location": {
          "lat": -17.817,
          "lng": 18.717
        },
        "keyAccentLanguage": "mbango"
      },
      {
        "code": 0,
        "type": "City",
        "enNameLanguage": "Nambi",
        "location": {
          "lat": -17.733,
          "lng": 18.717
        },
        "keyAccentLanguage": "nambi"
      },
      {
        "code": 0,
        "type": "City",
        "enNameLanguage": "Mongombi",
        "location": {
          "lat": -18.483,
          "lng": 18.033
        },
        "keyAccentLanguage": "mongombi"
      },
      {
        "code": 0,
        "type": "City",
        "enNameLanguage": "Nambali",
        "location": {
          "lat": -17.833,
          "lng": 18.717
        },
        "keyAccentLanguage": "nambali"
      },
      {
        "code": 0,
        "type": "City",
        "enNameLanguage": "Mpengu",
        "location": {
          "lat": -17.767,
          "lng": 18.583
        },
        "keyAccentLanguage": "mpengu"
      },
      {
        "code": 0,
        "type": "City",
        "enNameLanguage": "Mukundu",
        "location": {
          "lat": -17.95,
          "lng": 19.55
        },
        "keyAccentLanguage": "mukundu"
      },
      {
        "code": 0,
        "type": "City",
        "enNameLanguage": "Nepara",
        "location": {
          "lat": -17.799,
          "lng": 18.426
        },
        "keyAccentLanguage": "nepara"
      },
      {
        "code": 0,
        "type": "City",
        "enNameLanguage": "Kapenene",
        "location": {
          "lat": -17.85,
          "lng": 19.317
        },
        "keyAccentLanguage": "kapenene"
      },
      {
        "code": 0,
        "type": "City",
        "enNameLanguage": "Nkinka",
        "location": {
          "lat": -17.5,
          "lng": 18.483
        },
        "keyAccentLanguage": "nkinka"
      },
      {
        "code": 0,
        "type": "City",
        "enNameLanguage": "Mungomba",
        "location": {
          "lat": -17.583,
          "lng": 18.333
        },
        "keyAccentLanguage": "mungomba"
      },
      {
        "code": 0,
        "type": "City",
        "enNameLanguage": "Nbimbi",
        "location": {
          "lat": -17.483,
          "lng": 18.25
        },
        "keyAccentLanguage": "nbimbi"
      },
      {
        "code": 0,
        "type": "City",
        "enNameLanguage": "Mutambo",
        "location": {
          "lat": -17.8,
          "lng": 18.483
        },
        "keyAccentLanguage": "mutambo"
      },
      {
        "code": 0,
        "type": "City",
        "enNameLanguage": "Mpoto",
        "location": {
          "lat": -17.617,
          "lng": 18.117
        },
        "keyAccentLanguage": "mpoto"
      },
      {
        "code": 0,
        "type": "City",
        "enNameLanguage": "Nkata",
        "location": {
          "lat": -18.067,
          "lng": 19.433
        },
        "keyAccentLanguage": "nkata"
      },