[
  {
    "code": 0,
    "type": "State",
    "location": {
      "lat": -4.69,
      "lng": 55.518
    },
    "districtList": [
      {
        "code": 0,
        "type": "City",
        "enNameLanguage": "Anse aux Pins",
        "location": {
          "lat": -4.69,
          "lng": 55.518
        },
        "keyAccentLanguage": "anse_aux_pins"
      }
    ],
    "enNameLanguage": "Anse aux Pins",
    "keyAccentLanguage": "anse_aux_pins"
  },
  {
    "code": 0,
    "type": "State",
    "location": {
      "lat": -4.717,
      "lng": 55.483
    },
    "districtList": [
      {
        "code": 0,
        "type": "City",
        "enNameLanguage": "Anse Boileau",
        "location": {
          "lat": -4.717,
          "lng": 55.483
        },
        "keyAccentLanguage": "anse_boileau"
      },
      {
        "code": 0,
        "type": "City",
        "enNameLanguage": "L'Esperance",
        "location": {
          "lat": -4.717,
          "lng": 55.483
        },
        "keyAccentLanguage": "l'esperance"
      }
    ],
    "enNameLanguage": "Anse Boileau",
    "keyAccentLanguage": "anse_boileau"
  },
  {
    "code": 0,
    "type": "State",
    "location": {
      "lat": -4.593,
      "lng": 55.455
    },
    "districtList": [
      {
        "code": 0,
        "type": "City",
        "enNameLanguage": "Anse Etoile",
        "location": {
          "lat": -4.593,
          "lng": 55.455
        },
        "keyAccentLanguage": "anse_etoile"
      },
      {
        "code": 0,
        "type": "City",
        "enNameLanguage": "De Quincey Village",
        "location": {
          "lat": -4.6,
          "lng": 55.45
        },
        "keyAccentLanguage": "de_quincey_village"
      }
    ],
    "enNameLanguage": "Anse Etoile",
    "keyAccentLanguage": "anse_etoile"
  },
  {
    "code": 0,
    "type": "State",
    "location": {
      "lat": -4.738,
      "lng": 55.518
    },
    "districtList": [
      {
        "code": 0,
        "type": "City",
        "enNameLanguage": "Anse Royale",
        "location": {
          "lat": -4.738,
          "lng": 55.518
        },
        "keyAccentLanguage": "anse_royale"
      }
    ],
    "enNameLanguage": "Anse Royale",
    "keyAccentLanguage": "anse_royale"
  },
  {
    "code": 0,
    "type": "State",
    "location": {
      "lat": -4.711,
      "lng": 55.517
    },
    "districtList": [
      {
        "code": 0,
        "type": "City",
        "enNameLanguage": "Au Cap",
        "location": {
          "lat": -4.711,
          "lng": 55.517
        },
        "keyAccentLanguage": "au_cap"
      }
    ],
    "enNameLanguage": "Au Cap",
    "keyAccentLanguage": "au_cap"
  },
  {
    "code": 0,
    "type": "State",
    "location": {
      "lat": -4.753,
      "lng": 55.481
    },
    "districtList": [
      {
        "code": 0,
        "type": "City",
        "enNameLanguage": "Baie Lazare",
        "location": {
          "lat": -4.753,
          "lng": 55.481
        },
        "keyAccentLanguage": "baie_lazare"
      }
    ],
    "enNameLanguage": "Baie Lazare",
    "keyAccentLanguage": "baie_lazare"
  },
  {
    "code": 0,
    "type": "State",
    "location": {
      "lat": -4.341,
      "lng": 55.756
    },
    "districtList": [
      {
        "code": 0,
        "type": "City",
        "enNameLanguage": "Anse Volbert Village",
        "location": {
          "lat": -4.317,
          "lng": 55.744
        },
        "keyAccentLanguage": "anse_volbert_village"
      },
      {
        "code": 0,
        "type": "City",
        "enNameLanguage": "Baie Sainte Anne",
        "location": {
          "lat": -4.341,
          "lng": 55.756
        },
        "keyAccentLanguage": "baie_sainte_anne"
      }
    ],
    "enNameLanguage": "Baie Sainte Anne",
    "keyAccentLanguage": "baie_sainte_anne"
  },
  {
    "code": 0,
    "type": "State",
    "location": {
      "lat": -20.422,
      "lng": 57.702
    },
    "districtList": [
      {
        "code": 0,
        "type": "City",
        "enNameLanguage": "Beau Vallon",
        "location": {
          "lat": -4.614,
          "lng": 55.429
        },
        "keyAccentLanguage": "beau_vallon"
      }
    ],
    "enNameLanguage": "Beau Vallon",
    "keyAccentLanguage": "beau_vallon"
  },
  {
    "code": 0,
    "type": "State",
    "location": {
      "lat": 34.1002455,
      "lng": -118.459463
    },
    "districtList": [
      {
        "code": 0,
        "type": "City",
        "enNameLanguage": "Bel Air",
        "location": {
          "lat": -4.63,
          "lng": 55.446
        },
        "keyAccentLanguage": "bel_air"
      },
      {
        "code": 0,
        "type": "City",
        "enNameLanguage": "Victoria",
        "location": {
          "lat": -4.622,
          "lng": 55.453
        },
        "keyAccentLanguage": "victoria"
      }
    ],
    "enNameLanguage": "Bel Air",
    "keyAccentLanguage": "bel_air"
  },
  {
    "code": 0,
    "type": "State",
    "location": {
      "lat": -4.619,
      "lng": 55.411
    },
    "districtList": [
      {
        "code": 0,
        "type": "City",
        "enNameLanguage": "Bel Ombre",
        "location": {
          "lat": -4.619,
          "lng": 55.411
        },
        "keyAccentLanguage": "bel_ombre"
      },
      {
        "code": 0,
        "type": "City",
        "enNameLanguage": "Beau Vallon",
        "location": {
          "lat": -4.6,
          "lng": 55.417
        },
        "keyAccentLanguage": "beau_vallon"
      }
    ],
    "enNameLanguage": "Bel Ombre",
    "keyAccentLanguage": "bel_ombre"
  },
  {
    "code": 0,
    "type": "State",
    "location": {
      "lat": 42.2986159,
      "lng": -91.01486179999999
    },
    "districtList": [
      {
        "code": 0,
        "type": "City",
        "enNameLanguage": "Cascade",
        "location": {
          "lat": -4.669,
          "lng": 55.497
        },
        "keyAccentLanguage": "cascade"
      }
    ],
    "enNameLanguage": "Cascade",
    "keyAccentLanguage": "cascade"
  },
  {
    "code": 0,
    "type": "State",
    "location": {
      "lat": 49.231,
      "lng": -90.964
    },
    "districtList": [
      {
        "code": 0,
        "type": "City",
        "enNameLanguage": "English River",
        "location": {
          "lat": -4.611,
          "lng": 55.455
        },
        "keyAccentLanguage": "english_river"
      }
    ],
    "enNameLanguage": "English River",
    "keyAccentLanguage": "english_river"
  },
  {
    "code": 0,
    "type": "State",
    "location": {
      "lat": -4.584,
      "lng": 55.435
    },
    "districtList": [
      {
        "code": 0,
        "type": "City",
        "enNameLanguage": "Machabee",
        "location": {
          "lat": -4.567,
          "lng": 55.45
        },
        "keyAccentLanguage": "machabee"
      },
      {
        "code": 0,
        "type": "City",
        "enNameLanguage": "Glacis",
        "location": {
          "lat": -4.584,
          "lng": 55.435
        },
        "keyAccentLanguage": "glacis"
      }
    ],
    "enNameLanguage": "Glacis",
    "keyAccentLanguage": "glacis"
  },
  {
    "code": 0,
    "type": "State",
    "location": {
      "lat": 0,
      "lng": 0
    },
    "districtList": [
      {
        "code": 0,
        "type": "City",
        "enNameLanguage": "Misere",
        "location": {
          "lat": -4.667,
          "lng": 55.467
        },
        "keyAccentLanguage": "misere"
      },
      {
        "code": 0,
        "type": "City",
        "enNameLanguage": "Grand Anse",
        "location": {
          "lat": -4.675,
          "lng": 55.451
        },
        "keyAccentLanguage": "grand_anse"
      }
    ],
    "enNameLanguage": "Grand Anse Mahe",
    "keyAccentLanguage": "grand_anse_mahe"
  },
  {
    "code": 0,
    "type": "State",
    "location": {
      "lat": -4.319,
      "lng": 55.691
    },
    "districtList": [
      {
        "code": 0,
        "type": "City",
        "enNameLanguage": "Grand Anse",
        "location": {
          "lat": -4.327,
          "lng": 55.718
        },
        "keyAccentLanguage": "grand_anse"
      }
    ],
    "enNameLanguage": "Grand Anse Praslin",
    "keyAccentLanguage": "grand_anse_praslin"
  },
  {
    "code": 0,
    "type": "State",
    "location": {
      "lat": 12.1,
      "lng": -61.633
    },
    "districtList": [
      {
        "code": 0,
        "type": "City",
        "enNameLanguage": "Bird Island",
        "location": {
          "lat": -3.718,
          "lng": 55.206
        },
        "keyAccentLanguage": "bird_island"
      },
      {
        "code": 0,
        "type": "City",
        "enNameLanguage": "Dennis Island",
        "location": {
          "lat": -3.802,
          "lng": 55.667
        },
        "keyAccentLanguage": "dennis_island"
      },
      {
        "code": 0,
        "type": "City",
        "enNameLanguage": "North Island",
        "location": {
          "lat": -4.39,
          "lng": 55.244
        },
        "keyAccentLanguage": "north_island"
      },
      {
        "code": 0,
        "type": "City",
        "enNameLanguage": "La Reunion",
        "location": {
          "lat": -4.352,
          "lng": 55.829
        },
        "keyAccentLanguage": "la_reunion"
      },
      {
        "code": 0,
        "type": "City",
        "enNameLanguage": "Silhouette Island",
        "location": {
          "lat": -4.485,
          "lng": 55.235
        },
        "keyAccentLanguage": "silhouette_island"
      }
    ],
    "enNameLanguage": "La Digue",
    "keyAccentLanguage": "la_digue"
  },
  {
    "code": 0,
    "type": "State",
    "location": {
      "lat": 0,
      "lng": 0
    },
    "districtList": [
      {
        "code": 0,
        "type": "City",
        "enNameLanguage": "Les Mamelies",
        "location": {
          "lat": -4.652,
          "lng": 55.469
        },
        "keyAccentLanguage": "les_mamelies"
      }
    ],
    "enNameLanguage": "Les Mamelles",
    "keyAccentLanguage": "les_mamelles"
  },
  {
    "code": 0,
    "type": "State",
    "location": {
      "lat": -4.617,
      "lng": 55.448
    },
    "districtList": [
      {
        "code": 0,
        "type": "City",
        "enNameLanguage": "Mont Buxton",
        "location": {
          "lat": -4.617,
          "lng": 55.448
        },
        "keyAccentLanguage": "mont_buxton"
      }
    ],
    "enNameLanguage": "Mont Buxton",
    "keyAccentLanguage": "mont_buxton"
  },
  {
    "code": 0,
    "type": "State",
    "location": {
      "lat": -4.635,
      "lng": 55.458
    },
    "districtList": [
      {
        "code": 0,
        "type": "City",
        "enNameLanguage": "Mont Fleuri",
        "location": {
          "lat": -4.635,
          "lng": 55.458
        },
        "keyAccentLanguage": "mont_fleuri"
      }
    ],
    "enNameLanguage": "Mont Fleuri",
    "keyAccentLanguage": "mont_fleuri"
  },
  {
    "code": 0,
    "type": "State",
    "location": {
      "lat": 0,
      "lng": 0
    },
    "districtList": [
      {
        "code": 0,
        "type": "City",
        "enNameLanguage": "East North Island",
        "location": {
          "lat": -9.65,
          "lng": 47.5833333
        },
        "keyAccentLanguage": "east_north_island"
      },
      {
        "code": 0,
        "type": "City",
        "enNameLanguage": "Middle Island",
        "location": {
          "lat": 40.8831181,
          "lng": -72.94218690000001
        },
        "keyAccentLanguage": "middle_island"
      },
      {
        "code": 0,
        "type": "City",
        "enNameLanguage": "Bijoutier Island",
        "location": {
          "lat": -7.067917599999999,
          "lng": 52.7345572
        },
        "keyAccentLanguage": "bijoutier_island"
      },
      {
        "code": 0,
        "type": "City",
        "enNameLanguage": "Astove Island",
        "location": {
          "lat": -10.07,
          "lng": 47.722
        },
        "keyAccentLanguage": "astove_island"
      },
      {
        "code": 0,
        "type": "City",
        "enNameLanguage": "Menai Island",
        "location": {
          "lat": -9.7,
          "lng": 47.507
        },
        "keyAccentLanguage": "menai_island"
      },
      {
        "code": 0,
        "type": "City",
        "enNameLanguage": "Coconut Islet",
        "location": {
          "lat": -9.403,
          "lng": 46.444
        },
        "keyAccentLanguage": "coconut_islet"
      },
      {
        "code": 0,
        "type": "City",
        "enNameLanguage": "Wizard Island",
        "location": {
          "lat": -9.725,
          "lng": 47.648
        },
        "keyAccentLanguage": "wizard_island"
      },
      {
        "code": 0,
        "type": "City",
        "enNameLanguage": "Assumption Island",
        "location": {
          "lat": -9.734,
          "lng": 46.509
        },
        "keyAccentLanguage": "assumption_island"
      },
      {
        "code": 0,
        "type": "City",
        "enNameLanguage": "Platte Island",
        "location": {
          "lat": -5.864,
          "lng": 55.383
        },
        "keyAccentLanguage": "platte_island"
      },
      {
        "code": 0,
        "type": "City",
        "enNameLanguage": "Cerf Island",
        "location": {
          "lat": -9.529,
          "lng": 50.988
        },
        "keyAccentLanguage": "cerf_island"
      },
      {
        "code": 0,
        "type": "City",
        "enNameLanguage": "Alphonse Island",
        "location": {
          "lat": -7.009,
          "lng": 52.731
        },
        "keyAccentLanguage": "alphonse_island"
      },
      {
        "code": 0,
        "type": "City",
        "enNameLanguage": "South Island",
        "location": {
          "lat": -9.757,
          "lng": 47.586
        },
        "keyAccentLanguage": "south_island"
      },
      {
        "code": 0,
        "type": "City",
        "enNameLanguage": "Marie Louise Island",
        "location": {
          "lat": -6.178,
          "lng": 53.146
        },
        "keyAccentLanguage": "marie_louise_island"
      },
      {
        "code": 0,
        "type": "City",
        "enNameLanguage": "Fouquet Island",
        "location": {
          "lat": -5.427,
          "lng": 53.344
        },
        "keyAccentLanguage": "fouquet_island"
      },
      {
        "code": 0,
        "type": "City",
        "enNameLanguage": "Coetivy Island",
        "location": {
          "lat": -7.13,
          "lng": 56.283
        },
        "keyAccentLanguage": "coetivy_island"
      },
      {
        "code": 0,
        "type": "City",
        "enNameLanguage": "Poivre Islands",
        "location": {
          "lat": -5.774,
          "lng": 53.319
        },
        "keyAccentLanguage": "poivre_islands"
      },
      {
        "code": 0,
        "type": "City",
        "enNameLanguage": "Euphrates Islet",
        "location": {
          "lat": -9.425,
          "lng": 46.245
        },
        "keyAccentLanguage": "euphrates_islet"
      },
      {
        "code": 0,
        "type": "City",
        "enNameLanguage": "Goelette Island",
        "location": {
          "lat": -10.224,
          "lng": 51.129
        },
        "keyAccentLanguage": "goelette_island"
      },
      {
        "code": 0,
        "type": "City",
        "enNameLanguage": "Saint Joseph Island",
        "location": {
          "lat": -5.439,
          "lng": 53.363
        },
        "keyAccentLanguage": "saint_joseph_island"
      },
      {
        "code": 0,
        "type": "City",
        "enNameLanguage": "Saint Pierre Island",
        "location": {
          "lat": -9.319,
          "lng": 50.716
        },
        "keyAccentLanguage": "saint_pierre_island"
      },
      {
        "code": 0,
        "type": "City",
        "enNameLanguage": "Polymnie Island",
        "location": {
          "lat": -9.369,
          "lng": 46.253
        },
        "keyAccentLanguage": "polymnie_island"
      },
      {
        "code": 0,
        "type": "City",
        "enNameLanguage": "Remire Island",
        "location": {
          "lat": -5.11,
          "lng": 53.313
        },
        "keyAccentLanguage": "remire_island"
      },
      {
        "code": 0,
        "type": "City",
        "enNameLanguage": "Ile Desnoeufs",
        "location": {
          "lat": -6.237,
          "lng": 53.046
        },
        "keyAccentLanguage": "ile_desnoeufs"
      },
      {
        "code": 0,
        "type": "City",
        "enNameLanguage": "D'Arros Island",
        "location": {
          "lat": -5.416,
          "lng": 53.301
        },
        "keyAccentLanguage": "d'arros_island"
      },
      {
        "code": 0,
        "type": "City",
        "enNameLanguage": "Saint Francois Island",
        "location": {
          "lat": -7.159,
          "lng": 52.737
        },
        "keyAccentLanguage": "saint_francois_island"
      },
      {
        "code": 0,
        "type": "City",
        "enNameLanguage": "Boudeuse Cay",
        "location": {
          "lat": -6.089,
          "lng": 52.839
        },
        "keyAccentLanguage": "boudeuse_cay"
      },
      {
        "code": 0,
        "type": "City",
        "enNameLanguage": "Desroches Island",
        "location": {
          "lat": -5.687,
          "lng": 53.675
        },
        "keyAccentLanguage": "desroches_island"
      },
      {
        "code": 0,
        "type": "City",
        "enNameLanguage": "Providence Island",
        "location": {
          "lat": -9.228,
          "lng": 51.037
        },
        "keyAccentLanguage": "providence_island"
      },
      {
        "code": 0,
        "type": "City",
        "enNameLanguage": "North Island",
        "location": {
          "lat": -10.112,
          "lng": 51.173
        },
        "keyAccentLanguage": "north_island"
      },
      {
        "code": 0,
        "type": "City",
        "enNameLanguage": "South Island",
        "location": {
          "lat": -9.757,
          "lng": 47.586
        },
        "keyAccentLanguage": "south_island"
      },
      {
        "code": 0,
        "type": "City",
        "enNameLanguage": "West Island",
        "location": {
          "lat": -9.374,
          "lng": 46.216
        },
        "keyAccentLanguage": "west_island"
      },
      {
        "code": 0,
        "type": "City",
        "enNameLanguage": "North Island",
        "location": {
          "lat": -10.112,
          "lng": 51.173
        },
        "keyAccentLanguage": "north_island"
      },
      {
        "code": 0,
        "type": "City",
        "enNameLanguage": "South Island",
        "location": {
          "lat": -9.757,
          "lng": 47.586
        },
        "keyAccentLanguage": "south_island"
      },
      {
        "code": 0,
        "type": "City",
        "enNameLanguage": "South Island",
        "location": {
          "lat": -9.757,
          "lng": 47.586
        },
        "keyAccentLanguage": "south_island"
      }
    ],
    "enNameLanguage": "Outer Islands",
    "keyAccentLanguage": "outer_islands"
  },
  {
    "code": 0,
    "type": "State",
    "location": {
      "lat": 43.606345,
      "lng": 0.048795
    },
    "districtList": [
      {
        "code": 0,
        "type": "City",
        "enNameLanguage": "Plaisance",
        "location": {
          "lat": -4.641,
          "lng": 55.462
        },
        "keyAccentLanguage": "plaisance"
      }
    ],
    "enNameLanguage": "Plaisance",
    "keyAccentLanguage": "plaisance"
  },
  {
    "code": 0,
    "type": "State",
    "location": {
      "lat": -4.680489,
      "lng": 55.51918569999999
    },
    "districtList": [
      {
        "code": 0,
        "type": "City",
        "enNameLanguage": "Pointe la Rue",
        "location": {
          "lat": -4.680489,
          "lng": 55.51918569999999
        },
        "keyAccentLanguage": "pointe_la_rue"
      }
    ],
    "enNameLanguage": "Pointe Larue",
    "keyAccentLanguage": "pointe_larue"
  },
  {
    "code": 0,
    "type": "State",
    "location": {
      "lat": -4.6488523,
      "lng": 55.41947529999999
    },
    "districtList": [
      {
        "code": 0,
        "type": "City",
        "enNameLanguage": "Port Glaud",
        "location": {
          "lat": -4.6488523,
          "lng": 55.41947529999999
        },
        "keyAccentLanguage": "port_glaud"
      }
    ],
    "enNameLanguage": "Port Glaud",
    "keyAccentLanguage": "port_glaud"
  },
  {
    "code": 0,
    "type": "State",
    "location": {
      "lat": -4.6396028,
      "lng": 55.4679315
    },
    "districtList": [
      {
        "code": 0,
        "type": "City",
        "enNameLanguage": "Roche Caiman",
        "location": {
          "lat": -4.6396028,
          "lng": 55.4679315
        },
        "keyAccentLanguage": "roche_caiman"
      }
    ],
    "enNameLanguage": "Roche Caiman",
    "keyAccentLanguage": "roche_caiman"
  },
  {
    "code": 0,
    "type": "State",
    "location": {
      "lat": 38.6270025,
      "lng": -90.19940419999999
    },
    "districtList": [
      {
        "code": 0,
        "type": "City",
        "enNameLanguage": "St. Louis",
        "location": {
          "lat": 38.6270025,
          "lng": -90.19940419999999
        },
        "keyAccentLanguage": "st._louis"
      }
    ],
    "enNameLanguage": "Saint Louis",
    "keyAccentLanguage": "saint_louis"
  },
  {
    "code": 0,
    "type": "State",
    "location": {
      "lat": 37.9645917,
      "lng": -1.2217727
    },
    "districtList": [],
    "enNameLanguage": "Takamaka",
    "keyAccentLanguage": "takamaka"
  }
]