[
  {
    "code": 0,
    "type": "State",
    "location": {
      "lat": 39.9474811,
      "lng": -75.1504829
    },
    "districtList": [
      {
        "code": 0,
        "type": "City",
        "enNameLanguage": "Ayongtoke",
        "location": {
          "lat": 3.117,
          "lng": 33.667
        },
        "keyAccentLanguage": "ayongtoke"
      },
      {
        "code": 0,
        "type": "City",
        "enNameLanguage": "Kiru",
        "location": {
          "lat": 2.633,
          "lng": 33.667
        },
        "keyAccentLanguage": "kiru"
      },
      {
        "code": 0,
        "type": "City",
        "enNameLanguage": "Lodukan",
        "location": {
          "lat": 2.533,
          "lng": 33.85
        },
        "keyAccentLanguage": "lodukan"
      },
      {
        "code": 0,
        "type": "City",
        "enNameLanguage": "Morulem",
        "location": {
          "lat": 2.589,
          "lng": 33.838
        },
        "keyAccentLanguage": "morulem"
      },
      {
        "code": 0,
        "type": "City",
        "enNameLanguage": "Lyangha",
        "location": {
          "lat": 2.517,
          "lng": 33.883
        },
        "keyAccentLanguage": "lyangha"
      },
      {
        "code": 0,
        "type": "City",
        "enNameLanguage": "Koya",
        "location": {
          "lat": 2.733,
          "lng": 33.733
        },
        "keyAccentLanguage": "koya"
      },
      {
        "code": 0,
        "type": "City",
        "enNameLanguage": "Pupu",
        "location": {
          "lat": 2.533,
          "lng": 33.833
        },
        "keyAccentLanguage": "pupu"
      },
      {
        "code": 0,
        "type": "City",
        "enNameLanguage": "Akado",
        "location": {
          "lat": 2.65,
          "lng": 33.65
        },
        "keyAccentLanguage": "akado"
      },
      {
        "code": 0,
        "type": "City",
        "enNameLanguage": "Loolung",
        "location": {
          "lat": 2.55,
          "lng": 33.95
        },
        "keyAccentLanguage": "loolung"
      },
      {
        "code": 0,
        "type": "City",
        "enNameLanguage": "Kem",
        "location": {
          "lat": 2.683,
          "lng": 33.767
        },
        "keyAccentLanguage": "kem"
      },
      {
        "code": 0,
        "type": "City",
        "enNameLanguage": "Garegere",
        "location": {
          "lat": 2.717,
          "lng": 33.6
        },
        "keyAccentLanguage": "garegere"
      },
      {
        "code": 0,
        "type": "City",
        "enNameLanguage": "Abim",
        "location": {
          "lat": 2.706,
          "lng": 33.659
        },
        "keyAccentLanguage": "abim"
      },
      {
        "code": 0,
        "type": "City",
        "enNameLanguage": "Wiawer",
        "location": {
          "lat": 2.682,
          "lng": 33.669
        },
        "keyAccentLanguage": "wiawer"
      },
      {
        "code": 0,
        "type": "City",
        "enNameLanguage": "Aremo",
        "location": {
          "lat": 2.583,
          "lng": 33.783
        },
        "keyAccentLanguage": "aremo"
      },
      {
        "code": 0,
        "type": "City",
        "enNameLanguage": "Loreta",
        "location": {
          "lat": 2.5,
          "lng": 33.933
        },
        "keyAccentLanguage": "loreta"
      },
      {
        "code": 0,
        "type": "City",
        "enNameLanguage": "Nyakwai",
        "location": {
          "lat": 2.533,
          "lng": 33.95
        },
        "keyAccentLanguage": "nyakwai"
      },
      {
        "code": 0,
        "type": "City",
        "enNameLanguage": "Alerek",
        "location": {
          "lat": 2.805,
          "lng": 33.764
        },
        "keyAccentLanguage": "alerek"
      }
    ],
    "enNameLanguage": "Abim",
    "keyAccentLanguage": "abim"
  },
  {
    "code": 0,
    "type": "State",
    "location": {
      "lat": 3.3783808,
      "lng": 31.7822278
    },
    "districtList": [
      {
        "code": 0,
        "type": "City",
        "enNameLanguage": "Pakelle",
        "location": {
          "lat": 3.345,
          "lng": 31.894
        },
        "keyAccentLanguage": "pakelle"
      },
      {
        "code": 0,
        "type": "City",
        "enNameLanguage": "Arinyapi",
        "location": {
          "lat": 3.464,
          "lng": 31.977
        },
        "keyAccentLanguage": "arinyapi"
      },
      {
        "code": 0,
        "type": "City",
        "enNameLanguage": "Old Dufile",
        "location": {
          "lat": 3.567,
          "lng": 31.967
        },
        "keyAccentLanguage": "old_dufile"
      },
      {
        "code": 0,
        "type": "City",
        "enNameLanguage": "Lire",
        "location": {
          "lat": 3.517,
          "lng": 31.95
        },
        "keyAccentLanguage": "lire"
      },
      {
        "code": 0,
        "type": "City",
        "enNameLanguage": "Adjumani",
        "location": {
          "lat": 3.381,
          "lng": 31.783
        },
        "keyAccentLanguage": "adjumani"
      },
      {
        "code": 0,
        "type": "City",
        "enNameLanguage": "Zaipi",
        "location": {
          "lat": 3.4,
          "lng": 31.983
        },
        "keyAccentLanguage": "zaipi"
      },
      {
        "code": 0,
        "type": "City",
        "enNameLanguage": "Poko",
        "location": {
          "lat": 3.45,
          "lng": 31.9
        },
        "keyAccentLanguage": "poko"
      },
      {
        "code": 0,
        "type": "City",
        "enNameLanguage": "Adjugopi",
        "location": {
          "lat": 3.417,
          "lng": 31.917
        },
        "keyAccentLanguage": "adjugopi"
      },
      {
        "code": 0,
        "type": "City",
        "enNameLanguage": "Nyou",
        "location": {
          "lat": 3.48,
          "lng": 31.826
        },
        "keyAccentLanguage": "nyou"
      },
      {
        "code": 0,
        "type": "City",
        "enNameLanguage": "Pachara",
        "location": {
          "lat": 3.433,
          "lng": 31.767
        },
        "keyAccentLanguage": "pachara"
      },
      {
        "code": 0,
        "type": "City",
        "enNameLanguage": "Pamangara",
        "location": {
          "lat": 3.531,
          "lng": 31.971
        },
        "keyAccentLanguage": "pamangara"
      },
      {
        "code": 0,
        "type": "City",
        "enNameLanguage": "Liri",
        "location": {
          "lat": 3.384,
          "lng": 31.684
        },
        "keyAccentLanguage": "liri"
      },
      {
        "code": 0,
        "type": "City",
        "enNameLanguage": "Onigo",
        "location": {
          "lat": 3.5,
          "lng": 31.9
        },
        "keyAccentLanguage": "onigo"
      },
      {
        "code": 0,
        "type": "City",
        "enNameLanguage": "Umi",
        "location": {
          "lat": 3.533,
          "lng": 31.817
        },
        "keyAccentLanguage": "umi"
      },
      {
        "code": 0,
        "type": "City",
        "enNameLanguage": "Ogujebe",
        "location": {
          "lat": 3.483,
          "lng": 31.7
        },
        "keyAccentLanguage": "ogujebe"
      }
    ],
    "enNameLanguage": "Adjumani",
    "keyAccentLanguage": "adjumani"
  },
  {
    "code": 0,
    "type": "State",
    "location": {
      "lat": 2.9842809,
      "lng": 33.33066050000001
    },
    "districtList": [
      {
        "code": 0,
        "type": "City",
        "enNameLanguage": "Alwala",
        "location": {
          "lat": 2.986,
          "lng": 33.473
        },
        "keyAccentLanguage": "alwala"
      },
      {
        "code": 0,
        "type": "City",
        "enNameLanguage": "Adilang",
        "location": {
          "lat": 2.742,
          "lng": 33.48
        },
        "keyAccentLanguage": "adilang"
      },
      {
        "code": 0,
        "type": "City",
        "enNameLanguage": "Parabong",
        "location": {
          "lat": 2.9,
          "lng": 33.267
        },
        "keyAccentLanguage": "parabong"
      },
      {
        "code": 0,
        "type": "City",
        "enNameLanguage": "Wol",
        "location": {
          "lat": 3.088,
          "lng": 33.254
        },
        "keyAccentLanguage": "wol"
      },
      {
        "code": 0,
        "type": "City",
        "enNameLanguage": "Pader Palwo",
        "location": {
          "lat": 2.801,
          "lng": 33.135
        },
        "keyAccentLanguage": "pader_palwo"
      },
      {
        "code": 0,
        "type": "City",
        "enNameLanguage": "Omiya Pachua",
        "location": {
          "lat": 3.25,
          "lng": 33.367
        },
        "keyAccentLanguage": "omiya_pachua"
      },
      {
        "code": 0,
        "type": "City",
        "enNameLanguage": "Kalongo",
        "location": {
          "lat": 3.037,
          "lng": 33.372
        },
        "keyAccentLanguage": "kalongo"
      },
      {
        "code": 0,
        "type": "City",
        "enNameLanguage": "Patongo",
        "location": {
          "lat": 2.763,
          "lng": 33.309
        },
        "keyAccentLanguage": "patongo"
      },
      {
        "code": 0,
        "type": "City",
        "enNameLanguage": "Paimol",
        "location": {
          "lat": 3.1,
          "lng": 33.433
        },
        "keyAccentLanguage": "paimol"
      },
      {
        "code": 0,
        "type": "City",
        "enNameLanguage": "Oukoto",
        "location": {
          "lat": 2.983,
          "lng": 33.35
        },
        "keyAccentLanguage": "oukoto"
      },
      {
        "code": 0,
        "type": "City",
        "enNameLanguage": "Lira Palwo",
        "location": {
          "lat": 2.783,
          "lng": 33.183
        },
        "keyAccentLanguage": "lira_palwo"
      },
      {
        "code": 0,
        "type": "City",
        "enNameLanguage": "Amiel",
        "location": {
          "lat": 2.967,
          "lng": 33.45
        },
        "keyAccentLanguage": "amiel"
      }
    ],
    "enNameLanguage": "Agago",
    "keyAccentLanguage": "agago"
  },
  {
    "code": 0,
    "type": "State",
    "location": {
      "lat": 2.2497515,
      "lng": 33.31423970000001
    },
    "districtList": [
      {
        "code": 0,
        "type": "City",
        "enNameLanguage": "Aloi",
        "location": {
          "lat": 2.286,
          "lng": 33.157
        },
        "keyAccentLanguage": "aloi"
      },
      {
        "code": 0,
        "type": "City",
        "enNameLanguage": "Abala",
        "location": {
          "lat": 2.383,
          "lng": 33.045
        },
        "keyAccentLanguage": "abala"
      },
      {
        "code": 0,
        "type": "City",
        "enNameLanguage": "Alebtong",
        "location": {
          "lat": 2.249,
          "lng": 33.314
        },
        "keyAccentLanguage": "alebtong"
      },
      {
        "code": 0,
        "type": "City",
        "enNameLanguage": "Oyalakwe",
        "location": {
          "lat": 2.25,
          "lng": 33.5
        },
        "keyAccentLanguage": "oyalakwe"
      },
      {
        "code": 0,
        "type": "City",
        "enNameLanguage": "Amugo",
        "location": {
          "lat": 2.082,
          "lng": 33.336
        },
        "keyAccentLanguage": "amugo"
      },
      {
        "code": 0,
        "type": "City",
        "enNameLanguage": "Omid",
        "location": {
          "lat": 2.033,
          "lng": 33.35
        },
        "keyAccentLanguage": "omid"
      },
      {
        "code": 0,
        "type": "City",
        "enNameLanguage": "Apigikwe",
        "location": {
          "lat": 2.133,
          "lng": 33.25
        },
        "keyAccentLanguage": "apigikwe"
      },
      {
        "code": 0,
        "type": "City",
        "enNameLanguage": "Omoro",
        "location": {
          "lat": 2.218,
          "lng": 33.398
        },
        "keyAccentLanguage": "omoro"
      }
    ],
    "enNameLanguage": "Alebtong",
    "keyAccentLanguage": "alebtong"
  },
  {
    "code": 0,
    "type": "State",
    "location": {
      "lat": 1.6329923,
      "lng": 32.8183226
    },
    "districtList": [
      {
        "code": 0,
        "type": "City",
        "enNameLanguage": "Aputi",
        "location": {
          "lat": 1.7333333,
          "lng": 32.9166679
        },
        "keyAccentLanguage": "aputi"
      },
      {
        "code": 0,
        "type": "City",
        "enNameLanguage": "Abeja",
        "location": {
          "lat": 1.767,
          "lng": 32.817
        },
        "keyAccentLanguage": "abeja"
      },
      {
        "code": 0,
        "type": "City",
        "enNameLanguage": "Agikdak",
        "location": {
          "lat": 1.667,
          "lng": 32.917
        },
        "keyAccentLanguage": "agikdak"
      },
      {
        "code": 0,
        "type": "City",
        "enNameLanguage": "Naluboyo",
        "location": {
          "lat": 1.55,
          "lng": 32.833
        },
        "keyAccentLanguage": "naluboyo"
      },
      {
        "code": 0,
        "type": "City",
        "enNameLanguage": "Akongomit",
        "location": {
          "lat": 1.7,
          "lng": 32.783
        },
        "keyAccentLanguage": "akongomit"
      },
      {
        "code": 0,
        "type": "City",
        "enNameLanguage": "Adyongobaro",
        "location": {
          "lat": 1.7,
          "lng": 32.75
        },
        "keyAccentLanguage": "adyongobaro"
      },
      {
        "code": 0,
        "type": "City",
        "enNameLanguage": "Abolonyero",
        "location": {
          "lat": 1.617,
          "lng": 32.8
        },
        "keyAccentLanguage": "abolonyero"
      },
      {
        "code": 0,
        "type": "City",
        "enNameLanguage": "Adonyimo",
        "location": {
          "lat": 1.783,
          "lng": 32.95
        },
        "keyAccentLanguage": "adonyimo"
      },
      {
        "code": 0,
        "type": "City",
        "enNameLanguage": "Lwanzoji",
        "location": {
          "lat": 1.6,
          "lng": 32.95
        },
        "keyAccentLanguage": "lwanzoji"
      },
      {
        "code": 0,
        "type": "City",
        "enNameLanguage": "Akot",
        "location": {
          "lat": 1.75,
          "lng": 32.817
        },
        "keyAccentLanguage": "akot"
      },
      {
        "code": 0,
        "type": "City",
        "enNameLanguage": "Apeneki",
        "location": {
          "lat": 1.8,
          "lng": 32.817
        },
        "keyAccentLanguage": "apeneki"
      },
      {
        "code": 0,
        "type": "City",
        "enNameLanguage": "Abaler",
        "location": {
          "lat": 1.633,
          "lng": 32.9
        },
        "keyAccentLanguage": "abaler"
      },
      {
        "code": 0,
        "type": "City",
        "enNameLanguage": "Awelo",
        "location": {
          "lat": 1.717,
          "lng": 32.767
        },
        "keyAccentLanguage": "awelo"
      },
      {
        "code": 0,
        "type": "City",
        "enNameLanguage": "Alemere",
        "location": {
          "lat": 1.597,
          "lng": 32.837
        },
        "keyAccentLanguage": "alemere"
      },
      {
        "code": 0,
        "type": "City",
        "enNameLanguage": "Turukang",
        "location": {
          "lat": 1.65,
          "lng": 32.733
        },
        "keyAccentLanguage": "turukang"
      },
      {
        "code": 0,
        "type": "City",
        "enNameLanguage": "Agonyolako",
        "location": {
          "lat": 1.65,
          "lng": 32.767
        },
        "keyAccentLanguage": "agonyolako"
      },
      {
        "code": 0,
        "type": "City",
        "enNameLanguage": "Angotimoti",
        "location": {
          "lat": 1.7,
          "lng": 32.95
        },
        "keyAccentLanguage": "angotimoti"
      },
      {
        "code": 0,
        "type": "City",
        "enNameLanguage": "Itam",
        "location": {
          "lat": 1.633,
          "lng": 32.7
        },
        "keyAccentLanguage": "itam"
      },
      {
        "code": 0,
        "type": "City",
        "enNameLanguage": "Abarikori",
        "location": {
          "lat": 1.667,
          "lng": 32.883
        },
        "keyAccentLanguage": "abarikori"
      },
      {
        "code": 0,
        "type": "City",
        "enNameLanguage": "Abalang",
        "location": {
          "lat": 1.7,
          "lng": 32.967
        },
        "keyAccentLanguage": "abalang"
      },
      {
        "code": 0,
        "type": "City",
        "enNameLanguage": "Kibuje",
        "location": {
          "lat": 1.767,
          "lng": 32.867
        },
        "keyAccentLanguage": "kibuje"
      },
      {
        "code": 0,
        "type": "City",
        "enNameLanguage": "Kitaleba",
        "location": {
          "lat": 1.567,
          "lng": 32.95
        },
        "keyAccentLanguage": "kitaleba"
      },
      {
        "code": 0,
        "type": "City",
        "enNameLanguage": "Anamido",
        "location": {
          "lat": 1.667,
          "lng": 32.733
        },
        "keyAccentLanguage": "anamido"
      },
      {
        "code": 0,
        "type": "City",
        "enNameLanguage": "Abalodyang",
        "location": {
          "lat": 1.733,
          "lng": 32.883
        },
        "keyAccentLanguage": "abalodyang"
      },
      {
        "code": 0,
        "type": "City",
        "enNameLanguage": "Namabere",
        "location": {
          "lat": 1.601,
          "lng": 32.646
        },
        "keyAccentLanguage": "namabere"
      },
      {
        "code": 0,
        "type": "City",
        "enNameLanguage": "Nakatit",
        "location": {
          "lat": 1.583,
          "lng": 32.933
        },
        "keyAccentLanguage": "nakatit"
      },
      {
        "code": 0,
        "type": "City",
        "enNameLanguage": "Adita",
        "location": {
          "lat": 1.683,
          "lng": 32.867
        },
        "keyAccentLanguage": "adita"
      },
      {
        "code": 0,
        "type": "City",
        "enNameLanguage": "Lwampanga",
        "location": {
          "lat": 1.519,
          "lng": 32.528
        },
        "keyAccentLanguage": "lwampanga"
      },
      {
        "code": 0,
        "type": "City",
        "enNameLanguage": "Atura",
        "location": {
          "lat": 1.733,
          "lng": 32.85
        },
        "keyAccentLanguage": "atura"
      },
      {
        "code": 0,
        "type": "City",
        "enNameLanguage": "Akwoni",
        "location": {
          "lat": 1.75,
          "lng": 32.9
        },
        "keyAccentLanguage": "akwoni"
      },
      {
        "code": 0,
        "type": "City",
        "enNameLanguage": "Kalwala",
        "location": {
          "lat": 1.5,
          "lng": 32.683
        },
        "keyAccentLanguage": "kalwala"
      },
      {
        "code": 0,
        "type": "City",
        "enNameLanguage": "Agwingiri",
        "location": {
          "lat": 1.633,
          "lng": 32.833
        },
        "keyAccentLanguage": "agwingiri"
      },
      {
        "code": 0,
        "type": "City",
        "enNameLanguage": "Katangira",
        "location": {
          "lat": 1.533,
          "lng": 32.7
        },
        "keyAccentLanguage": "katangira"
      },
      {
        "code": 0,
        "type": "City",
        "enNameLanguage": "Muntu",
        "location": {
          "lat": 1.573,
          "lng": 32.883
        },
        "keyAccentLanguage": "muntu"
      },
      {
        "code": 0,
        "type": "City",
        "enNameLanguage": "Aburkot",
        "location": {
          "lat": 1.667,
          "lng": 32.8
        },
        "keyAccentLanguage": "aburkot"
      },
      {
        "code": 0,
        "type": "City",
        "enNameLanguage": "Nabweyo",
        "location": {
          "lat": 1.533,
          "lng": 32.745
        },
        "keyAccentLanguage": "nabweyo"
      },
      {
        "code": 0,
        "type": "City",
        "enNameLanguage": "Adongoyere",
        "location": {
          "lat": 1.683,
          "lng": 32.783
        },
        "keyAccentLanguage": "adongoyere"
      },
      {
        "code": 0,
        "type": "City",
        "enNameLanguage": "Abwong",
        "location": {
          "lat": 1.7,
          "lng": 32.833
        },
        "keyAccentLanguage": "abwong"
      },
      {
        "code": 0,
        "type": "City",
        "enNameLanguage": "Etam",
        "location": {
          "lat": 1.667,
          "lng": 32.7
        },
        "keyAccentLanguage": "etam"
      },
      {
        "code": 0,
        "type": "City",
        "enNameLanguage": "Aringot",
        "location": {
          "lat": 1.7,
          "lng": 32.933
        },
        "keyAccentLanguage": "aringot"
      },
      {
        "code": 0,
        "type": "City",
        "enNameLanguage": "Kyarupasi",
        "location": {
          "lat": 1.583,
          "lng": 32.7
        },
        "keyAccentLanguage": "kyarupasi"
      },
      {
        "code": 0,
        "type": "City",
        "enNameLanguage": "Kyamulasa",
        "location": {
          "lat": 1.567,
          "lng": 32.85
        },
        "keyAccentLanguage": "kyamulasa"
      },
      {
        "code": 0,
        "type": "City",
        "enNameLanguage": "Buruburu",
        "location": {
          "lat": 1.767,
          "lng": 32.8
        },
        "keyAccentLanguage": "buruburu"
      },
      {
        "code": 0,
        "type": "City",
        "enNameLanguage": "Ojok",
        "location": {
          "lat": 1.7,
          "lng": 32.85
        },
        "keyAccentLanguage": "ojok"
      },
      {
        "code": 0,
        "type": "City",
        "enNameLanguage": "Ntimba",
        "location": {
          "lat": 1.6,
          "lng": 32.933
        },
        "keyAccentLanguage": "ntimba"
      },
      {
        "code": 0,
        "type": "City",
        "enNameLanguage": "Odiak",
        "location": {
          "lat": 1.633,
          "lng": 32.933
        },
        "keyAccentLanguage": "odiak"
      },
      {
        "code": 0,
        "type": "City",
        "enNameLanguage": "Anywali",
        "location": {
          "lat": 1.767,
          "lng": 32.9
        },
        "keyAccentLanguage": "anywali"
      },
      {
        "code": 0,
        "type": "City",
        "enNameLanguage": "Amolatar",
        "location": {
          "lat": 1.641,
          "lng": 32.831
        },
        "keyAccentLanguage": "amolatar"
      },
      {
        "code": 0,
        "type": "City",
        "enNameLanguage": "Lwala",
        "location": {
          "lat": 1.795,
          "lng": 32.828
        },
        "keyAccentLanguage": "lwala"
      },
      {
        "code": 0,
        "type": "City",
        "enNameLanguage": "Turupok",
        "location": {
          "lat": 1.567,
          "lng": 32.633
        },
        "keyAccentLanguage": "turupok"
      },
      {
        "code": 0,
        "type": "City",
        "enNameLanguage": "Kidda",
        "location": {
          "lat": 1.583,
          "lng": 32.867
        },
        "keyAccentLanguage": "kidda"
      },
      {
        "code": 0,
        "type": "City",
        "enNameLanguage": "Abarekori",
        "location": {
          "lat": 1.667,
          "lng": 32.983
        },
        "keyAccentLanguage": "abarekori"
      },
      {
        "code": 0,
        "type": "City",
        "enNameLanguage": "Adakata",
        "location": {
          "lat": 1.767,
          "lng": 32.867
        },
        "keyAccentLanguage": "adakata"
      },
      {
        "code": 0,
        "type": "City",
        "enNameLanguage": "Adero",
        "location": {
          "lat": 1.683,
          "lng": 32.733
        },
        "keyAccentLanguage": "adero"
      },
      {
        "code": 0,
        "type": "City",
        "enNameLanguage": "Waibalaibi",
        "location": {
          "lat": 1.617,
          "lng": 32.7
        },
        "keyAccentLanguage": "waibalaibi"
      },
      {
        "code": 0,
        "type": "City",
        "enNameLanguage": "Kibugo",
        "location": {
          "lat": 1.583,
          "lng": 32.85
        },
        "keyAccentLanguage": "kibugo"
      },
      {
        "code": 0,
        "type": "City",
        "enNameLanguage": "Wabinwa",
        "location": {
          "lat": 1.533,
          "lng": 32.583
        },
        "keyAccentLanguage": "wabinwa"
      },
      {
        "code": 0,
        "type": "City",
        "enNameLanguage": "Katoliti",
        "location": {
          "lat": 1.6,
          "lng": 32.65
        },
        "keyAccentLanguage": "katoliti"
      },
      {
        "code": 0,
        "type": "City",
        "enNameLanguage": "Kikongoro",
        "location": {
          "lat": 1.6,
          "lng": 32.617
        },
        "keyAccentLanguage": "kikongoro"
      },
      {
        "code": 0,
        "type": "City",
        "enNameLanguage": "Namasale",
        "location": {
          "lat": 1.509,
          "lng": 32.616
        },
        "keyAccentLanguage": "namasale"
      },
      {
        "code": 0,
        "type": "City",
        "enNameLanguage": "Namuja",
        "location": {
          "lat": 1.633,
          "lng": 32.75
        },
        "keyAccentLanguage": "namuja"
      },
      {
        "code": 0,
        "type": "City",
        "enNameLanguage": "Otira",
        "location": {
          "lat": 1.75,
          "lng": 32.967
        },
        "keyAccentLanguage": "otira"
      },
      {
        "code": 0,
        "type": "City",
        "enNameLanguage": "Chakwala",
        "location": {
          "lat": 1.65,
          "lng": 32.667
        },
        "keyAccentLanguage": "chakwala"
      },
      {
        "code": 0,
        "type": "City",
        "enNameLanguage": "Odyedo",
        "location": {
          "lat": 1.717,
          "lng": 32.767
        },
        "keyAccentLanguage": "odyedo"
      }
    ],
    "enNameLanguage": "Amolatar",
    "keyAccentLanguage": "amolatar"
  },
  {
    "code": 0,
    "type": "State",
    "location": {
      "lat": 1.9534181,
      "lng": 34.9437716
    },
    "districtList": [
      {
        "code": 0,
        "type": "City",
        "enNameLanguage": "Loporokocho",
        "location": {
          "lat": 1.533,
          "lng": 34.717
        },
        "keyAccentLanguage": "loporokocho"
      },
      {
        "code": 0,
        "type": "City",
        "enNameLanguage": "Lokales",
        "location": {
          "lat": 1.45,
          "lng": 34.8
        },
        "keyAccentLanguage": "lokales"
      },
      {
        "code": 0,
        "type": "City",
        "enNameLanguage": "Katabok",
        "location": {
          "lat": 1.767,
          "lng": 34.85
        },
        "keyAccentLanguage": "katabok"
      },
      {
        "code": 0,
        "type": "City",
        "enNameLanguage": "Kotulel",
        "location": {
          "lat": 1.95,
          "lng": 34.9
        },
        "keyAccentLanguage": "kotulel"
      },
      {
        "code": 0,
        "type": "City",
        "enNameLanguage": "Paripari",
        "location": {
          "lat": 1.6,
          "lng": 34.85
        },
        "keyAccentLanguage": "paripari"
      },
      {
        "code": 0,
        "type": "City",
        "enNameLanguage": "Amudat",
        "location": {
          "lat": 1.953,
          "lng": 34.947
        },
        "keyAccentLanguage": "amudat"
      },
      {
        "code": 0,
        "type": "City",
        "enNameLanguage": "Loro",
        "location": {
          "lat": 2.179,
          "lng": 34.897
        },
        "keyAccentLanguage": "loro"
      },
      {
        "code": 0,
        "type": "City",
        "enNameLanguage": "Karita",
        "location": {
          "lat": 1.567,
          "lng": 34.931
        },
        "keyAccentLanguage": "karita"
      },
      {
        "code": 0,
        "type": "City",
        "enNameLanguage": "Murut",
        "location": {
          "lat": 2.1,
          "lng": 34.9
        },
        "keyAccentLanguage": "murut"
      },
      {
        "code": 0,
        "type": "City",
        "enNameLanguage": "Morunyang",
        "location": {
          "lat": 1.583,
          "lng": 34.717
        },
        "keyAccentLanguage": "morunyang"
      }
    ],
    "enNameLanguage": "Amudat",
    "keyAccentLanguage": "amudat"
  },
  {
    "code": 0,
    "type": "State",
    "location": {
      "lat": 2.03017,
      "lng": 33.6427533
    },
    "districtList": [
      {
        "code": 0,
        "type": "City",
        "enNameLanguage": "Adepari",
        "location": {
          "lat": 2.1,
          "lng": 33.833
        },
        "keyAccentLanguage": "adepari"
      },
      {
        "code": 0,
        "type": "City",
        "enNameLanguage": "Alere",
        "location": {
          "lat": 2.15,
          "lng": 33.65
        },
        "keyAccentLanguage": "alere"
      },
      {
        "code": 0,
        "type": "City",
        "enNameLanguage": "Achomai",
        "location": {
          "lat": 2.017,
          "lng": 33.583
        },
        "keyAccentLanguage": "achomai"
      },
      {
        "code": 0,
        "type": "City",
        "enNameLanguage": "Alas",
        "location": {
          "lat": 1.967,
          "lng": 33.65
        },
        "keyAccentLanguage": "alas"
      },
      {
        "code": 0,
        "type": "City",
        "enNameLanguage": "Achwa",
        "location": {
          "lat": 2.068,
          "lng": 33.797
        },
        "keyAccentLanguage": "achwa"
      },
      {
        "code": 0,
        "type": "City",
        "enNameLanguage": "Abiya",
        "location": {
          "lat": 2.017,
          "lng": 33.617
        },
        "keyAccentLanguage": "abiya"
      },
      {
        "code": 0,
        "type": "City",
        "enNameLanguage": "Aguliya",
        "location": {
          "lat": 2.231,
          "lng": 33.567
        },
        "keyAccentLanguage": "aguliya"
      },
      {
        "code": 0,
        "type": "City",
        "enNameLanguage": "Amilmil",
        "location": {
          "lat": 2.083,
          "lng": 33.6
        },
        "keyAccentLanguage": "amilmil"
      },
      {
        "code": 0,
        "type": "City",
        "enNameLanguage": "Akoyo",
        "location": {
          "lat": 2.267,
          "lng": 33.533
        },
        "keyAccentLanguage": "akoyo"
      },
      {
        "code": 0,
        "type": "City",
        "enNameLanguage": "Achwichwi",
        "location": {
          "lat": 2.133,
          "lng": 33.6
        },
        "keyAccentLanguage": "achwichwi"
      },
      {
        "code": 0,
        "type": "City",
        "enNameLanguage": "Abarilela",
        "location": {
          "lat": 1.983,
          "lng": 33.833
        },
        "keyAccentLanguage": "abarilela"
      },
      {
        "code": 0,
        "type": "City",
        "enNameLanguage": "Alutong",
        "location": {
          "lat": 2.317,
          "lng": 33.567
        },
        "keyAccentLanguage": "alutong"
      },
      {
        "code": 0,
        "type": "City",
        "enNameLanguage": "Akyeriau",
        "location": {
          "lat": 2.033,
          "lng": 33.383
        },
        "keyAccentLanguage": "akyeriau"
      },
      {
        "code": 0,
        "type": "City",
        "enNameLanguage": "Obalang",
        "location": {
          "lat": 2.173,
          "lng": 33.583
        },
        "keyAccentLanguage": "obalang"
      },
      {
        "code": 0,
        "type": "City",
        "enNameLanguage": "Aderutu",
        "location": {
          "lat": 2.3,
          "lng": 33.617
        },
        "keyAccentLanguage": "aderutu"
      },
      {
        "code": 0,
        "type": "City",
        "enNameLanguage": "Aminito",
        "location": {
          "lat": 2.133,
          "lng": 33.717
        },
        "keyAccentLanguage": "aminito"
      },
      {
        "code": 0,
        "type": "City",
        "enNameLanguage": "Achedepel",
        "location": {
          "lat": 2.033,
          "lng": 33.85
        },
        "keyAccentLanguage": "achedepel"
      },
      {
        "code": 0,
        "type": "City",
        "enNameLanguage": "Obwin",
        "location": {
          "lat": 1.983,
          "lng": 33.767
        },
        "keyAccentLanguage": "obwin"
      },
      {
        "code": 0,
        "type": "City",
        "enNameLanguage": "Asilang",
        "location": {
          "lat": 1.9,
          "lng": 33.817
        },
        "keyAccentLanguage": "asilang"
      },
      {
        "code": 0,
        "type": "City",
        "enNameLanguage": "Ekobatum",
        "location": {
          "lat": 2.133,
          "lng": 33.833
        },
        "keyAccentLanguage": "ekobatum"
      },
      {
        "code": 0,
        "type": "City",
        "enNameLanguage": "Amero",
        "location": {
          "lat": 2.117,
          "lng": 33.767
        },
        "keyAccentLanguage": "amero"
      },
      {
        "code": 0,
        "type": "City",
        "enNameLanguage": "Abeko",
        "location": {
          "lat": 2,
          "lng": 33.567
        },
        "keyAccentLanguage": "abeko"
      },
      {
        "code": 0,
        "type": "City",
        "enNameLanguage": "Ameng",
        "location": {
          "lat": 1.883,
          "lng": 33.817
        },
        "keyAccentLanguage": "ameng"
      },
      {
        "code": 0,
        "type": "City",
        "enNameLanguage": "Balanga",
        "location": {
          "lat": 2.15,
          "lng": 33.567
        },
        "keyAccentLanguage": "balanga"
      },
      {
        "code": 0,
        "type": "City",
        "enNameLanguage": "Amemya",
        "location": {
          "lat": 2.233,
          "lng": 33.683
        },
        "keyAccentLanguage": "amemya"
      },
      {
        "code": 0,
        "type": "City",
        "enNameLanguage": "Amucu",
        "location": {
          "lat": 2.117,
          "lng": 33.7
        },
        "keyAccentLanguage": "amucu"
      },
      {
        "code": 0,
        "type": "City",
        "enNameLanguage": "Ojukot",
        "location": {
          "lat": 2.083,
          "lng": 33.5
        },
        "keyAccentLanguage": "ojukot"
      },
      {
        "code": 0,
        "type": "City",
        "enNameLanguage": "Anyidi",
        "location": {
          "lat": 1.95,
          "lng": 33.683
        },
        "keyAccentLanguage": "anyidi"
      },
      {
        "code": 0,
        "type": "City",
        "enNameLanguage": "Amuria",
        "location": {
          "lat": 2.029,
          "lng": 33.644
        },
        "keyAccentLanguage": "amuria"
      },
      {
        "code": 0,
        "type": "City",
        "enNameLanguage": "Morunera",
        "location": {
          "lat": 1.983,
          "lng": 33.45
        },
        "keyAccentLanguage": "morunera"
      },
      {
        "code": 0,
        "type": "City",
        "enNameLanguage": "Anyangalong",
        "location": {
          "lat": 2.217,
          "lng": 33.8
        },
        "keyAccentLanguage": "anyangalong"
      },
      {
        "code": 0,
        "type": "City",
        "enNameLanguage": "Asalatap",
        "location": {
          "lat": 1.867,
          "lng": 33.767
        },
        "keyAccentLanguage": "asalatap"
      },
      {
        "code": 0,
        "type": "City",
        "enNameLanguage": "Morungatuny",
        "location": {
          "lat": 2.1,
          "lng": 33.467
        },
        "keyAccentLanguage": "morungatuny"
      },
      {
        "code": 0,
        "type": "City",
        "enNameLanguage": "Abakule",
        "location": {
          "lat": 2.217,
          "lng": 33.483
        },
        "keyAccentLanguage": "abakule"
      },
      {
        "code": 0,
        "type": "City",
        "enNameLanguage": "Alera",
        "location": {
          "lat": 2.25,
          "lng": 33.617
        },
        "keyAccentLanguage": "alera"
      },
      {
        "code": 0,
        "type": "City",
        "enNameLanguage": "Okwangai",
        "location": {
          "lat": 2.35,
          "lng": 33.683
        },
        "keyAccentLanguage": "okwangai"
      },
      {
        "code": 0,
        "type": "City",
        "enNameLanguage": "Okoboi",
        "location": {
          "lat": 2.317,
          "lng": 33.85
        },
        "keyAccentLanguage": "okoboi"
      },
      {
        "code": 0,
        "type": "City",
        "enNameLanguage": "Nyaada",
        "location": {
          "lat": 2.217,
          "lng": 33.683
        },
        "keyAccentLanguage": "nyaada"
      },
      {
        "code": 0,
        "type": "City",
        "enNameLanguage": "Adola",
        "location": {
          "lat": 2.233,
          "lng": 33.617
        },
        "keyAccentLanguage": "adola"
      },
      {
        "code": 0,
        "type": "City",
        "enNameLanguage": "Kokolya",
        "location": {
          "lat": 2.167,
          "lng": 33.817
        },
        "keyAccentLanguage": "kokolya"
      },
      {
        "code": 0,
        "type": "City",
        "enNameLanguage": "Amusus",
        "location": {
          "lat": 2.067,
          "lng": 33.55
        },
        "keyAccentLanguage": "amusus"
      },
      {
        "code": 0,
        "type": "City",
        "enNameLanguage": "Omunyir",
        "location": {
          "lat": 2.15,
          "lng": 33.483
        },
        "keyAccentLanguage": "omunyir"
      },
      {
        "code": 0,
        "type": "City",
        "enNameLanguage": "Amorupos",
        "location": {
          "lat": 1.95,
          "lng": 33.717
        },
        "keyAccentLanguage": "amorupos"
      },
      {
        "code": 0,
        "type": "City",
        "enNameLanguage": "Mwogo",
        "location": {
          "lat": 2.1,
          "lng": 33.383
        },
        "keyAccentLanguage": "mwogo"
      },
      {
        "code": 0,
        "type": "City",
        "enNameLanguage": "Ngora",
        "location": {
          "lat": 2.1,
          "lng": 33.433
        },
        "keyAccentLanguage": "ngora"
      },
      {
        "code": 0,
        "type": "City",
        "enNameLanguage": "Awojaitoi",
        "location": {
          "lat": 2.183,
          "lng": 33.55
        },
        "keyAccentLanguage": "awojaitoi"
      },
      {
        "code": 0,
        "type": "City",
        "enNameLanguage": "Agipaboni",
        "location": {
          "lat": 2.317,
          "lng": 33.65
        },
        "keyAccentLanguage": "agipaboni"
      },
      {
        "code": 0,
        "type": "City",
        "enNameLanguage": "Dakum",
        "location": {
          "lat": 2.067,
          "lng": 33.4
        },
        "keyAccentLanguage": "dakum"
      },
      {
        "code": 0,
        "type": "City",
        "enNameLanguage": "Mamuyoga",
        "location": {
          "lat": 2.067,
          "lng": 33.467
        },
        "keyAccentLanguage": "mamuyoga"
      },
      {
        "code": 0,
        "type": "City",
        "enNameLanguage": "Oringo",
        "location": {
          "lat": 2.317,
          "lng": 33.567
        },
        "keyAccentLanguage": "oringo"
      },
      {
        "code": 0,
        "type": "City",
        "enNameLanguage": "Olekai",
        "location": {
          "lat": 1.933,
          "lng": 33.667
        },
        "keyAccentLanguage": "olekai"
      },
      {
        "code": 0,
        "type": "City",
        "enNameLanguage": "Ocholokoboi",
        "location": {
          "lat": 2.283,
          "lng": 33.75
        },
        "keyAccentLanguage": "ocholokoboi"
      },
      {
        "code": 0,
        "type": "City",
        "enNameLanguage": "Ochal",
        "location": {
          "lat": 1.917,
          "lng": 33.867
        },
        "keyAccentLanguage": "ochal"
      },
      {
        "code": 0,
        "type": "City",
        "enNameLanguage": "Ogangai",
        "location": {
          "lat": 2.183,
          "lng": 33.517
        },
        "keyAccentLanguage": "ogangai"
      },
      {
        "code": 0,
        "type": "City",
        "enNameLanguage": "Odoon",
        "location": {
          "lat": 1.95,
          "lng": 33.733
        },
        "keyAccentLanguage": "odoon"
      },
      {
        "code": 0,
        "type": "City",
        "enNameLanguage": "Kyegerekum",
        "location": {
          "lat": 2.25,
          "lng": 33.817
        },
        "keyAccentLanguage": "kyegerekum"
      },
      {
        "code": 0,
        "type": "City",
        "enNameLanguage": "Amitina",
        "location": {
          "lat": 1.983,
          "lng": 33.817
        },
        "keyAccentLanguage": "amitina"
      },
      {
        "code": 0,
        "type": "City",
        "enNameLanguage": "Komolo",
        "location": {
          "lat": 1.867,
          "lng": 33.817
        },
        "keyAccentLanguage": "komolo"
      },
      {
        "code": 0,
        "type": "City",
        "enNameLanguage": "Idia",
        "location": {
          "lat": 2.183,
          "lng": 33.683
        },
        "keyAccentLanguage": "idia"
      },
      {
        "code": 0,
        "type": "City",
        "enNameLanguage": "Dodos",
        "location": {
          "lat": 1.95,
          "lng": 33.767
        },
        "keyAccentLanguage": "dodos"
      },
      {
        "code": 0,
        "type": "City",
        "enNameLanguage": "Otome",
        "location": {
          "lat": 1.85,
          "lng": 33.767
        },
        "keyAccentLanguage": "otome"
      },
      {
        "code": 0,
        "type": "City",
        "enNameLanguage": "Owerai",
        "location": {
          "lat": 1.967,
          "lng": 33.6
        },
        "keyAccentLanguage": "owerai"
      },
      {
        "code": 0,
        "type": "City",
        "enNameLanguage": "Okude",
        "location": {
          "lat": 2.067,
          "lng": 33.367
        },
        "keyAccentLanguage": "okude"
      },
      {
        "code": 0,
        "type": "City",
        "enNameLanguage": "Wila",
        "location": {
          "lat": 2.1,
          "lng": 33.65
        },
        "keyAccentLanguage": "wila"
      },
      {
        "code": 0,
        "type": "City",
        "enNameLanguage": "Suguru",
        "location": {
          "lat": 1.783,
          "lng": 33.833
        },
        "keyAccentLanguage": "suguru"
      },
      {
        "code": 0,
        "type": "City",
        "enNameLanguage": "Kuju",
        "location": {
          "lat": 2.027,
          "lng": 33.604
        },
        "keyAccentLanguage": "kuju"
      },
      {
        "code": 0,
        "type": "City",
        "enNameLanguage": "Asamuk",
        "location": {
          "lat": 2.017,
          "lng": 33.667
        },
        "keyAccentLanguage": "asamuk"
      },
      {
        "code": 0,
        "type": "City",
        "enNameLanguage": "Ojota",
        "location": {
          "lat": 1.8,
          "lng": 33.8
        },
        "keyAccentLanguage": "ojota"
      },
      {
        "code": 0,
        "type": "City",
        "enNameLanguage": "Obyonyo",
        "location": {
          "lat": 2.05,
          "lng": 33.383
        },
        "keyAccentLanguage": "obyonyo"
      },
      {
        "code": 0,
        "type": "City",
        "enNameLanguage": "Wera",
        "location": {
          "lat": 1.871,
          "lng": 33.748
        },
        "keyAccentLanguage": "wera"
      },
      {
        "code": 0,
        "type": "City",
        "enNameLanguage": "Ajaniti",
        "location": {
          "lat": 2.283,
          "lng": 33.55
        },
        "keyAccentLanguage": "ajaniti"
      },
      {
        "code": 0,
        "type": "City",
        "enNameLanguage": "Ochanip",
        "location": {
          "lat": 2.35,
          "lng": 33.783
        },
        "keyAccentLanguage": "ochanip"
      },
      {
        "code": 0,
        "type": "City",
        "enNameLanguage": "Olwa",
        "location": {
          "lat": 2.117,
          "lng": 33.45
        },
        "keyAccentLanguage": "olwa"
      },
      {
        "code": 0,
        "type": "City",
        "enNameLanguage": "Palisa",
        "location": {
          "lat": 2.3,
          "lng": 33.65
        },
        "keyAccentLanguage": "palisa"
      },
      {
        "code": 0,
        "type": "City",
        "enNameLanguage": "Orungo",
        "location": {
          "lat": 2.041,
          "lng": 33.445
        },
        "keyAccentLanguage": "orungo"
      },
      {
        "code": 0,
        "type": "City",
        "enNameLanguage": "Olelai",
        "location": {
          "lat": 1.933,
          "lng": 33.85
        },
        "keyAccentLanguage": "olelai"
      },
      {
        "code": 0,
        "type": "City",
        "enNameLanguage": "Kapelebyong",
        "location": {
          "lat": 2.293,
          "lng": 33.831
        },
        "keyAccentLanguage": "kapelebyong"
      },
      {
        "code": 0,
        "type": "City",
        "enNameLanguage": "Omutoi",
        "location": {
          "lat": 1.883,
          "lng": 33.817
        },
        "keyAccentLanguage": "omutoi"
      },
      {
        "code": 0,
        "type": "City",
        "enNameLanguage": "Ochakai",
        "location": {
          "lat": 1.95,
          "lng": 33.433
        },
        "keyAccentLanguage": "ochakai"
      },
      {
        "code": 0,
        "type": "City",
        "enNameLanguage": "Amarwasi",
        "location": {
          "lat": 2.183,
          "lng": 33.767
        },
        "keyAccentLanguage": "amarwasi"
      },
      {
        "code": 0,
        "type": "City",
        "enNameLanguage": "Omugei",
        "location": {
          "lat": 2.15,
          "lng": 33.783
        },
        "keyAccentLanguage": "omugei"
      },
      {
        "code": 0,
        "type": "City",
        "enNameLanguage": "Akore",
        "location": {
          "lat": 1.967,
          "lng": 33.767
        },
        "keyAccentLanguage": "akore"
      },
      {
        "code": 0,
        "type": "City",
        "enNameLanguage": "Oriebai",
        "location": {
          "lat": 2.083,
          "lng": 33.45
        },
        "keyAccentLanguage": "oriebai"
      },
      {
        "code": 0,
        "type": "City",
        "enNameLanguage": "Okawo",
        "location": {
          "lat": 2.05,
          "lng": 33.517
        },
        "keyAccentLanguage": "okawo"
      },
      {
        "code": 0,
        "type": "City",
        "enNameLanguage": "Obwim",
        "location": {
          "lat": 2.35,
          "lng": 33.7
        },
        "keyAccentLanguage": "obwim"
      },
      {
        "code": 0,
        "type": "City",
        "enNameLanguage": "Ateusu",
        "location": {
          "lat": 2.117,
          "lng": 33.75
        },
        "keyAccentLanguage": "ateusu"
      },
      {
        "code": 0,
        "type": "City",
        "enNameLanguage": "Okutoi",
        "location": {
          "lat": 1.983,
          "lng": 33.6
        },
        "keyAccentLanguage": "okutoi"
      },
      {
        "code": 0,
        "type": "City",
        "enNameLanguage": "Ekoit",
        "location": {
          "lat": 2.367,
          "lng": 33.683
        },
        "keyAccentLanguage": "ekoit"
      },
      {
        "code": 0,
        "type": "City",
        "enNameLanguage": "Ayola",
        "location": {
          "lat": 2.05,
          "lng": 33.75
        },
        "keyAccentLanguage": "ayola"
      },
      {
        "code": 0,
        "type": "City",
        "enNameLanguage": "Achumet",
        "location": {
          "lat": 2.183,
          "lng": 33.733
        },
        "keyAccentLanguage": "achumet"
      },
      {
        "code": 0,
        "type": "City",
        "enNameLanguage": "Apeduru",
        "location": {
          "lat": 2.05,
          "lng": 33.433
        },
        "keyAccentLanguage": "apeduru"
      },
      {
        "code": 0,
        "type": "City",
        "enNameLanguage": "Angole",
        "location": {
          "lat": 1.833,
          "lng": 33.783
        },
        "keyAccentLanguage": "angole"
      },
      {
        "code": 0,
        "type": "City",
        "enNameLanguage": "Omyemya",
        "location": {
          "lat": 2.217,
          "lng": 33.75
        },
        "keyAccentLanguage": "omyemya"
      },
      {
        "code": 0,
        "type": "City",
        "enNameLanguage": "Nakulo",
        "location": {
          "lat": 2.167,
          "lng": 33.883
        },
        "keyAccentLanguage": "nakulo"
      },
      {
        "code": 0,
        "type": "City",
        "enNameLanguage": "Salami",
        "location": {
          "lat": 2.35,
          "lng": 33.55
        },
        "keyAccentLanguage": "salami"
      },
      {
        "code": 0,
        "type": "City",
        "enNameLanguage": "Adodoi",
        "location": {
          "lat": 2.4,
          "lng": 33.75
        },
        "keyAccentLanguage": "adodoi"
      },
      {
        "code": 0,
        "type": "City",
        "enNameLanguage": "Asamuk",
        "location": {
          "lat": 2.017,
          "lng": 33.667
        },
        "keyAccentLanguage": "asamuk"
      }
    ],
    "enNameLanguage": "Amuria",
    "keyAccentLanguage": "amuria"
  },
  {
    "code": 0,
    "type": "State",
    "location": {
      "lat": 2.9667878,
      "lng": 32.0837445
    },
    "districtList": [
      {
        "code": 0,
        "type": "City",
        "enNameLanguage": "Awer",
        "location": {
          "lat": 2.81,
          "lng": 32.191
        },
        "keyAccentLanguage": "awer"
      },
      {
        "code": 0,
        "type": "City",
        "enNameLanguage": "Paetho",
        "location": {
          "lat": 2.949,
          "lng": 32.154
        },
        "keyAccentLanguage": "paetho"
      },
      {
        "code": 0,
        "type": "City",
        "enNameLanguage": "Atiak",
        "location": {
          "lat": 3.261,
          "lng": 32.11
        },
        "keyAccentLanguage": "atiak"
      },
      {
        "code": 0,
        "type": "City",
        "enNameLanguage": "Lamogi",
        "location": {
          "lat": 2.833,
          "lng": 32.167
        },
        "keyAccentLanguage": "lamogi"
      },
      {
        "code": 0,
        "type": "City",
        "enNameLanguage": "Kilak",
        "location": {
          "lat": 2.839,
          "lng": 32.171
        },
        "keyAccentLanguage": "kilak"
      },
      {
        "code": 0,
        "type": "City",
        "enNameLanguage": "Pagak",
        "location": {
          "lat": 2.817,
          "lng": 32.15
        },
        "keyAccentLanguage": "pagak"
      },
      {
        "code": 0,
        "type": "City",
        "enNameLanguage": "Parabongo",
        "location": {
          "lat": 2.87,
          "lng": 32.181
        },
        "keyAccentLanguage": "parabongo"
      },
      {
        "code": 0,
        "type": "City",
        "enNameLanguage": "Pabo",
        "location": {
          "lat": 3,
          "lng": 32.15
        },
        "keyAccentLanguage": "pabo"
      }
    ],
    "enNameLanguage": "Amuru",
    "keyAccentLanguage": "amuru"
  },
  {
    "code": 0,
    "type": "State",
    "location": {
      "lat": 36.80057499999999,
      "lng": -95.905361
    },
    "districtList": [
      {
        "code": 0,
        "type": "City",
        "enNameLanguage": "Ayera",
        "location": {
          "lat": 1.817,
          "lng": 32.367
        },
        "keyAccentLanguage": "ayera"
      },
      {
        "code": 0,
        "type": "City",
        "enNameLanguage": "Alengo",
        "location": {
          "lat": 1.836,
          "lng": 32.351
        },
        "keyAccentLanguage": "alengo"
      },
      {
        "code": 0,
        "type": "City",
        "enNameLanguage": "Adok",
        "location": {
          "lat": 2.15,
          "lng": 32.55
        },
        "keyAccentLanguage": "adok"
      },
      {
        "code": 0,
        "type": "City",
        "enNameLanguage": "Aluga",
        "location": {
          "lat": 1.8,
          "lng": 32.417
        },
        "keyAccentLanguage": "aluga"
      },
      {
        "code": 0,
        "type": "City",
        "enNameLanguage": "Achaba",
        "location": {
          "lat": 1.867,
          "lng": 32.75
        },
        "keyAccentLanguage": "achaba"
      },
      {
        "code": 0,
        "type": "City",
        "enNameLanguage": "Achungi",
        "location": {
          "lat": 2,
          "lng": 32.817
        },
        "keyAccentLanguage": "achungi"
      },
      {
        "code": 0,
        "type": "City",
        "enNameLanguage": "Acenluoro",
        "location": {
          "lat": 1.817,
          "lng": 32.7
        },
        "keyAccentLanguage": "acenluoro"
      },
      {
        "code": 0,
        "type": "City",
        "enNameLanguage": "Atera",
        "location": {
          "lat": 1.7,
          "lng": 32.283
        },
        "keyAccentLanguage": "atera"
      },
      {
        "code": 0,
        "type": "City",
        "enNameLanguage": "Apac",
        "location": {
          "lat": 1.992,
          "lng": 32.527
        },
        "keyAccentLanguage": "apac"
      },
      {
        "code": 0,
        "type": "City",
        "enNameLanguage": "Akwon",
        "location": {
          "lat": 1.95,
          "lng": 32.733
        },
        "keyAccentLanguage": "akwon"
      },
      {
        "code": 0,
        "type": "City",
        "enNameLanguage": "Kidi Abuni",
        "location": {
          "lat": 1.933,
          "lng": 32.733
        },
        "keyAccentLanguage": "kidi_abuni"
      },
      {
        "code": 0,
        "type": "City",
        "enNameLanguage": "Ojaa",
        "location": {
          "lat": 1.85,
          "lng": 32.4
        },
        "keyAccentLanguage": "ojaa"
      },
      {
        "code": 0,
        "type": "City",
        "enNameLanguage": "Alworoceng",
        "location": {
          "lat": 1.983,
          "lng": 32.367
        },
        "keyAccentLanguage": "alworoceng"
      },
      {
        "code": 0,
        "type": "City",
        "enNameLanguage": "Amilo",
        "location": {
          "lat": 1.967,
          "lng": 32.45
        },
        "keyAccentLanguage": "amilo"
      },
      {
        "code": 0,
        "type": "City",
        "enNameLanguage": "Katop",
        "location": {
          "lat": 2.1,
          "lng": 32.767
        },
        "keyAccentLanguage": "katop"
      },
      {
        "code": 0,
        "type": "City",
        "enNameLanguage": "Ayumi",
        "location": {
          "lat": 1.867,
          "lng": 32.467
        },
        "keyAccentLanguage": "ayumi"
      },
      {
        "code": 0,
        "type": "City",
        "enNameLanguage": "Aketo",
        "location": {
          "lat": 1.867,
          "lng": 32.383
        },
        "keyAccentLanguage": "aketo"
      },
      {
        "code": 0,
        "type": "City",
        "enNameLanguage": "Amwanga",
        "location": {
          "lat": 1.917,
          "lng": 32.7
        },
        "keyAccentLanguage": "amwanga"
      },
      {
        "code": 0,
        "type": "City",
        "enNameLanguage": "Anwangi",
        "location": {
          "lat": 1.9,
          "lng": 32.75
        },
        "keyAccentLanguage": "anwangi"
      },
      {
        "code": 0,
        "type": "City",
        "enNameLanguage": "Teilwa",
        "location": {
          "lat": 1.9,
          "lng": 32.7
        },
        "keyAccentLanguage": "teilwa"
      },
      {
        "code": 0,
        "type": "City",
        "enNameLanguage": "Akokoro",
        "location": {
          "lat": 1.709,
          "lng": 32.385
        },
        "keyAccentLanguage": "akokoro"
      },
      {
        "code": 0,
        "type": "City",
        "enNameLanguage": "Agil",
        "location": {
          "lat": 2.05,
          "lng": 32.75
        },
        "keyAccentLanguage": "agil"
      },
      {
        "code": 0,
        "type": "City",
        "enNameLanguage": "Awei",
        "location": {
          "lat": 2,
          "lng": 32.783
        },
        "keyAccentLanguage": "awei"
      },
      {
        "code": 0,
        "type": "City",
        "enNameLanguage": "Cawente",
        "location": {
          "lat": 1.776,
          "lng": 32.661
        },
        "keyAccentLanguage": "cawente"
      },
      {
        "code": 0,
        "type": "City",
        "enNameLanguage": "Atumba",
        "location": {
          "lat": 1.883,
          "lng": 32.783
        },
        "keyAccentLanguage": "atumba"
      },
      {
        "code": 0,
        "type": "City",
        "enNameLanguage": "Alado",
        "location": {
          "lat": 1.883,
          "lng": 32.417
        },
        "keyAccentLanguage": "alado"
      },
      {
        "code": 0,
        "type": "City",
        "enNameLanguage": "Apoi",
        "location": {
          "lat": 1.733,
          "lng": 32.467
        },
        "keyAccentLanguage": "apoi"
      },
      {
        "code": 0,
        "type": "City",
        "enNameLanguage": "Abudama",
        "location": {
          "lat": 1.733,
          "lng": 32.15
        },
        "keyAccentLanguage": "abudama"
      },
      {
        "code": 0,
        "type": "City",
        "enNameLanguage": "Owiny",
        "location": {
          "lat": 1.933,
          "lng": 32.933
        },
        "keyAccentLanguage": "owiny"
      },
      {
        "code": 0,
        "type": "City",
        "enNameLanguage": "Ibuje",
        "location": {
          "lat": 1.906,
          "lng": 32.372
        },
        "keyAccentLanguage": "ibuje"
      },
      {
        "code": 0,
        "type": "City",
        "enNameLanguage": "Wansolo",
        "location": {
          "lat": 1.683,
          "lng": 32.5
        },
        "keyAccentLanguage": "wansolo"
      },
      {
        "code": 0,
        "type": "City",
        "enNameLanguage": "Ibung",
        "location": {
          "lat": 1.9,
          "lng": 32.833
        },
        "keyAccentLanguage": "ibung"
      },
      {
        "code": 0,
        "type": "City",
        "enNameLanguage": "Ochamayom",
        "location": {
          "lat": 1.983,
          "lng": 32.9
        },
        "keyAccentLanguage": "ochamayom"
      },
      {
        "code": 0,
        "type": "City",
        "enNameLanguage": "Chakali",
        "location": {
          "lat": 1.8,
          "lng": 32.317
        },
        "keyAccentLanguage": "chakali"
      },
      {
        "code": 0,
        "type": "City",
        "enNameLanguage": "Aminteng",
        "location": {
          "lat": 1.9,
          "lng": 32.533
        },
        "keyAccentLanguage": "aminteng"
      },
      {
        "code": 0,
        "type": "City",
        "enNameLanguage": "Acamanumu",
        "location": {
          "lat": 1.867,
          "lng": 32.7
        },
        "keyAccentLanguage": "acamanumu"
      },
      {
        "code": 0,
        "type": "City",
        "enNameLanguage": "Anyongo",
        "location": {
          "lat": 1.75,
          "lng": 32.367
        },
        "keyAccentLanguage": "anyongo"
      },
      {
        "code": 0,
        "type": "City",
        "enNameLanguage": "Kwibale",
        "location": {
          "lat": 1.667,
          "lng": 32.333
        },
        "keyAccentLanguage": "kwibale"
      },
      {
        "code": 0,
        "type": "City",
        "enNameLanguage": "Wigweng",
        "location": {
          "lat": 1.936,
          "lng": 32.7
        },
        "keyAccentLanguage": "wigweng"
      },
      {
        "code": 0,
        "type": "City",
        "enNameLanguage": "Teboke",
        "location": {
          "lat": 1.817,
          "lng": 32.3
        },
        "keyAccentLanguage": "teboke"
      },
      {
        "code": 0,
        "type": "City",
        "enNameLanguage": "Aganga",
        "location": {
          "lat": 1.768,
          "lng": 32.22
        },
        "keyAccentLanguage": "aganga"
      },
      {
        "code": 0,
        "type": "City",
        "enNameLanguage": "Abalkweri",
        "location": {
          "lat": 1.733,
          "lng": 32.4
        },
        "keyAccentLanguage": "abalkweri"
      },
      {
        "code": 0,
        "type": "City",
        "enNameLanguage": "Aduku",
        "location": {
          "lat": 2.006,
          "lng": 32.71
        },
        "keyAccentLanguage": "aduku"
      },
      {
        "code": 0,
        "type": "City",
        "enNameLanguage": "Emeng",
        "location": {
          "lat": 1.85,
          "lng": 32.55
        },
        "keyAccentLanguage": "emeng"
      },
      {
        "code": 0,
        "type": "City",
        "enNameLanguage": "Ngonyboke",
        "location": {
          "lat": 2.2,
          "lng": 32.583
        },
        "keyAccentLanguage": "ngonyboke"
      },
      {
        "code": 0,
        "type": "City",
        "enNameLanguage": "Olwit",
        "location": {
          "lat": 1.733,
          "lng": 32.4
        },
        "keyAccentLanguage": "olwit"
      },
      {
        "code": 0,
        "type": "City",
        "enNameLanguage": "Alomdyel",
        "location": {
          "lat": 1.733,
          "lng": 32.55
        },
        "keyAccentLanguage": "alomdyel"
      },
      {
        "code": 0,
        "type": "City",
        "enNameLanguage": "Amii",
        "location": {
          "lat": 1.923,
          "lng": 32.403
        },
        "keyAccentLanguage": "amii"
      },
      {
        "code": 0,
        "type": "City",
        "enNameLanguage": "Atopi",
        "location": {
          "lat": 1.967,
          "lng": 32.483
        },
        "keyAccentLanguage": "atopi"
      },
      {
        "code": 0,
        "type": "City",
        "enNameLanguage": "Agwiciri",
        "location": {
          "lat": 2.133,
          "lng": 32.75
        },
        "keyAccentLanguage": "agwiciri"
      },
      {
        "code": 0,
        "type": "City",
        "enNameLanguage": "Alebtong",
        "location": {
          "lat": 1.95,
          "lng": 32.45
        },
        "keyAccentLanguage": "alebtong"
      },
      {
        "code": 0,
        "type": "City",
        "enNameLanguage": "Iwal",
        "location": {
          "lat": 1.95,
          "lng": 32.667
        },
        "keyAccentLanguage": "iwal"
      },
      {
        "code": 0,
        "type": "City",
        "enNameLanguage": "Abutokom",
        "location": {
          "lat": 1.733,
          "lng": 32.333
        },
        "keyAccentLanguage": "abutokom"
      },
      {
        "code": 0,
        "type": "City",
        "enNameLanguage": "Alira",
        "location": {
          "lat": 2.033,
          "lng": 32.733
        },
        "keyAccentLanguage": "alira"
      },
      {
        "code": 0,
        "type": "City",
        "enNameLanguage": "Atana",
        "location": {
          "lat": 1.983,
          "lng": 32.633
        },
        "keyAccentLanguage": "atana"
      },
      {
        "code": 0,
        "type": "City",
        "enNameLanguage": "Alwala",
        "location": {
          "lat": 1.75,
          "lng": 32.15
        },
        "keyAccentLanguage": "alwala"
      },
      {
        "code": 0,
        "type": "City",
        "enNameLanguage": "Ayago",
        "location": {
          "lat": 1.817,
          "lng": 32.467
        },
        "keyAccentLanguage": "ayago"
      },
      {
        "code": 0,
        "type": "City",
        "enNameLanguage": "Ateka Ober",
        "location": {
          "lat": 1.933,
          "lng": 32.8
        },
        "keyAccentLanguage": "ateka_ober"
      },
      {
        "code": 0,
        "type": "City",
        "enNameLanguage": "Inomo",
        "location": {
          "lat": 2.067,
          "lng": 32.683
        },
        "keyAccentLanguage": "inomo"
      },
      {
        "code": 0,
        "type": "City",
        "enNameLanguage": "Arido",
        "location": {
          "lat": 1.833,
          "lng": 32.65
        },
        "keyAccentLanguage": "arido"
      },
      {
        "code": 0,
        "type": "City",
        "enNameLanguage": "Oding",
        "location": {
          "lat": 1.833,
          "lng": 32.3
        },
        "keyAccentLanguage": "oding"
      },
      {
        "code": 0,
        "type": "City",
        "enNameLanguage": "Apwori",
        "location": {
          "lat": 1.85,
          "lng": 32.733
        },
        "keyAccentLanguage": "apwori"
      },
      {
        "code": 0,
        "type": "City",
        "enNameLanguage": "Awila",
        "location": {
          "lat": 1.765,
          "lng": 32.374
        },
        "keyAccentLanguage": "awila"
      },
      {
        "code": 0,
        "type": "City",
        "enNameLanguage": "Itwara",
        "location": {
          "lat": 1.766,
          "lng": 32.181
        },
        "keyAccentLanguage": "itwara"
      },
      {
        "code": 0,
        "type": "City",
        "enNameLanguage": "Atuli",
        "location": {
          "lat": 1.7,
          "lng": 32.583
        },
        "keyAccentLanguage": "atuli"
      },
      {
        "code": 0,
        "type": "City",
        "enNameLanguage": "Butu",
        "location": {
          "lat": 1.967,
          "lng": 32.567
        },
        "keyAccentLanguage": "butu"
      },
      {
        "code": 0,
        "type": "City",
        "enNameLanguage": "Awir",
        "location": {
          "lat": 1.967,
          "lng": 32.65
        },
        "keyAccentLanguage": "awir"
      },
      {
        "code": 0,
        "type": "City",
        "enNameLanguage": "Ayabi",
        "location": {
          "lat": 1.883,
          "lng": 32.917
        },
        "keyAccentLanguage": "ayabi"
      },
      {
        "code": 0,
        "type": "City",
        "enNameLanguage": "Aminapoke",
        "location": {
          "lat": 1.95,
          "lng": 32.6
        },
        "keyAccentLanguage": "aminapoke"
      },
      {
        "code": 0,
        "type": "City",
        "enNameLanguage": "Atagi Apari",
        "location": {
          "lat": 1.967,
          "lng": 32.783
        },
        "keyAccentLanguage": "atagi_apari"
      },
      {
        "code": 0,
        "type": "City",
        "enNameLanguage": "Tarogali",
        "location": {
          "lat": 1.817,
          "lng": 32.333
        },
        "keyAccentLanguage": "tarogali"
      },
      {
        "code": 0,
        "type": "City",
        "enNameLanguage": "Palango",
        "location": {
          "lat": 1.9,
          "lng": 32.367
        },
        "keyAccentLanguage": "palango"
      },
      {
        "code": 0,
        "type": "City",
        "enNameLanguage": "Akar",
        "location": {
          "lat": 1.983,
          "lng": 32.6
        },
        "keyAccentLanguage": "akar"
      },
      {
        "code": 0,
        "type": "City",
        "enNameLanguage": "Maiyuge",
        "location": {
          "lat": 1.7,
          "lng": 32.1
        },
        "keyAccentLanguage": "maiyuge"
      },
      {
        "code": 0,
        "type": "City",
        "enNameLanguage": "Chegere",
        "location": {
          "lat": 2.083,
          "lng": 32.503
        },
        "keyAccentLanguage": "chegere"
      },
      {
        "code": 0,
        "type": "City",
        "enNameLanguage": "Katik",
        "location": {
          "lat": 2.117,
          "lng": 32.767
        },
        "keyAccentLanguage": "katik"
      },
      {
        "code": 0,
        "type": "City",
        "enNameLanguage": "Poke",
        "location": {
          "lat": 1.95,
          "lng": 32.55
        },
        "keyAccentLanguage": "poke"
      },
      {
        "code": 0,
        "type": "City",
        "enNameLanguage": "Abuli",
        "location": {
          "lat": 1.9,
          "lng": 32.867
        },
        "keyAccentLanguage": "abuli"
      },
      {
        "code": 0,
        "type": "City",
        "enNameLanguage": "Ajar",
        "location": {
          "lat": 1.85,
          "lng": 32.562
        },
        "keyAccentLanguage": "ajar"
      },
      {
        "code": 0,
        "type": "City",
        "enNameLanguage": "Kungo",
        "location": {
          "lat": 1.7,
          "lng": 32.15
        },
        "keyAccentLanguage": "kungo"
      },
      {
        "code": 0,
        "type": "City",
        "enNameLanguage": "Olelpek",
        "location": {
          "lat": 1.866,
          "lng": 32.551
        },
        "keyAccentLanguage": "olelpek"
      },
      {
        "code": 0,
        "type": "City",
        "enNameLanguage": "Ayiroyat",
        "location": {
          "lat": 1.933,
          "lng": 32.867
        },
        "keyAccentLanguage": "ayiroyat"
      },
      {
        "code": 0,
        "type": "City",
        "enNameLanguage": "Nyaraolum",
        "location": {
          "lat": 1.75,
          "lng": 32.2
        },
        "keyAccentLanguage": "nyaraolum"
      },
      {
        "code": 0,
        "type": "City",
        "enNameLanguage": "Awilodyang",
        "location": {
          "lat": 1.783,
          "lng": 32.467
        },
        "keyAccentLanguage": "awilodyang"
      },
      {
        "code": 0,
        "type": "City",
        "enNameLanguage": "Apoleka",
        "location": {
          "lat": 1.83,
          "lng": 32.627
        },
        "keyAccentLanguage": "apoleka"
      },
      {
        "code": 0,
        "type": "City",
        "enNameLanguage": "Kidilande",
        "location": {
          "lat": 2.041,
          "lng": 32.393
        },
        "keyAccentLanguage": "kidilande"
      },
      {
        "code": 0,
        "type": "City",
        "enNameLanguage": "Ogwil",
        "location": {
          "lat": 1.833,
          "lng": 32.9
        },
        "keyAccentLanguage": "ogwil"
      },
      {
        "code": 0,
        "type": "City",
        "enNameLanguage": "Puno Atar",
        "location": {
          "lat": 1.933,
          "lng": 32.9
        },
        "keyAccentLanguage": "puno_atar"
      },
      {
        "code": 0,
        "type": "City",
        "enNameLanguage": "Omwono",
        "location": {
          "lat": 1.95,
          "lng": 32.833
        },
        "keyAccentLanguage": "omwono"
      },
      {
        "code": 0,
        "type": "City",
        "enNameLanguage": "Nabyeso",
        "location": {
          "lat": 1.866,
          "lng": 32.785
        },
        "keyAccentLanguage": "nabyeso"
      },
      {
        "code": 0,
        "type": "City",
        "enNameLanguage": "Agwengere",
        "location": {
          "lat": 1.917,
          "lng": 32.817
        },
        "keyAccentLanguage": "agwengere"
      },
      {
        "code": 0,
        "type": "City",
        "enNameLanguage": "Atera",
        "location": {
          "lat": 1.7,
          "lng": 32.283
        },
        "keyAccentLanguage": "atera"
      }
    ],
    "enNameLanguage": "Apac",
    "keyAccentLanguage": "apac"
  },
  {
    "code": 0,
    "type": "State",
    "location": {
      "lat": 3.0303299,
      "lng": 30.907304
    },
    "districtList": [
      {
        "code": 0,
        "type": "City",
        "enNameLanguage": "Adra",
        "location": {
          "lat": 2.6,
          "lng": 31.067
        },
        "keyAccentLanguage": "adra"
      },
      {
        "code": 0,
        "type": "City",
        "enNameLanguage": "Aliba",
        "location": {
          "lat": 3.117,
          "lng": 30.9
        },
        "keyAccentLanguage": "aliba"
      },
      {
        "code": 0,
        "type": "City",
        "enNameLanguage": "Ajono",
        "location": {
          "lat": 2.967,
          "lng": 30.867
        },
        "keyAccentLanguage": "ajono"
      },
      {
        "code": 0,
        "type": "City",
        "enNameLanguage": "Alube",
        "location": {
          "lat": 2.667,
          "lng": 30.833
        },
        "keyAccentLanguage": "alube"
      },
      {
        "code": 0,
        "type": "City",
        "enNameLanguage": "Alijoda",
        "location": {
          "lat": 2.892,
          "lng": 31.153
        },
        "keyAccentLanguage": "alijoda"
      },
      {
        "code": 0,
        "type": "City",
        "enNameLanguage": "Ajia",
        "location": {
          "lat": 2.918,
          "lng": 31.034
        },
        "keyAccentLanguage": "ajia"
      },
      {
        "code": 0,
        "type": "City",
        "enNameLanguage": "Awika",
        "location": {
          "lat": 2.85,
          "lng": 30.983
        },
        "keyAccentLanguage": "awika"
      },
      {
        "code": 0,
        "type": "City",
        "enNameLanguage": "Nyaute",
        "location": {
          "lat": 3.117,
          "lng": 30.85
        },
        "keyAccentLanguage": "nyaute"
      },
      {
        "code": 0,
        "type": "City",
        "enNameLanguage": "Bondo",
        "location": {
          "lat": 2.823,
          "lng": 31.013
        },
        "keyAccentLanguage": "bondo"
      },
      {
        "code": 0,
        "type": "City",
        "enNameLanguage": "Anyavu",
        "location": {
          "lat": 2.683,
          "lng": 30.867
        },
        "keyAccentLanguage": "anyavu"
      },
      {
        "code": 0,
        "type": "City",
        "enNameLanguage": "Degiya",
        "location": {
          "lat": 2.9,
          "lng": 31.333
        },
        "keyAccentLanguage": "degiya"
      },
      {
        "code": 0,
        "type": "City",
        "enNameLanguage": "Abi",
        "location": {
          "lat": 3.083,
          "lng": 30.95
        },
        "keyAccentLanguage": "abi"
      },
      {
        "code": 0,
        "type": "City",
        "enNameLanguage": "Baribu",
        "location": {
          "lat": 2.7,
          "lng": 31.15
        },
        "keyAccentLanguage": "baribu"
      },
      {
        "code": 0,
        "type": "City",
        "enNameLanguage": "Alengbelo",
        "location": {
          "lat": 2.617,
          "lng": 31.133
        },
        "keyAccentLanguage": "alengbelo"
      },
      {
        "code": 0,
        "type": "City",
        "enNameLanguage": "Curu",
        "location": {
          "lat": 3.033,
          "lng": 31.2
        },
        "keyAccentLanguage": "curu"
      },
      {
        "code": 0,
        "type": "City",
        "enNameLanguage": "Adumi",
        "location": {
          "lat": 3.05,
          "lng": 30.817
        },
        "keyAccentLanguage": "adumi"
      },
      {
        "code": 0,
        "type": "City",
        "enNameLanguage": "Kulekule",
        "location": {
          "lat": 3.033,
          "lng": 31.183
        },
        "keyAccentLanguage": "kulekule"
      },
      {
        "code": 0,
        "type": "City",
        "enNameLanguage": "Arivu",
        "location": {
          "lat": 2.899,
          "lng": 30.988
        },
        "keyAccentLanguage": "arivu"
      },
      {
        "code": 0,
        "type": "City",
        "enNameLanguage": "Iramva",
        "location": {
          "lat": 2.983,
          "lng": 31.367
        },
        "keyAccentLanguage": "iramva"
      },
      {
        "code": 0,
        "type": "City",
        "enNameLanguage": "Alibu",
        "location": {
          "lat": 2.717,
          "lng": 31.067
        },
        "keyAccentLanguage": "alibu"
      },
      {
        "code": 0,
        "type": "City",
        "enNameLanguage": "Abia",
        "location": {
          "lat": 3.083,
          "lng": 30.817
        },
        "keyAccentLanguage": "abia"
      },
      {
        "code": 0,
        "type": "City",
        "enNameLanguage": "Kawu",
        "location": {
          "lat": 2.667,
          "lng": 31.117
        },
        "keyAccentLanguage": "kawu"
      },
      {
        "code": 0,
        "type": "City",
        "enNameLanguage": "Oleko",
        "location": {
          "lat": 3.067,
          "lng": 30.983
        },
        "keyAccentLanguage": "oleko"
      },
      {
        "code": 0,
        "type": "City",
        "enNameLanguage": "Andruvu",
        "location": {
          "lat": 3.033,
          "lng": 30.917
        },
        "keyAccentLanguage": "andruvu"
      },
      {
        "code": 0,
        "type": "City",
        "enNameLanguage": "Ayavu",
        "location": {
          "lat": 2.9,
          "lng": 31.2
        },
        "keyAccentLanguage": "ayavu"
      },
      {
        "code": 0,
        "type": "City",
        "enNameLanguage": "Pokia",
        "location": {
          "lat": 3,
          "lng": 30.883
        },
        "keyAccentLanguage": "pokia"
      },
      {
        "code": 0,
        "type": "City",
        "enNameLanguage": "Mite",
        "location": {
          "lat": 3.033,
          "lng": 30.783
        },
        "keyAccentLanguage": "mite"
      },
      {
        "code": 0,
        "type": "City",
        "enNameLanguage": "Gurumu",
        "location": {
          "lat": 2.967,
          "lng": 31.35
        },
        "keyAccentLanguage": "gurumu"
      },
      {
        "code": 0,
        "type": "City",
        "enNameLanguage": "Anyiribu",
        "location": {
          "lat": 2.567,
          "lng": 31.1
        },
        "keyAccentLanguage": "anyiribu"
      },
      {
        "code": 0,
        "type": "City",
        "enNameLanguage": "Giligili",
        "location": {
          "lat": 2.65,
          "lng": 31.017
        },
        "keyAccentLanguage": "giligili"
      },
      {
        "code": 0,
        "type": "City",
        "enNameLanguage": "Ogoko",
        "location": {
          "lat": 2.9,
          "lng": 31.217
        },
        "keyAccentLanguage": "ogoko"
      },
      {
        "code": 0,
        "type": "City",
        "enNameLanguage": "Michu",
        "location": {
          "lat": 3.117,
          "lng": 30.867
        },
        "keyAccentLanguage": "michu"
      },
      {
        "code": 0,
        "type": "City",
        "enNameLanguage": "Abario",
        "location": {
          "lat": 2.95,
          "lng": 31.383
        },
        "keyAccentLanguage": "abario"
      },
      {
        "code": 0,
        "type": "City",
        "enNameLanguage": "Onari",
        "location": {
          "lat": 3.017,
          "lng": 31.417
        },
        "keyAccentLanguage": "onari"
      },
      {
        "code": 0,
        "type": "City",
        "enNameLanguage": "Uleppi",
        "location": {
          "lat": 2.777,
          "lng": 31.027
        },
        "keyAccentLanguage": "uleppi"
      },
      {
        "code": 0,
        "type": "City",
        "enNameLanguage": "Anya",
        "location": {
          "lat": 2.733,
          "lng": 31.067
        },
        "keyAccentLanguage": "anya"
      },
      {
        "code": 0,
        "type": "City",
        "enNameLanguage": "Mbaraka",
        "location": {
          "lat": 3.067,
          "lng": 30.8
        },
        "keyAccentLanguage": "mbaraka"
      },
      {
        "code": 0,
        "type": "City",
        "enNameLanguage": "Oyu",
        "location": {
          "lat": 2.983,
          "lng": 31.35
        },
        "keyAccentLanguage": "oyu"
      },
      {
        "code": 0,
        "type": "City",
        "enNameLanguage": "Paraka",
        "location": {
          "lat": 3.053,
          "lng": 30.922
        },
        "keyAccentLanguage": "paraka"
      },
      {
        "code": 0,
        "type": "City",
        "enNameLanguage": "Mingoro",
        "location": {
          "lat": 3.1,
          "lng": 30.817
        },
        "keyAccentLanguage": "mingoro"
      },
      {
        "code": 0,
        "type": "City",
        "enNameLanguage": "Bulukatoni",
        "location": {
          "lat": 3.017,
          "lng": 31.233
        },
        "keyAccentLanguage": "bulukatoni"
      },
      {
        "code": 0,
        "type": "City",
        "enNameLanguage": "Kijoro",
        "location": {
          "lat": 3.117,
          "lng": 30.8
        },
        "keyAccentLanguage": "kijoro"
      },
      {
        "code": 0,
        "type": "City",
        "enNameLanguage": "Ipife",
        "location": {
          "lat": 2.85,
          "lng": 31.267
        },
        "keyAccentLanguage": "ipife"
      },
      {
        "code": 0,
        "type": "City",
        "enNameLanguage": "Goromi",
        "location": {
          "lat": 2.7,
          "lng": 31.033
        },
        "keyAccentLanguage": "goromi"
      },
      {
        "code": 0,
        "type": "City",
        "enNameLanguage": "Pamvara",
        "location": {
          "lat": 2.983,
          "lng": 31.333
        },
        "keyAccentLanguage": "pamvara"
      },
      {
        "code": 0,
        "type": "City",
        "enNameLanguage": "Auwara",
        "location": {
          "lat": 2.7,
          "lng": 30.883
        },
        "keyAccentLanguage": "auwara"
      },
      {
        "code": 0,
        "type": "City",
        "enNameLanguage": "Kulu",
        "location": {
          "lat": 2.833,
          "lng": 30.9
        },
        "keyAccentLanguage": "kulu"
      },
      {
        "code": 0,
        "type": "City",
        "enNameLanguage": "Utrutru",
        "location": {
          "lat": 2.81,
          "lng": 31.208
        },
        "keyAccentLanguage": "utrutru"
      },
      {
        "code": 0,
        "type": "City",
        "enNameLanguage": "Logiri",
        "location": {
          "lat": 2.767,
          "lng": 30.85
        },
        "keyAccentLanguage": "logiri"
      },
      {
        "code": 0,
        "type": "City",
        "enNameLanguage": "Ewadri",
        "location": {
          "lat": 3.1,
          "lng": 30.95
        },
        "keyAccentLanguage": "ewadri"
      },
      {
        "code": 0,
        "type": "City",
        "enNameLanguage": "Odoi",
        "location": {
          "lat": 3.033,
          "lng": 31.417
        },
        "keyAccentLanguage": "odoi"
      },
      {
        "code": 0,
        "type": "City",
        "enNameLanguage": "Kuluva",
        "location": {
          "lat": 2.95,
          "lng": 30.933
        },
        "keyAccentLanguage": "kuluva"
      },
      {
        "code": 0,
        "type": "City",
        "enNameLanguage": "Nyio",
        "location": {
          "lat": 3.033,
          "lng": 30.833
        },
        "keyAccentLanguage": "nyio"
      },
      {
        "code": 0,
        "type": "City",
        "enNameLanguage": "Ayivu",
        "location": {
          "lat": 3.062,
          "lng": 30.944
        },
        "keyAccentLanguage": "ayivu"
      },
      {
        "code": 0,
        "type": "City",
        "enNameLanguage": "Odro",
        "location": {
          "lat": 2.867,
          "lng": 30.9
        },
        "keyAccentLanguage": "odro"
      },
      {
        "code": 0,
        "type": "City",
        "enNameLanguage": "Ochebu",
        "location": {
          "lat": 2.7,
          "lng": 31.033
        },
        "keyAccentLanguage": "ochebu"
      },
      {
        "code": 0,
        "type": "City",
        "enNameLanguage": "Oreko",
        "location": {
          "lat": 3.067,
          "lng": 30.917
        },
        "keyAccentLanguage": "oreko"
      },
      {
        "code": 0,
        "type": "City",
        "enNameLanguage": "Opa",
        "location": {
          "lat": 2.717,
          "lng": 31.083
        },
        "keyAccentLanguage": "opa"
      },
      {
        "code": 0,
        "type": "City",
        "enNameLanguage": "Lokiragodo",
        "location": {
          "lat": 3.117,
          "lng": 30.883
        },
        "keyAccentLanguage": "lokiragodo"
      },
      {
        "code": 0,
        "type": "City",
        "enNameLanguage": "Pajulu",
        "location": {
          "lat": 3.017,
          "lng": 30.85
        },
        "keyAccentLanguage": "pajulu"
      },
      {
        "code": 0,
        "type": "City",
        "enNameLanguage": "Rhino Camp",
        "location": {
          "lat": 2.976,
          "lng": 31.384
        },
        "keyAccentLanguage": "rhino_camp"
      },
      {
        "code": 0,
        "type": "City",
        "enNameLanguage": "Ndriba",
        "location": {
          "lat": 2.683,
          "lng": 31.033
        },
        "keyAccentLanguage": "ndriba"
      },
      {
        "code": 0,
        "type": "City",
        "enNameLanguage": "Asasi",
        "location": {
          "lat": 2.717,
          "lng": 30.833
        },
        "keyAccentLanguage": "asasi"
      },
      {
        "code": 0,
        "type": "City",
        "enNameLanguage": "Nyiovura",
        "location": {
          "lat": 3.017,
          "lng": 30.833
        },
        "keyAccentLanguage": "nyiovura"
      },
      {
        "code": 0,
        "type": "City",
        "enNameLanguage": "Pawor",
        "location": {
          "lat": 2.823,
          "lng": 31.317
        },
        "keyAccentLanguage": "pawor"
      },
      {
        "code": 0,
        "type": "City",
        "enNameLanguage": "Oribu",
        "location": {
          "lat": 2.733,
          "lng": 31.033
        },
        "keyAccentLanguage": "oribu"
      },
      {
        "code": 0,
        "type": "City",
        "enNameLanguage": "Olejova",
        "location": {
          "lat": 3,
          "lng": 31.283
        },
        "keyAccentLanguage": "olejova"
      },
      {
        "code": 0,
        "type": "City",
        "enNameLanguage": "Panduru",
        "location": {
          "lat": 3.05,
          "lng": 30.8
        },
        "keyAccentLanguage": "panduru"
      },
      {
        "code": 0,
        "type": "City",
        "enNameLanguage": "Lazebu",
        "location": {
          "lat": 2.717,
          "lng": 30.917
        },
        "keyAccentLanguage": "lazebu"
      },
      {
        "code": 0,
        "type": "City",
        "enNameLanguage": "Arua",
        "location": {
          "lat": 3.024,
          "lng": 30.899
        },
        "keyAccentLanguage": "arua"
      },
      {
        "code": 0,
        "type": "City",
        "enNameLanguage": "Yole",
        "location": {
          "lat": 3.083,
          "lng": 30.95
        },
        "keyAccentLanguage": "yole"
      },
      {
        "code": 0,
        "type": "City",
        "enNameLanguage": "Uzu",
        "location": {
          "lat": 3.05,
          "lng": 30.85
        },
        "keyAccentLanguage": "uzu"
      },
      {
        "code": 0,
        "type": "City",
        "enNameLanguage": "Olevu",
        "location": {
          "lat": 2.917,
          "lng": 31.067
        },
        "keyAccentLanguage": "olevu"
      },
      {
        "code": 0,
        "type": "City",
        "enNameLanguage": "Eba",
        "location": {
          "lat": 2.767,
          "lng": 31.033
        },
        "keyAccentLanguage": "eba"
      },
      {
        "code": 0,
        "type": "City",
        "enNameLanguage": "Etori",
        "location": {
          "lat": 3,
          "lng": 30.833
        },
        "keyAccentLanguage": "etori"
      },
      {
        "code": 0,
        "type": "City",
        "enNameLanguage": "Inde",
        "location": {
          "lat": 2.883,
          "lng": 31.225
        },
        "keyAccentLanguage": "inde"
      },
      {
        "code": 0,
        "type": "City",
        "enNameLanguage": "Rigbo",
        "location": {
          "lat": 3.05,
          "lng": 31.417
        },
        "keyAccentLanguage": "rigbo"
      },
      {
        "code": 0,
        "type": "City",
        "enNameLanguage": "Edrivu",
        "location": {
          "lat": 2.7,
          "lng": 30.867
        },
        "keyAccentLanguage": "edrivu"
      },
      {
        "code": 0,
        "type": "City",
        "enNameLanguage": "Okomi",
        "location": {
          "lat": 2.75,
          "lng": 31.067
        },
        "keyAccentLanguage": "okomi"
      },
      {
        "code": 0,
        "type": "City",
        "enNameLanguage": "Imvenga",
        "location": {
          "lat": 3.1,
          "lng": 31.45
        },
        "keyAccentLanguage": "imvenga"
      },
      {
        "code": 0,
        "type": "City",
        "enNameLanguage": "Uluko",
        "location": {
          "lat": 3.017,
          "lng": 30.967
        },
        "keyAccentLanguage": "uluko"
      },
      {
        "code": 0,
        "type": "City",
        "enNameLanguage": "Vurra",
        "location": {
          "lat": 2.908,
          "lng": 30.877
        },
        "keyAccentLanguage": "vurra"
      },
      {
        "code": 0,
        "type": "City",
        "enNameLanguage": "Waka",
        "location": {
          "lat": 3.117,
          "lng": 31.433
        },
        "keyAccentLanguage": "waka"
      },
      {
        "code": 0,
        "type": "City",
        "enNameLanguage": "Okollo",
        "location": {
          "lat": 2.677,
          "lng": 31.136
        },
        "keyAccentLanguage": "okollo"
      },
      {
        "code": 0,
        "type": "City",
        "enNameLanguage": "Moni",
        "location": {
          "lat": 3,
          "lng": 30.933
        },
        "keyAccentLanguage": "moni"
      },
      {
        "code": 0,
        "type": "City",
        "enNameLanguage": "Oliavu",
        "location": {
          "lat": 2.783,
          "lng": 31.35
        },
        "keyAccentLanguage": "oliavu"
      },
      {
        "code": 0,
        "type": "City",
        "enNameLanguage": "Ala",
        "location": {
          "lat": 2.917,
          "lng": 31.35
        },
        "keyAccentLanguage": "ala"
      },
      {
        "code": 0,
        "type": "City",
        "enNameLanguage": "Agbo",
        "location": {
          "lat": 3.054,
          "lng": 31.418
        },
        "keyAccentLanguage": "agbo"
      },
      {
        "code": 0,
        "type": "City",
        "enNameLanguage": "Goli",
        "location": {
          "lat": 2.7,
          "lng": 31.1
        },
        "keyAccentLanguage": "goli"
      },
      {
        "code": 0,
        "type": "City",
        "enNameLanguage": "Ombachi",
        "location": {
          "lat": 3.067,
          "lng": 30.933
        },
        "keyAccentLanguage": "ombachi"
      },
      {
        "code": 0,
        "type": "City",
        "enNameLanguage": "Eruba",
        "location": {
          "lat": 2.96,
          "lng": 30.909
        },
        "keyAccentLanguage": "eruba"
      },
      {
        "code": 0,
        "type": "City",
        "enNameLanguage": "Kaligo",
        "location": {
          "lat": 3.033,
          "lng": 31.4
        },
        "keyAccentLanguage": "kaligo"
      },
      {
        "code": 0,
        "type": "City",
        "enNameLanguage": "Alenzu",
        "location": {
          "lat": 2.717,
          "lng": 30.933
        },
        "keyAccentLanguage": "alenzu"
      },
      {
        "code": 0,
        "type": "City",
        "enNameLanguage": "Offaka",
        "location": {
          "lat": 2.622,
          "lng": 31.048
        },
        "keyAccentLanguage": "offaka"
      },
      {
        "code": 0,
        "type": "City",
        "enNameLanguage": "Wiria",
        "location": {
          "lat": 3.05,
          "lng": 31.433
        },
        "keyAccentLanguage": "wiria"
      },
      {
        "code": 0,
        "type": "City",
        "enNameLanguage": "Fundu",
        "location": {
          "lat": 3.067,
          "lng": 31.45
        },
        "keyAccentLanguage": "fundu"
      }
    ],
    "enNameLanguage": "Arua",
    "keyAccentLanguage": "arua"
  },
  {
    "code": 0,
    "type": "State",
    "location": {
      "lat": 1.0155122,
      "lng": 33.9499154
    },
    "districtList": [
      {
        "code": 0,
        "type": "City",
        "enNameLanguage": "Iki Iki",
        "location": {
          "lat": 1.084,
          "lng": 34.013
        },
        "keyAccentLanguage": "iki_iki"
      },
      {
        "code": 0,
        "type": "City",
        "enNameLanguage": "Nansanga",
        "location": {
          "lat": 0.983,
          "lng": 33.9
        },
        "keyAccentLanguage": "nansanga"
      },
      {
        "code": 0,
        "type": "City",
        "enNameLanguage": "Budaka",
        "location": {
          "lat": 1.016,
          "lng": 33.918
        },
        "keyAccentLanguage": "budaka"
      },
      {
        "code": 0,
        "type": "City",
        "enNameLanguage": "Kabuna",
        "location": {
          "lat": 1.083,
          "lng": 33.983
        },
        "keyAccentLanguage": "kabuna"
      },
      {
        "code": 0,
        "type": "City",
        "enNameLanguage": "Kabwangasi",
        "location": {
          "lat": 1.12,
          "lng": 34.106
        },
        "keyAccentLanguage": "kabwangasi"
      },
      {
        "code": 0,
        "type": "City",
        "enNameLanguage": "Kaderuna",
        "location": {
          "lat": 1.1,
          "lng": 33.95
        },
        "keyAccentLanguage": "kaderuna"
      },
      {
        "code": 0,
        "type": "City",
        "enNameLanguage": "Naboa",
        "location": {
          "lat": 1.048,
          "lng": 34.011
        },
        "keyAccentLanguage": "naboa"
      },
      {
        "code": 0,
        "type": "City",
        "enNameLanguage": "Nabweyo",
        "location": {
          "lat": 1.017,
          "lng": 33.933
        },
        "keyAccentLanguage": "nabweyo"
      },
      {
        "code": 0,
        "type": "City",
        "enNameLanguage": "Tademeri",
        "location": {
          "lat": 0.99,
          "lng": 33.97
        },
        "keyAccentLanguage": "tademeri"
      },
      {
        "code": 0,
        "type": "City",
        "enNameLanguage": "Irabi",
        "location": {
          "lat": 0.967,
          "lng": 33.95
        },
        "keyAccentLanguage": "irabi"
      },
      {
        "code": 0,
        "type": "City",
        "enNameLanguage": "Natoto",
        "location": {
          "lat": 1.15,
          "lng": 33.967
        },
        "keyAccentLanguage": "natoto"
      },
      {
        "code": 0,
        "type": "City",
        "enNameLanguage": "Kamonkoli",
        "location": {
          "lat": 1.071,
          "lng": 34.103
        },
        "keyAccentLanguage": "kamonkoli"
      },
      {
        "code": 0,
        "type": "City",
        "enNameLanguage": "Nabugalo",
        "location": {
          "lat": 1.133,
          "lng": 33.983
        },
        "keyAccentLanguage": "nabugalo"
      },
      {
        "code": 0,
        "type": "City",
        "enNameLanguage": "Kosti",
        "location": {
          "lat": 1.1,
          "lng": 34.067
        },
        "keyAccentLanguage": "kosti"
      },
      {
        "code": 0,
        "type": "City",
        "enNameLanguage": "Suni",
        "location": {
          "lat": 0.95,
          "lng": 33.9
        },
        "keyAccentLanguage": "suni"
      }
    ],
    "enNameLanguage": "Budaka",
    "keyAccentLanguage": "budaka"
  },
  {
    "code": 0,
    "type": "State",
    "location": {
      "lat": 1.0029693,
      "lng": 34.3338123
    },
    "districtList": [
      {
        "code": 0,
        "type": "City",
        "enNameLanguage": "Bulucheke",
        "location": {
          "lat": 1.033,
          "lng": 34.383
        },
        "keyAccentLanguage": "bulucheke"
      },
      {
        "code": 0,
        "type": "City",
        "enNameLanguage": "Bukigai",
        "location": {
          "lat": 1.003,
          "lng": 34.349
        },
        "keyAccentLanguage": "bukigai"
      },
      {
        "code": 0,
        "type": "City",
        "enNameLanguage": "Bududa",
        "location": {
          "lat": 1.004,
          "lng": 34.334
        },
        "keyAccentLanguage": "bududa"
      },
      {
        "code": 0,
        "type": "City",
        "enNameLanguage": "Bukalasi",
        "location": {
          "lat": 1.005,
          "lng": 34.401
        },
        "keyAccentLanguage": "bukalasi"
      },
      {
        "code": 0,
        "type": "City",
        "enNameLanguage": "Bukiga",
        "location": {
          "lat": 1.05,
          "lng": 34.333
        },
        "keyAccentLanguage": "bukiga"
      }
    ],
    "enNameLanguage": "Bududa",
    "keyAccentLanguage": "bududa"
  },
  {
    "code": 0,
    "type": "State",
    "location": {
      "lat": 0.5671364999999999,
      "lng": 33.7461847
    },
    "districtList": [
      {
        "code": 0,
        "type": "City",
        "enNameLanguage": "Butema",
        "location": {
          "lat": 0.55,
          "lng": 33.9
        },
        "keyAccentLanguage": "butema"
      },
      {
        "code": 0,
        "type": "City",
        "enNameLanguage": "Iwemba",
        "location": {
          "lat": 0.604,
          "lng": 33.811
        },
        "keyAccentLanguage": "iwemba"
      },
      {
        "code": 0,
        "type": "City",
        "enNameLanguage": "Bugiri",
        "location": {
          "lat": 0.579,
          "lng": 33.738
        },
        "keyAccentLanguage": "bugiri"
      },
      {
        "code": 0,
        "type": "City",
        "enNameLanguage": "Nabukalu",
        "location": {
          "lat": 0.649,
          "lng": 33.729
        },
        "keyAccentLanguage": "nabukalu"
      },
      {
        "code": 0,
        "type": "City",
        "enNameLanguage": "Bubohi",
        "location": {
          "lat": 0.583,
          "lng": 33.933
        },
        "keyAccentLanguage": "bubohi"
      },
      {
        "code": 0,
        "type": "City",
        "enNameLanguage": "Bugalama",
        "location": {
          "lat": 0.567,
          "lng": 33.95
        },
        "keyAccentLanguage": "bugalama"
      },
      {
        "code": 0,
        "type": "City",
        "enNameLanguage": "Bulugui",
        "location": {
          "lat": 0.582,
          "lng": 33.891
        },
        "keyAccentLanguage": "bulugui"
      },
      {
        "code": 0,
        "type": "City",
        "enNameLanguage": "Kyabakaire",
        "location": {
          "lat": 0.7,
          "lng": 33.767
        },
        "keyAccentLanguage": "kyabakaire"
      },
      {
        "code": 0,
        "type": "City",
        "enNameLanguage": "Kiruna",
        "location": {
          "lat": 0.35,
          "lng": 33.733
        },
        "keyAccentLanguage": "kiruna"
      },
      {
        "code": 0,
        "type": "City",
        "enNameLanguage": "Buwayo",
        "location": {
          "lat": 0.546,
          "lng": 33.9
        },
        "keyAccentLanguage": "buwayo"
      },
      {
        "code": 0,
        "type": "City",
        "enNameLanguage": "Bumwangu",
        "location": {
          "lat": 0.35,
          "lng": 33.8
        },
        "keyAccentLanguage": "bumwangu"
      },
      {
        "code": 0,
        "type": "City",
        "enNameLanguage": "Bugubo",
        "location": {
          "lat": 0.55,
          "lng": 33.8
        },
        "keyAccentLanguage": "bugubo"
      },
      {
        "code": 0,
        "type": "City",
        "enNameLanguage": "Busowa",
        "location": {
          "lat": 0.597,
          "lng": 33.696
        },
        "keyAccentLanguage": "busowa"
      },
      {
        "code": 0,
        "type": "City",
        "enNameLanguage": "Nabakono",
        "location": {
          "lat": 0.5,
          "lng": 33.7
        },
        "keyAccentLanguage": "nabakono"
      },