[
  {
    "code": 0,
    "type": "State",
    "location": {
      "lat": 17.7245968,
      "lng": -64.83479919999999
    },
    "districtList": [
      {
        "code": 0,
        "type": "City",
        "enNameLanguage": "Fountain",
        "location": {
          "lat": 17.7245968,
          "lng": -64.83479919999999
        },
        "keyAccentLanguage": "fountain"
      },
      {
        "code": 0,
        "type": "City",
        "enNameLanguage": "Blessing",
        "location": {
          "lat": 17.7245968,
          "lng": -64.83479919999999
        },
        "keyAccentLanguage": "blessing"
      },
      {
        "code": 0,
        "type": "City",
        "enNameLanguage": "Hope",
        "location": {
          "lat": 17.7245968,
          "lng": -64.83479919999999
        },
        "keyAccentLanguage": "hope"
      },
      {
        "code": 0,
        "type": "City",
        "enNameLanguage": "Altona",
        "location": {
          "lat": 17.7245968,
          "lng": -64.83479919999999
        },
        "keyAccentLanguage": "altona"
      },
      {
        "code": 0,
        "type": "City",
        "enNameLanguage": "Bodkin",
        "location": {
          "lat": 17.7245968,
          "lng": -64.83479919999999
        },
        "keyAccentLanguage": "bodkin"
      },
      {
        "code": 0,
        "type": "City",
        "enNameLanguage": "Belvedere",
        "location": {
          "lat": 17.7245968,
          "lng": -64.83479919999999
        },
        "keyAccentLanguage": "belvedere"
      },
      {
        "code": 0,
        "type": "City",
        "enNameLanguage": "Carlton",
        "location": {
          "lat": 17.7245968,
          "lng": -64.83479919999999
        },
        "keyAccentLanguage": "carlton"
      },
      {
        "code": 0,
        "type": "City",
        "enNameLanguage": "Diamond",
        "location": {
          "lat": 17.7245968,
          "lng": -64.83479919999999
        },
        "keyAccentLanguage": "diamond"
      },
      {
        "code": 0,
        "type": "City",
        "enNameLanguage": "Bethlehem Old Work",
        "location": {
          "lat": 17.7313626,
          "lng": -64.7937565
        },
        "keyAccentLanguage": "bethlehem_old_work"
      },
      {
        "code": 0,
        "type": "City",
        "enNameLanguage": "Contentment",
        "location": {
          "lat": 17.7245968,
          "lng": -64.83479919999999
        },
        "keyAccentLanguage": "contentment"
      },
      {
        "code": 0,
        "type": "City",
        "enNameLanguage": "Fredensborg",
        "location": {
          "lat": 17.7349735,
          "lng": -64.7815339
        },
        "keyAccentLanguage": "fredensborg"
      },
      {
        "code": 0,
        "type": "City",
        "enNameLanguage": "Coble",
        "location": {
          "lat": 17.7245968,
          "lng": -64.83479919999999
        },
        "keyAccentLanguage": "coble"
      },
      {
        "code": 0,
        "type": "City",
        "enNameLanguage": "Glynn",
        "location": {
          "lat": 17.7245968,
          "lng": -64.83479919999999
        },
        "keyAccentLanguage": "glynn"
      },
      {
        "code": 0,
        "type": "City",
        "enNameLanguage": "Canaan",
        "location": {
          "lat": 17.7245968,
          "lng": -64.83479919999999
        },
        "keyAccentLanguage": "canaan"
      },
      {
        "code": 0,
        "type": "City",
        "enNameLanguage": "Envy",
        "location": {
          "lat": 17.7245968,
          "lng": -64.83479919999999
        },
        "keyAccentLanguage": "envy"
      },
      {
        "code": 0,
        "type": "City",
        "enNameLanguage": "Butzberg",
        "location": {
          "lat": 17.748116,
          "lng": -64.676283
        },
        "keyAccentLanguage": "butzberg"
      },
      {
        "code": 0,
        "type": "City",
        "enNameLanguage": "Bonne Esperance",
        "location": {
          "lat": 17.7433501,
          "lng": -64.769111
        },
        "keyAccentLanguage": "bonne_esperance"
      },
      {
        "code": 0,
        "type": "City",
        "enNameLanguage": "Jealousy",
        "location": {
          "lat": 17.7245968,
          "lng": -64.83479919999999
        },
        "keyAccentLanguage": "jealousy"
      },
      {
        "code": 0,
        "type": "City",
        "enNameLanguage": "Parasol",
        "location": {
          "lat": 17.7245968,
          "lng": -64.83479919999999
        },
        "keyAccentLanguage": "parasol"
      },
      {
        "code": 0,
        "type": "City",
        "enNameLanguage": "Montpellier",
        "location": {
          "lat": 43.6108535,
          "lng": 3.8761323
        },
        "keyAccentLanguage": "montpellier"
      },
      {
        "code": 0,
        "type": "City",
        "enNameLanguage": "Allandale",
        "location": {
          "lat": 17.7271209,
          "lng": -64.7572175
        },
        "keyAccentLanguage": "allandale"
      },
      {
        "code": 0,
        "type": "City",
        "enNameLanguage": "Beck Grove",
        "location": {
          "lat": 17.7252519,
          "lng": -64.8501461
        },
        "keyAccentLanguage": "beck_grove"
      },
      {
        "code": 0,
        "type": "City",
        "enNameLanguage": "Morningstar",
        "location": {
          "lat": 17.7245968,
          "lng": -64.83479919999999
        },
        "keyAccentLanguage": "morningstar"
      },
      {
        "code": 0,
        "type": "City",
        "enNameLanguage": "Grange",
        "location": {
          "lat": 17.7245968,
          "lng": -64.83479919999999
        },
        "keyAccentLanguage": "grange"
      },
      {
        "code": 0,
        "type": "City",
        "enNameLanguage": "Munster",
        "location": {
          "lat": 17.7245968,
          "lng": -64.83479919999999
        },
        "keyAccentLanguage": "munster"
      },
      {
        "code": 0,
        "type": "City",
        "enNameLanguage": "Bellevue",
        "location": {
          "lat": 17.7245968,
          "lng": -64.83479919999999
        },
        "keyAccentLanguage": "bellevue"
      },
      {
        "code": 0,
        "type": "City",
        "enNameLanguage": "Castle Coakley",
        "location": {
          "lat": 17.7224321,
          "lng": -64.7455403
        },
        "keyAccentLanguage": "castle_coakley"
      },
      {
        "code": 0,
        "type": "City",
        "enNameLanguage": "Annaly",
        "location": {
          "lat": 17.7497525,
          "lng": -64.85439869999999
        },
        "keyAccentLanguage": "annaly"
      },
      {
        "code": 0,
        "type": "City",
        "enNameLanguage": "Annaberg",
        "location": {
          "lat": 17.7116411,
          "lng": -64.77431190000001
        },
        "keyAccentLanguage": "annaberg"
      },
      {
        "code": 0,
        "type": "City",
        "enNameLanguage": "Cane Valley",
        "location": {
          "lat": 17.7203939,
          "lng": -64.8486838
        },
        "keyAccentLanguage": "cane_valley"
      },
      {
        "code": 0,
        "type": "City",
        "enNameLanguage": "Mount Pleasant",
        "location": {
          "lat": 17.7245968,
          "lng": -64.83479919999999
        },
        "keyAccentLanguage": "mount_pleasant"
      },
      {
        "code": 0,
        "type": "City",
        "enNameLanguage": "Camporico",
        "location": {
          "lat": 17.6935867,
          "lng": -64.8684797
        },
        "keyAccentLanguage": "camporico"
      },
      {
        "code": 0,
        "type": "City",
        "enNameLanguage": "Fredensdal",
        "location": {
          "lat": 17.7399732,
          "lng": -64.7120872
        },
        "keyAccentLanguage": "fredensdal"
      },
      {
        "code": 0,
        "type": "City",
        "enNameLanguage": "Golden Grove",
        "location": {
          "lat": 17.7122717,
          "lng": -64.7995784
        },
        "keyAccentLanguage": "golden_grove"
      },
      {
        "code": 0,
        "type": "City",
        "enNameLanguage": "Clairmont",
        "location": {
          "lat": 17.7735255,
          "lng": -64.776225
        },
        "keyAccentLanguage": "clairmont"
      },
      {
        "code": 0,
        "type": "City",
        "enNameLanguage": "Friedensfeld",
        "location": {
          "lat": 17.7460843,
          "lng": -64.7804227
        },
        "keyAccentLanguage": "friedensfeld"
      },
      {
        "code": 0,
        "type": "City",
        "enNameLanguage": "Cotton Grove",
        "location": {
          "lat": 17.7308717,
          "lng": -64.6362438
        },
        "keyAccentLanguage": "cotton_grove"
      },
      {
        "code": 0,
        "type": "City",
        "enNameLanguage": "Fareham",
        "location": {
          "lat": 17.7177035,
          "lng": -64.66646109999999
        },
        "keyAccentLanguage": "fareham"
      },
      {
        "code": 0,
        "type": "City",
        "enNameLanguage": "Clifton Hill",
        "location": {
          "lat": 17.7222059,
          "lng": -64.7734717
        },
        "keyAccentLanguage": "clifton_hill"
      },
      {
        "code": 0,
        "type": "City",
        "enNameLanguage": "Diamond Keturah",
        "location": {
          "lat": 17.7103309,
          "lng": -64.7111506
        },
        "keyAccentLanguage": "diamond_keturah"
      },
      {
        "code": 0,
        "type": "City",
        "enNameLanguage": "Hermitage",
        "location": {
          "lat": 17.7245968,
          "lng": -64.83479919999999
        },
        "keyAccentLanguage": "hermitage"
      },
      {
        "code": 0,
        "type": "City",
        "enNameLanguage": "Great Pond",
        "location": {
          "lat": 17.7262047,
          "lng": -64.64930360000001
        },
        "keyAccentLanguage": "great_pond"
      },
      {
        "code": 0,
        "type": "City",
        "enNameLanguage": "Humbug",
        "location": {
          "lat": 17.7245968,
          "lng": -64.83479919999999
        },
        "keyAccentLanguage": "humbug"
      },
      {
        "code": 0,
        "type": "City",
        "enNameLanguage": "Cane",
        "location": {
          "lat": 17.7245968,
          "lng": -64.83479919999999
        },
        "keyAccentLanguage": "cane"
      },
      {
        "code": 0,
        "type": "City",
        "enNameLanguage": "Beeston Hill",
        "location": {
          "lat": 17.7392368,
          "lng": -64.72334959999999
        },
        "keyAccentLanguage": "beeston_hill"
      },
      {
        "code": 0,
        "type": "City",
        "enNameLanguage": "La Reine",
        "location": {
          "lat": 17.7340292,
          "lng": -64.7701173
        },
        "keyAccentLanguage": "la_reine"
      },
      {
        "code": 0,
        "type": "City",
        "enNameLanguage": "Grove Place",
        "location": {
          "lat": 17.728736,
          "lng": -64.8239471
        },
        "keyAccentLanguage": "grove_place"
      },
      {
        "code": 0,
        "type": "City",
        "enNameLanguage": "Good Hope",
        "location": {
          "lat": 17.7245968,
          "lng": -64.83479919999999
        },
        "keyAccentLanguage": "good_hope"
      },
      {
        "code": 0,
        "type": "City",
        "enNameLanguage": "Bugbyhole",
        "location": {
          "lat": 17.7279773,
          "lng": -64.7054943
        },
        "keyAccentLanguage": "bugbyhole"
      },
      {
        "code": 0,
        "type": "City",
        "enNameLanguage": "La Grange",
        "location": {
          "lat": 17.7245968,
          "lng": -64.83479919999999
        },
        "keyAccentLanguage": "la_grange"
      },
      {
        "code": 0,
        "type": "City",
        "enNameLanguage": "Libanon Hill",
        "location": {
          "lat": 17.7519258,
          "lng": -64.7882564
        },
        "keyAccentLanguage": "libanon_hill"
      },
      {
        "code": 0,
        "type": "City",
        "enNameLanguage": "Nicholas",
        "location": {
          "lat": 17.7245968,
          "lng": -64.83479919999999
        },
        "keyAccentLanguage": "nicholas"
      },
      {
        "code": 0,
        "type": "City",
        "enNameLanguage": "Carden",
        "location": {
          "lat": 17.7245968,
          "lng": -64.83479919999999
        },
        "keyAccentLanguage": "carden"
      },
      {
        "code": 0,
        "type": "City",
        "enNameLanguage": "La Vallee",
        "location": {
          "lat": 17.7245968,
          "lng": -64.83479919999999
        },
        "keyAccentLanguage": "la_vallee"
      },
      {
        "code": 0,
        "type": "City",
        "enNameLanguage": "Peters Rest",
        "location": {
          "lat": 17.725369,
          "lng": -64.73515379999999
        },
        "keyAccentLanguage": "peters_rest"
      },
      {
        "code": 0,
        "type": "City",
        "enNameLanguage": "Concordia",
        "location": {
          "lat": 17.688014,
          "lng": -64.8757911
        },
        "keyAccentLanguage": "concordia"
      },
      {
        "code": 0,
        "type": "City",
        "enNameLanguage": "Hesselberg",
        "location": {
          "lat": 17.6974753,
          "lng": -64.8798687
        },
        "keyAccentLanguage": "hesselberg"
      },
      {
        "code": 0,
        "type": "City",
        "enNameLanguage": "Madame Carty",
        "location": {
          "lat": 17.7362047,
          "lng": -64.6161556
        },
        "keyAccentLanguage": "madame_carty"
      },
      {
        "code": 0,
        "type": "City",
        "enNameLanguage": "Granard",
        "location": {
          "lat": 17.7147603,
          "lng": -64.7126828
        },
        "keyAccentLanguage": "granard"
      },
      {
        "code": 0,
        "type": "City",
        "enNameLanguage": "Knight",
        "location": {
          "lat": 17.7245968,
          "lng": -64.83479919999999
        },
        "keyAccentLanguage": "knight"
      },
      {
        "code": 0,
        "type": "City",
        "enNameLanguage": "Nugent",
        "location": {
          "lat": 17.7245968,
          "lng": -64.83479919999999
        },
        "keyAccentLanguage": "nugent"
      },
      {
        "code": 0,
        "type": "City",
        "enNameLanguage": "Frederiksted",
        "location": {
          "lat": 17.7122979,
          "lng": -64.8818053
        },
        "keyAccentLanguage": "frederiksted"
      },
      {
        "code": 0,
        "type": "City",
        "enNameLanguage": "Kingshill",
        "location": {
          "lat": 17.7227672,
          "lng": -64.78223679999999
        },
        "keyAccentLanguage": "kingshill"
      },
      {
        "code": 0,
        "type": "City",
        "enNameLanguage": "Hard Labour",
        "location": {
          "lat": 17.7446582,
          "lng": -64.8328568
        },
        "keyAccentLanguage": "hard_labour"
      },
      {
        "code": 0,
        "type": "City",
        "enNameLanguage": "Cooper",
        "location": {
          "lat": 17.7245968,
          "lng": -64.83479919999999
        },
        "keyAccentLanguage": "cooper"
      },
      {
        "code": 0,
        "type": "City",
        "enNameLanguage": "Paradise",
        "location": {
          "lat": 17.7245968,
          "lng": -64.83479919999999
        },
        "keyAccentLanguage": "paradise"
      },
      {
        "code": 0,
        "type": "City",
        "enNameLanguage": "Fort Frederick",
        "location": {
          "lat": 17.7152523,
          "lng": -64.8829241
        },
        "keyAccentLanguage": "fort_frederick"
      },
      {
        "code": 0,
        "type": "City",
        "enNameLanguage": "Anguilla",
        "location": {
          "lat": 18.220554,
          "lng": -63.06861499999999
        },
        "keyAccentLanguage": "anguilla"
      },
      {
        "code": 0,
        "type": "City",
        "enNameLanguage": "Catharinas Hope",
        "location": {
          "lat": 17.7491155,
          "lng": -64.61386440000001
        },
        "keyAccentLanguage": "catharinas_hope"
      },
      {
        "code": 0,
        "type": "City",
        "enNameLanguage": "Christiansted",
        "location": {
          "lat": 17.7445481,
          "lng": -64.7059208
        },
        "keyAccentLanguage": "christiansted"
      },
      {
        "code": 0,
        "type": "City",
        "enNameLanguage": "Longford",
        "location": {
          "lat": 53.72658699999999,
          "lng": -7.7963517
        },
        "keyAccentLanguage": "longford"
      },
      {
        "code": 0,
        "type": "City",
        "enNameLanguage": "Hogensborg",
        "location": {
          "lat": 17.7086386,
          "lng": -64.8420038
        },
        "keyAccentLanguage": "hogensborg"
      },
      {
        "code": 0,
        "type": "City",
        "enNameLanguage": "Oxford",
        "location": {
          "lat": 17.7245968,
          "lng": -64.83479919999999
        },
        "keyAccentLanguage": "oxford"
      },
      {
        "code": 0,
        "type": "City",
        "enNameLanguage": "Little Fountain",
        "location": {
          "lat": 17.7534967,
          "lng": -64.79280829999999
        },
        "keyAccentLanguage": "little_fountain"
      },
      {
        "code": 0,
        "type": "City",
        "enNameLanguage": "Jolly Hill",
        "location": {
          "lat": 17.7318678,
          "lng": -64.86117469999999
        },
        "keyAccentLanguage": "jolly_hill"
      },
      {
        "code": 0,
        "type": "City",
        "enNameLanguage": "Bulows Minde",
        "location": {
          "lat": 17.7398126,
          "lng": -64.7272346
        },
        "keyAccentLanguage": "bulows_minde"
      },
      {
        "code": 0,
        "type": "City",
        "enNameLanguage": "Bettys Hope",
        "location": {
          "lat": 17.696525,
          "lng": -64.8180071
        },
        "keyAccentLanguage": "bettys_hope"
      },
      {
        "code": 0,
        "type": "City",
        "enNameLanguage": "Pearl",
        "location": {
          "lat": 17.7185219,
          "lng": -64.73906
        },
        "keyAccentLanguage": "pearl"
      },
      {
        "code": 0,
        "type": "City",
        "enNameLanguage": "Mon Bijou",
        "location": {
          "lat": 17.7480225,
          "lng": -64.786652
        },
        "keyAccentLanguage": "mon_bijou"
      },
      {
        "code": 0,
        "type": "City",
        "enNameLanguage": "Frederiksted Southeast",
        "location": {
          "lat": 17.7036375,
          "lng": -64.8785364
        },
        "keyAccentLanguage": "frederiksted_southeast"
      },
      {
        "code": 0,
        "type": "City",
        "enNameLanguage": "Lowrys Hill",
        "location": {
          "lat": 17.7395942,
          "lng": -64.67172579999999
        },
        "keyAccentLanguage": "lowrys_hill"
      },
      {
        "code": 0,
        "type": "City",
        "enNameLanguage": "North Star",
        "location": {
          "lat": 17.7245968,
          "lng": -64.83479919999999
        },
        "keyAccentLanguage": "north_star"
      },
      {
        "code": 0,
        "type": "City",
        "enNameLanguage": "Frederiks Haab",
        "location": {
          "lat": 17.7176891,
          "lng": -64.8605042
        },
        "keyAccentLanguage": "frederiks_haab"
      },
      {
        "code": 0,
        "type": "City",
        "enNameLanguage": "Lower Love",
        "location": {
          "lat": 17.7209232,
          "lng": -64.8066436
        },
        "keyAccentLanguage": "lower_love"
      },
      {
        "code": 0,
        "type": "City",
        "enNameLanguage": "Betzys Jewell",
        "location": {
          "lat": 17.7620855,
          "lng": -64.7949895
        },
        "keyAccentLanguage": "betzys_jewell"
      },
      {
        "code": 0,
        "type": "City",
        "enNameLanguage": "Cathrines Rest",
        "location": {
          "lat": 17.7251635,
          "lng": -64.7113672
        },
        "keyAccentLanguage": "cathrines_rest"
      },
      {
        "code": 0,
        "type": "City",
        "enNameLanguage": "Cotton Valley",
        "location": {
          "lat": 17.7553326,
          "lng": -64.6233396
        },
        "keyAccentLanguage": "cotton_valley"
      },
      {
        "code": 0,
        "type": "City",
        "enNameLanguage": "Butler Bay",
        "location": {
          "lat": 17.7485842,
          "lng": -64.891535
        },
        "keyAccentLanguage": "butler_bay"
      },
      {
        "code": 0,
        "type": "City",
        "enNameLanguage": "Canebay",
        "location": {
          "lat": 17.771639,
          "lng": -64.81014499999999
        },
        "keyAccentLanguage": "canebay"
      },
      {
        "code": 0,
        "type": "City",
        "enNameLanguage": "Orange Grove",
        "location": {
          "lat": 17.7451761,
          "lng": -64.7220923
        },
        "keyAccentLanguage": "orange_grove"
      },
      {
        "code": 0,
        "type": "City",
        "enNameLanguage": "Negro Bay",
        "location": {
          "lat": 17.6983362,
          "lng": -64.8002951
        },
        "keyAccentLanguage": "negro_bay"
      },
      {
        "code": 0,
        "type": "City",
        "enNameLanguage": "Annas Hope",
        "location": {
          "lat": 17.7280606,
          "lng": -64.7285638
        },
        "keyAccentLanguage": "annas_hope"
      },
      {
        "code": 0,
        "type": "City",
        "enNameLanguage": "Orangegrove",
        "location": {
          "lat": 17.7358262,
          "lng": -64.8542081
        },
        "keyAccentLanguage": "orangegrove"
      },
      {
        "code": 0,
        "type": "City",
        "enNameLanguage": "Limetree",
        "location": {
          "lat": 17.7369178,
          "lng": -64.7643113
        },
        "keyAccentLanguage": "limetree"
      },
      {
        "code": 0,
        "type": "City",
        "enNameLanguage": "Laprey Valley",
        "location": {
          "lat": 17.7263627,
          "lng": -64.6862536
        },
        "keyAccentLanguage": "laprey_valley"
      },
      {
        "code": 0,
        "type": "City",
        "enNameLanguage": "North Side",
        "location": {
          "lat": 17.7603022,
          "lng": -64.8885804
        },
        "keyAccentLanguage": "north_side"
      },
      {
        "code": 0,
        "type": "City",
        "enNameLanguage": "Green Kay",
        "location": {
          "lat": 17.7565247,
          "lng": -64.6532893
        },
        "keyAccentLanguage": "green_kay"
      },
      {
        "code": 0,
        "type": "City",
        "enNameLanguage": "Jerusalem and Figtree Hill",
        "location": {
          "lat": 17.7093176,
          "lng": -64.74637179999999
        },
        "keyAccentLanguage": "jerusalem_and_figtree_hill"
      },
      {
        "code": 0,
        "type": "City",
        "enNameLanguage": "La Grande Princesse",
        "location": {
          "lat": 17.7567378,
          "lng": -64.73522659999999
        },
        "keyAccentLanguage": "la_grande_princesse"
      },
      {
        "code": 0,
        "type": "City",
        "enNameLanguage": "Hams Bay",
        "location": {
          "lat": 17.763244,
          "lng": -64.8794348
        },
        "keyAccentLanguage": "hams_bay"
      }
    ],
    "enNameLanguage": "Saint Croix",
    "keyAccentLanguage": "saint_croix"
  },
  {
    "code": 0,
    "type": "State",
    "location": {
      "lat": 45.2733153,
      "lng": -66.06330799999999
    },
    "districtList": [
      {
        "code": 0,
        "type": "City",
        "enNameLanguage": "Hermitage",
        "location": {
          "lat": 45.2733153,
          "lng": -66.0633081
        },
        "keyAccentLanguage": "hermitage"
      },
      {
        "code": 0,
        "type": "City",
        "enNameLanguage": "Sieben",
        "location": {
          "lat": 45.2733153,
          "lng": -66.0633081
        },
        "keyAccentLanguage": "sieben"
      },
      {
        "code": 0,
        "type": "City",
        "enNameLanguage": "Bordeaux",
        "location": {
          "lat": 44.8416106,
          "lng": -0.5810938000000001
        },
        "keyAccentLanguage": "bordeaux"
      },
      {
        "code": 0,
        "type": "City",
        "enNameLanguage": "Contant",
        "location": {
          "lat": 45.2733153,
          "lng": -66.0633081
        },
        "keyAccentLanguage": "contant"
      },
      {
        "code": 0,
        "type": "City",
        "enNameLanguage": "Palestina",
        "location": {
          "lat": 31.952162,
          "lng": 35.233154
        },
        "keyAccentLanguage": "palestina"
      },
      {
        "code": 0,
        "type": "City",
        "enNameLanguage": "Bethany",
        "location": {
          "lat": 45.2733153,
          "lng": -66.0633081
        },
        "keyAccentLanguage": "bethany"
      },
      {
        "code": 0,
        "type": "City",
        "enNameLanguage": "Mandal",
        "location": {
          "lat": 45.2733153,
          "lng": -66.0633081
        },
        "keyAccentLanguage": "mandal"
      },
      {
        "code": 0,
        "type": "City",
        "enNameLanguage": "Carolina",
        "location": {
          "lat": 35.3746071,
          "lng": -77.3596838
        },
        "keyAccentLanguage": "carolina"
      },
      {
        "code": 0,
        "type": "City",
        "enNameLanguage": "Mollendal",
        "location": {
          "lat": 45.2733153,
          "lng": -66.0633081
        },
        "keyAccentLanguage": "mollendal"
      },
      {
        "code": 0,
        "type": "City",
        "enNameLanguage": "Calabash Boom",
        "location": {
          "lat": 18.3297145,
          "lng": -64.7065177
        },
        "keyAccentLanguage": "calabash_boom"
      },
      {
        "code": 0,
        "type": "City",
        "enNameLanguage": "Emmaus",
        "location": {
          "lat": 45.2733153,
          "lng": -66.0633081
        },
        "keyAccentLanguage": "emmaus"
      },
      {
        "code": 0,
        "type": "City",
        "enNameLanguage": "Windberg",
        "location": {
          "lat": 45.2733153,
          "lng": -66.0633081
        },
        "keyAccentLanguage": "windberg"
      },
      {
        "code": 0,
        "type": "City",
        "enNameLanguage": "Enighed",
        "location": {
          "lat": 18.3305468,
          "lng": -64.7928742
        },
        "keyAccentLanguage": "enighed"
      },
      {
        "code": 0,
        "type": "City",
        "enNameLanguage": "East End",
        "location": {
          "lat": 47.5983576,
          "lng": -52.6901987
        },
        "keyAccentLanguage": "east_end"
      },
      {
        "code": 0,
        "type": "City",
        "enNameLanguage": "Susannaberg",
        "location": {
          "lat": 18.341318,
          "lng": -64.77266809999999
        },
        "keyAccentLanguage": "susannaberg"
      },
      {
        "code": 0,
        "type": "City",
        "enNameLanguage": "Fish Bay",
        "location": {
          "lat": 18.324689,
          "lng": -64.7650074
        },
        "keyAccentLanguage": "fish_bay"
      },
      {
        "code": 0,
        "type": "City",
        "enNameLanguage": "L'Esperance",
        "location": {
          "lat": 45.2733153,
          "lng": -66.0633081
        },
        "keyAccentLanguage": "l'esperance"
      },
      {
        "code": 0,
        "type": "City",
        "enNameLanguage": "Reef Bay",
        "location": {
          "lat": 18.3298069,
          "lng": -64.7369858
        },
        "keyAccentLanguage": "reef_bay"
      },
      {
        "code": 0,
        "type": "City",
        "enNameLanguage": "Concordia",
        "location": {
          "lat": 18.310511,
          "lng": -64.70652489999999
        },
        "keyAccentLanguage": "concordia"
      },
      {
        "code": 0,
        "type": "City",
        "enNameLanguage": "Fredriksdal",
        "location": {
          "lat": 45.2733153,
          "lng": -66.0633081
        },
        "keyAccentLanguage": "fredriksdal"
      },
      {
        "code": 0,
        "type": "City",
        "enNameLanguage": "Lameshur",
        "location": {
          "lat": 18.32103,
          "lng": -64.7227614
        },
        "keyAccentLanguage": "lameshur"
      },
      {
        "code": 0,
        "type": "City",
        "enNameLanguage": "Adrian",
        "location": {
          "lat": 45.2733153,
          "lng": -66.0633081
        },
        "keyAccentLanguage": "adrian"
      },
      {
        "code": 0,
        "type": "City",
        "enNameLanguage": "Monte",
        "location": {
          "lat": 39.7186704,
          "lng": -84.09965869999999
        },
        "keyAccentLanguage": "monte"
      },
      {
        "code": 0,
        "type": "City",
        "enNameLanguage": "Mary Point",
        "location": {
          "lat": 18.365231,
          "lng": -64.7418038
        },
        "keyAccentLanguage": "mary_point"
      },
      {
        "code": 0,
        "type": "City",
        "enNameLanguage": "Mount Pleasant",
        "location": {
          "lat": 45.2849684,
          "lng": -66.061952
        },
        "keyAccentLanguage": "mount_pleasant"
      },
      {
        "code": 0,
        "type": "City",
        "enNameLanguage": "Coral Bay",
        "location": {
          "lat": 18.3480813,
          "lng": -64.7141671
        },
        "keyAccentLanguage": "coral_bay"
      },
      {
        "code": 0,
        "type": "City",
        "enNameLanguage": "Leinster Bay",
        "location": {
          "lat": 18.3643581,
          "lng": -64.7187434
        },
        "keyAccentLanguage": "leinster_bay"
      },
      {
        "code": 0,
        "type": "City",
        "enNameLanguage": "Annaberg",
        "location": {
          "lat": 18.3630089,
          "lng": -64.73013689999999
        },
        "keyAccentLanguage": "annaberg"
      },
      {
        "code": 0,
        "type": "City",
        "enNameLanguage": "Johns Folly",
        "location": {
          "lat": 17.1274104,
          "lng": -61.84677199999999
        },
        "keyAccentLanguage": "johns_folly"
      },
      {
        "code": 0,
        "type": "City",
        "enNameLanguage": "Cruz Bay",
        "location": {
          "lat": 18.3304513,
          "lng": -64.792952
        },
        "keyAccentLanguage": "cruz_bay"
      }
    ],
    "enNameLanguage": "Saint John",
    "keyAccentLanguage": "saint_john"
  },
  {
    "code": 0,
    "type": "State",
    "location": {
      "lat": 18.3380965,
      "lng": -64.8940946
    },
    "districtList": [],
    "enNameLanguage": "Saint Thomas",
    "keyAccentLanguage": "saint_thomas"
  }
]