{
  "code": 0,
  "type": "City",
  "location": {
    "lat": 14.1665324,
    "lng": 108.902683
  },
  "postalCode": "55000",
  "keyAccentLanguage": "Binh_Dinh",
  "districtList": [
    {
      "code": 1,
      "category": null,
      "type": "City",
      "viNameLanguage": "Thành phố Quy Nhơn",
      "location": {
        "lat": 13.7829673,
        "lng": 109.2196634
      },
      "postalCode": "550001",
      "keyAccentLanguage": "Thanh_pho_Quy_Nhon",
      "wards": [
        {
          "code": 2,
          "type": "Ward",
          "location": {
            "lat": 13.7908974,
            "lng": 109.2038649
          },
          "viNameLanguage": "Phường Nhơn Bình",
          "keyAccentLanguage": "Phuong_Nhon_Binh"
        },
        {
          "code": 3,
          "type": "Ward",
          "location": {
            "lat": 13.7954571,
            "lng": 109.1780227
          },
          "viNameLanguage": "Phường Nhơn Phú",
          "keyAccentLanguage": "Phuong_Nhon_Phu"
        },
        {
          "code": 4,
          "type": "Ward",
          "location": {
            "lat": 13.7849582,
            "lng": 109.2122608
          },
          "viNameLanguage": "Phường Đống Đa",
          "keyAccentLanguage": "Phuong_Dong_Da"
        },
        {
          "code": 5,
          "type": "Ward",
          "location": {
            "lat": 13.787118,
            "lng": 109.1479245
          },
          "viNameLanguage": "Phường Trần Quang Diệu",
          "keyAccentLanguage": "Phuong_Tran_Quang_Dieu"
        },
        {
          "code": 6,
          "type": "Ward",
          "location": {
            "lat": 13.7765558,
            "lng": 109.2386684
          },
          "viNameLanguage": "Phường Hải Cảng",
          "keyAccentLanguage": "Phuong_Hai_Cang"
        },
        {
          "code": 7,
          "type": "Ward",
          "location": {
            "lat": 13.7645912,
            "lng": 109.1992347
          },
          "viNameLanguage": "Phường Quang Trung",
          "keyAccentLanguage": "Phuong_Quang_Trung"
        },
        {
          "code": 8,
          "type": "Ward",
          "location": {
            "lat": 13.7806822,
            "lng": 109.228143
          },
          "viNameLanguage": "Phường Thị Nại",
          "keyAccentLanguage": "Phuong_Thi_Nai"
        },
        {
          "code": 9,
          "type": "Ward",
          "location": {
            "lat": 13.7770619,
            "lng": 109.2222203
          },
          "viNameLanguage": "Phường Lê Hồng Phong",
          "keyAccentLanguage": "Phuong_Le_Hong_Phong"
        },
        {
          "code": 10,
          "type": "Ward",
          "location": {
            "lat": 13.7771602,
            "lng": 109.2288864
          },
          "viNameLanguage": "Phường Trần Hưng Đạo",
          "keyAccentLanguage": "Phuong_Tran_Hung_Dao"
        },
        {
          "code": 11,
          "type": "Ward",
          "location": {
            "lat": 13.7684428,
            "lng": 109.2170078
          },
          "viNameLanguage": "Phường Ngô Mây",
          "keyAccentLanguage": "Phuong_Ngo_May"
        },
        {
          "code": 12,
          "type": "Ward",
          "location": {
            "lat": 13.7694508,
            "lng": 109.2214531
          },
          "viNameLanguage": "Phường Lý Thường Kiệt",
          "keyAccentLanguage": "Phuong_Ly_Thuong_Kiet"
        },
        {
          "code": 13,
          "type": "Ward",
          "location": {
            "lat": 13.7718937,
            "lng": 109.2340898
          },
          "viNameLanguage": "Phường Lê Lợi",
          "keyAccentLanguage": "Phuong_Le_Loi"
        },
        {
          "code": 14,
          "type": "Ward",
          "location": {
            "lat": 13.7670741,
            "lng": 109.2251697
          },
          "viNameLanguage": "Phường Trần Phú",
          "keyAccentLanguage": "Phuong_Tran_Phu"
        },
        {
          "code": 15,
          "type": "Ward",
          "location": {
            "lat": 13.7447566,
            "lng": 109.1519305
          },
          "viNameLanguage": "Phường Bùi Thị Xuân",
          "keyAccentLanguage": "Phuong_Bui_Thi_Xuan"
        },
        {
          "code": 16,
          "type": "Ward",
          "location": {
            "lat": 13.7585534,
            "lng": 109.2134328
          },
          "viNameLanguage": "Phường Nguyễn Văn Cừ",
          "keyAccentLanguage": "Phuong_Nguyen_Van_Cu"
        },
        {
          "code": 17,
          "type": "Ward",
          "location": {
            "lat": 13.7214259,
            "lng": 109.2116538
          },
          "viNameLanguage": "Phường Ghềnh Ráng",
          "keyAccentLanguage": "Phuong_Ghenh_Rang"
        },
        {
          "code": 18,
          "type": "Commune",
          "location": {
            "lat": 13.8828976,
            "lng": 109.2906895
          },
          "viNameLanguage": "Xã Nhơn Lý",
          "keyAccentLanguage": "Xa_Nhon_Ly"
        },
        {
          "code": 19,
          "type": "Commune",
          "location": {
            "lat": 13.8367482,
            "lng": 109.2712585
          },
          "viNameLanguage": "Xã Nhơn Hội",
          "keyAccentLanguage": "Xa_Nhon_Hoi"
        },
        {
          "code": 20,
          "type": "Commune",
          "location": {
            "lat": 13.7693523,
            "lng": 109.2897868
          },
          "viNameLanguage": "Xã Nhơn Hải",
          "keyAccentLanguage": "Xa_Nhon_Hai"
        },
        {
          "code": 21,
          "type": "Commune",
          "location": {
            "lat": 13.6161801,
            "lng": 109.3521721
          },
          "viNameLanguage": "Xã Nhơn Châu",
          "keyAccentLanguage": "Xa_Nhon_Chau"
        },
        {
          "code": 22,
          "type": "Commune",
          "location": {
            "lat": 13.6931288,
            "lng": 109.1285472
          },
          "viNameLanguage": "Xã Phước Mỹ",
          "keyAccentLanguage": "Xa_Phuoc_My"
        }
      ]
    },
    {
      "code": 23,
      "category": null,
      "type": "District",
      "viNameLanguage": "Huyện An Lão",
      "location": {
        "lat": 20.8231168,
        "lng": 106.5584071
      },
      "postalCode": "550002",
      "keyAccentLanguage": "Huyen_An_Lao",
      "wards": [
        {
          "code": 24,
          "type": "Commune",
          "location": {
            "lat": 14.6591391,
            "lng": 108.9115964
          },
          "viNameLanguage": "Xã An Hưng",
          "keyAccentLanguage": "Xa_An_Hung"
        },
        {
          "code": 25,
          "type": "Commune",
          "location": {
            "lat": 14.6489096,
            "lng": 108.8670315
          },
          "viNameLanguage": "Xã An Trung",
          "keyAccentLanguage": "Xa_An_Trung"
        },
        {
          "code": 26,
          "type": "Commune",
          "location": {
            "lat": 14.6548597,
            "lng": 108.7957381
          },
          "viNameLanguage": "Xã An Dũng",
          "keyAccentLanguage": "Xa_An_Dung"
        },
        {
          "code": 27,
          "type": "Commune",
          "location": {
            "lat": 14.5878305,
            "lng": 108.7957381
          },
          "viNameLanguage": "Xã An Vinh",
          "keyAccentLanguage": "Xa_An_Vinh"
        },
        {
          "code": 28,
          "type": "Commune",
          "location": {
            "lat": 14.4738033,
            "lng": 108.6888227
          },
          "viNameLanguage": "Xã An Toàn",
          "keyAccentLanguage": "Xa_An_Toan"
        },
        {
          "code": 29,
          "type": "Commune",
          "location": {
            "lat": 14.5748386,
            "lng": 108.8848569
          },
          "viNameLanguage": "Xã An Tân",
          "keyAccentLanguage": "Xa_An_Tan"
        },
        {
          "code": 30,
          "type": "Commune",
          "location": {
            "lat": 14.5556201,
            "lng": 108.9145675
          },
          "viNameLanguage": "Xã An Hòa",
          "keyAccentLanguage": "Xa_An_Hoa"
        },
        {
          "code": 31,
          "type": "Commune",
          "location": {
            "lat": 14.5392254,
            "lng": 108.8432656
          },
          "viNameLanguage": "Xã An Quang",
          "keyAccentLanguage": "Xa_An_Quang"
        },
        {
          "code": 32,
          "type": "Commune",
          "location": {
            "lat": 14.2454285,
            "lng": 108.8907988
          },
          "viNameLanguage": "Xã An Nghĩa",
          "keyAccentLanguage": "Xa_An_Nghia"
        }
      ]
    },
    {
      "code": 33,
      "category": null,
      "type": "Town",
      "viNameLanguage": "Thị xã Hoài Nhơn",
      "location": {
        "lat": 14.4666386,
        "lng": 109.04532
      },
      "postalCode": "550003",
      "keyAccentLanguage": "Thi_xa_Hoai_Nhon",
      "wards": [
        {
          "code": 34,
          "type": "Ward",
          "location": {
            "lat": 14.5532988,
            "lng": 109.0423479
          },
          "viNameLanguage": "Phường Tam Quan",
          "keyAccentLanguage": "Phuong_Tam_Quan"
        },
        {
          "code": 35,
          "type": "Ward",
          "location": {
            "lat": 14.4432287,
            "lng": 108.9918254
          },
          "viNameLanguage": "Phường Bồng Sơn",
          "keyAccentLanguage": "Phuong_Bong_Son"
        },
        {
          "code": 36,
          "type": "Commune",
          "location": {
            "lat": 14.6369402,
            "lng": 109.0096562
          },
          "viNameLanguage": "Xã Hoài Sơn",
          "keyAccentLanguage": "Xa_Hoai_Son"
        },
        {
          "code": 37,
          "type": "Commune",
          "location": {
            "lat": 14.6013716,
            "lng": 108.9680522
          },
          "viNameLanguage": "Xã Hoài Châu Bắc",
          "keyAccentLanguage": "Xa_Hoai_Chau_Bac"
        },
        {
          "code": 38,
          "type": "Commune",
          "location": {
            "lat": 14.590211,
            "lng": 108.9680522
          },
          "viNameLanguage": "Xã Hoài Châu",
          "keyAccentLanguage": "Xa_Hoai_Chau"
        },
        {
          "code": 39,
          "type": "Commune",
          "location": {
            "lat": 14.5496648,
            "lng": 108.985882
          },
          "viNameLanguage": "Xã Hoài Phú",
          "keyAccentLanguage": "Xa_Hoai_Phu"
        },
        {
          "code": 40,
          "type": "Ward",
          "location": {
            "lat": 14.571069,
            "lng": 109.0631531
          },
          "viNameLanguage": "Phường Tam Quan Bắc",
          "keyAccentLanguage": "Phuong_Tam_Quan_Bac"
        },
        {
          "code": 41,
          "type": "Ward",
          "location": {
            "lat": 14.5345745,
            "lng": 109.0661253
          },
          "viNameLanguage": "Phường Tam Quan Nam",
          "keyAccentLanguage": "Phuong_Tam_Quan_Nam"
        },
        {
          "code": 42,
          "type": "Ward",
          "location": {
            "lat": 14.510128,
            "lng": 108.9918254
          },
          "viNameLanguage": "Phường Hoài Hảo",
          "keyAccentLanguage": "Phuong_Hoai_Hao"
        },
        {
          "code": 43,
          "type": "Ward",
          "location": {
            "lat": 14.5071482,
            "lng": 109.0274877
          },
          "viNameLanguage": "Phường Hoài Thanh Tây",
          "keyAccentLanguage": "Phuong_Hoai_Thanh_Tay"
        },
        {
          "code": 44,
          "type": "Ward",
          "location": {
            "lat": 14.4965481,
            "lng": 109.0542365
          },
          "viNameLanguage": "Phường Hoài Thanh",
          "keyAccentLanguage": "Phuong_Hoai_Thanh"
        },
        {
          "code": 45,
          "type": "Ward",
          "location": {
            "lat": 14.4920189,
            "lng": 109.0750422
          },
          "viNameLanguage": "Phường Hoài Hương",
          "keyAccentLanguage": "Phuong_Hoai_Huong"
        },
        {
          "code": 46,
          "type": "Ward",
          "location": {
            "lat": 14.464535,
            "lng": 109.0037125
          },
          "viNameLanguage": "Phường Hoài Tân",
          "keyAccentLanguage": "Phuong_Hoai_Tan"
        },
        {
          "code": 47,
          "type": "Commune",
          "location": {
            "lat": 14.4530612,
            "lng": 109.1077389
          },
          "viNameLanguage": "Xã Hoài Hải",
          "keyAccentLanguage": "Xa_Hoai_Hai"
        },
        {
          "code": 48,
          "type": "Ward",
          "location": {
            "lat": 14.4585271,
            "lng": 109.0423479
          },
          "viNameLanguage": "Phường Hoài Xuân",
          "keyAccentLanguage": "Phuong_Hoai_Xuan"
        },
        {
          "code": 49,
          "type": "Commune",
          "location": {
            "lat": 14.4525137,
            "lng": 109.0809868
          },
          "viNameLanguage": "Xã Hoài Mỹ",
          "keyAccentLanguage": "Xa_Hoai_My"
        },
        {
          "code": 50,
          "type": "Ward",
          "location": {
            "lat": 14.3896241,
            "lng": 109.0334318
          },
          "viNameLanguage": "Phường Hoài Đức",
          "keyAccentLanguage": "Phuong_Hoai_Duc"
        }
      ]
    },
    {
      "code": 51,
      "category": null,
      "type": "District",
      "viNameLanguage": "Huyện Hoài Ân",
      "location": {
        "lat": 14.3932109,
        "lng": 108.8551484
      },
      "postalCode": "550004",
      "keyAccentLanguage": "Huyen_Hoai_An",
      "wards": [
        {
          "code": 52,
          "type": "Town",
          "location": {
            "lat": 14.3645168,
            "lng": 108.9636127
          },
          "viNameLanguage": "Thị trấn Tăng Bạt Hổ",
          "keyAccentLanguage": "Thi_tran_Tang_Bat_Ho"
        },
        {
          "code": 53,
          "type": "Commune",
          "location": {
            "lat": 14.473421,
            "lng": 108.8967409
          },
          "viNameLanguage": "Xã Ân Hảo Tây",
          "keyAccentLanguage": "Xa_An_Hao_Tay"
        },
        {
          "code": 54,
          "type": "Commune",
          "location": {
            "lat": 14.4927715,
            "lng": 108.932395
          },
          "viNameLanguage": "Xã Ân Hảo Đông",
          "keyAccentLanguage": "Xa_An_Hao_Dong"
        },
        {
          "code": 55,
          "type": "Commune",
          "location": {
            "lat": 14.4256861,
            "lng": 108.8670315
          },
          "viNameLanguage": "Xã Ân Sơn",
          "keyAccentLanguage": "Xa_An_Son"
        },
        {
          "code": 56,
          "type": "Commune",
          "location": {
            "lat": 14.4461904,
            "lng": 108.9561661
          },
          "viNameLanguage": "Xã Ân Mỹ",
          "keyAccentLanguage": "Xa_An_My"
        },
        {
          "code": 57,
          "type": "Commune",
          "location": {
            "lat": 14.407292,
            "lng": 108.8195012
          },
          "viNameLanguage": "Xã Đak Mang",
          "keyAccentLanguage": "Xa_Dak_Mang"
        },
        {
          "code": 58,
          "type": "Commune",
          "location": {
            "lat": 14.4045481,
            "lng": 108.9205099
          },
          "viNameLanguage": "Xã Ân Tín",
          "keyAccentLanguage": "Xa_An_Tin"
        },
        {
          "code": 59,
          "type": "Commune",
          "location": {
            "lat": 14.3904553,
            "lng": 108.9561661
          },
          "viNameLanguage": "Xã Ân Thạnh",
          "keyAccentLanguage": "Xa_An_Thanh"
        },
        {
          "code": 60,
          "type": "Commune",
          "location": {
            "lat": 14.3470363,
            "lng": 109.0096562
          },
          "viNameLanguage": "Xã Ân Phong",
          "keyAccentLanguage": "Xa_An_Phong"
        },
        {
          "code": 61,
          "type": "Commune",
          "location": {
            "lat": 14.352924,
            "lng": 108.9383377
          },
          "viNameLanguage": "Xã Ân Đức",
          "keyAccentLanguage": "Xa_An_Duc"
        },
        {
          "code": 62,
          "type": "Commune",
          "location": {
            "lat": 14.3345476,
            "lng": 108.8907988
          },
          "viNameLanguage": "Xã Ân Hữu",
          "keyAccentLanguage": "Xa_An_Huu"
        },
        {
          "code": 63,
          "type": "Commune",
          "location": {
            "lat": 14.2958057,
            "lng": 108.8195012
          },
          "viNameLanguage": "Xã Bok Tới",
          "keyAccentLanguage": "Xa_Bok_Toi"
        },
        {
          "code": 64,
          "type": "Commune",
          "location": {
            "lat": 14.2638124,
            "lng": 108.9383377
          },
          "viNameLanguage": "Xã Ân Tường Tây",
          "keyAccentLanguage": "Xa_An_Tuong_Tay"
        },
        {
          "code": 65,
          "type": "Commune",
          "location": {
            "lat": 14.2821789,
            "lng": 108.985882
          },
          "viNameLanguage": "Xã Ân Tường Đông",
          "keyAccentLanguage": "Xa_An_Tuong_Dong"
        },
        {
          "code": 66,
          "type": "Commune",
          "location": {
            "lat": 14.2454285,
            "lng": 108.8907988
          },
          "viNameLanguage": "Xã Ân Nghĩa",
          "keyAccentLanguage": "Xa_An_Nghia"
        }
      ]
    },
    {
      "code": 67,
      "category": null,
      "type": "District",
      "viNameLanguage": "Huyện Phù Mỹ",
      "location": {
        "lat": 14.2196839,
        "lng": 109.0690976
      },
      "postalCode": "550005",
      "keyAccentLanguage": "Huyen_Phu_My",
      "wards": [
        {
          "code": 68,
          "type": "Town",
          "location": {
            "lat": 14.2925455,
            "lng": 109.0795007
          },
          "viNameLanguage": "Thị trấn Bình Dương",
          "keyAccentLanguage": "Thi_tran_Binh_Duong"
        },
        {
          "code": 69,
          "type": "Commune",
          "location": {
            "lat": 14.3614183,
            "lng": 109.1047663
          },
          "viNameLanguage": "Xã Mỹ Đức",
          "keyAccentLanguage": "Xa_My_Duc"
        },
        {
          "code": 70,
          "type": "Commune",
          "location": {
            "lat": 14.3430986,
            "lng": 109.0572086
          },
          "viNameLanguage": "Xã Mỹ Châu",
          "keyAccentLanguage": "Xa_My_Chau"
        },
        {
          "code": 71,
          "type": "Commune",
          "location": {
            "lat": 14.3088536,
            "lng": 109.1344926
          },
          "viNameLanguage": "Xã Mỹ Thắng",
          "keyAccentLanguage": "Xa_My_Thang"
        },
        {
          "code": 72,
          "type": "Commune",
          "location": {
            "lat": 14.3005279,
            "lng": 109.0334318
          },
          "viNameLanguage": "Xã Mỹ Lộc",
          "keyAccentLanguage": "Xa_My_Loc"
        },
        {
          "code": 73,
          "type": "Commune",
          "location": {
            "lat": 14.2885698,
            "lng": 109.1107114
          },
          "viNameLanguage": "Xã Mỹ Lợi",
          "keyAccentLanguage": "Xa_My_Loi"
        },
        {
          "code": 74,
          "type": "Commune",
          "location": {
            "lat": 14.2623742,
            "lng": 109.158275
          },
          "viNameLanguage": "Xã Mỹ An",
          "keyAccentLanguage": "Xa_My_An"
        },
        {
          "code": 75,
          "type": "Commune",
          "location": {
            "lat": 14.2501176,
            "lng": 109.1047663
          },
          "viNameLanguage": "Xã Mỹ Phong",
          "keyAccentLanguage": "Xa_My_Phong"
        },
        {
          "code": 76,
          "type": "Commune",
          "location": {
            "lat": 14.2317882,
            "lng": 109.0572086
          },
          "viNameLanguage": "Xã Mỹ Trinh",
          "keyAccentLanguage": "Xa_My_Trinh"
        },
        {
          "code": 77,
          "type": "Commune",
          "location": {
            "lat": 14.2239388,
            "lng": 109.1523292
          },
          "viNameLanguage": "Xã Mỹ Thọ",
          "keyAccentLanguage": "Xa_My_Tho"
        },
        {
          "code": 78,
          "type": "Commune",
          "location": {
            "lat": 14.1911883,
            "lng": 109.0096562
          },
          "viNameLanguage": "Xã Mỹ Hòa",
          "keyAccentLanguage": "Xa_My_Hoa"
        },
        {
          "code": 79,
          "type": "Commune",
          "location": {
            "lat": 14.1714514,
            "lng": 109.1820586
          },
          "viNameLanguage": "Xã Mỹ Thành",
          "keyAccentLanguage": "Xa_My_Thanh"
        },
        {
          "code": 80,
          "type": "Commune",
          "location": {
            "lat": 14.1833814,
            "lng": 109.1047663
          },
          "viNameLanguage": "Xã Mỹ Chánh",
          "keyAccentLanguage": "Xa_My_Chanh"
        },
        {
          "code": 81,
          "type": "Commune",
          "location": {
            "lat": 14.1812407,
            "lng": 109.0631531
          },
          "viNameLanguage": "Xã Mỹ Quang",
          "keyAccentLanguage": "Xa_My_Quang"
        },
        {
          "code": 82,
          "type": "Commune",
          "location": {
            "lat": 14.1225124,
            "lng": 109.0334318
          },
          "viNameLanguage": "Xã Mỹ Hiệp",
          "keyAccentLanguage": "Xa_My_Hiep"
        },
        {
          "code": 83,
          "type": "Commune",
          "location": {
            "lat": 14.123697,
            "lng": 109.0869316
          },
          "viNameLanguage": "Xã Mỹ Tài",
          "keyAccentLanguage": "Xa_My_Tai"
        },
        {
          "code": 84,
          "type": "Commune",
          "location": {
            "lat": 14.1334456,
            "lng": 109.1374653
          },
          "viNameLanguage": "Xã Mỹ Cát",
          "keyAccentLanguage": "Xa_My_Cat"
        },
        {
          "code": 85,
          "type": "Commune",
          "location": {
            "lat": 14.1642573,
            "lng": 109.1344926
          },
          "viNameLanguage": "Xã Mỹ Chánh Tây",
          "keyAccentLanguage": "Xa_My_Chanh_Tay"
        }
      ]
    },
    {
      "code": 86,
      "category": null,
      "type": "District",
      "viNameLanguage": "Huyện Vĩnh Thạnh",
      "location": {
        "lat": 10.1843478,
        "lng": 105.336536
      },
      "postalCode": "550006",
      "keyAccentLanguage": "Huyen_Vinh_Thanh",
      "wards": [
        {
          "code": 87,
          "type": "Commune",
          "location": {
            "lat": 14.3398853,
            "lng": 108.6888227
          },
          "viNameLanguage": "Xã Vĩnh Sơn",
          "keyAccentLanguage": "Xa_Vinh_Son"
        },
        {
          "code": 88,
          "type": "Commune",
          "location": {
            "lat": 14.2793136,
            "lng": 108.7482165
          },
          "viNameLanguage": "Xã Vĩnh Kim",
          "keyAccentLanguage": "Xa_Vinh_Kim"
        },
        {
          "code": 89,
          "type": "Commune",
          "location": {
            "lat": 14.1640637,
            "lng": 108.7957381
          },
          "viNameLanguage": "Xã Vĩnh Hiệp",
          "keyAccentLanguage": "Xa_Vinh_Hiep"
        },
        {
          "code": 90,
          "type": "Commune",
          "location": {
            "lat": 14.1577156,
            "lng": 108.736337
          },
          "viNameLanguage": "Xã Vĩnh Hảo",
          "keyAccentLanguage": "Xa_Vinh_Hao"
        },
        {
          "code": 91,
          "type": "Commune",
          "location": {
            "lat": 14.0489525,
            "lng": 108.8432656
          },
          "viNameLanguage": "Xã Vĩnh Hòa",
          "keyAccentLanguage": "Xa_Vinh_Hoa"
        },
        {
          "code": 92,
          "type": "Commune",
          "location": {
            "lat": 14.1157024,
            "lng": 108.8432656
          },
          "viNameLanguage": "Xã Vĩnh Thịnh",
          "keyAccentLanguage": "Xa_Vinh_Thinh"
        },
        {
          "code": 93,
          "type": "Commune",
          "location": {
            "lat": 14.0788297,
            "lng": 108.7482165
          },
          "viNameLanguage": "Xã Vĩnh Thuận",
          "keyAccentLanguage": "Xa_Vinh_Thuan"
        },
        {
          "code": 94,
          "type": "Commune",
          "location": {
            "lat": 14.0588063,
            "lng": 108.7897976
          },
          "viNameLanguage": "Xã Vĩnh Quang",
          "keyAccentLanguage": "Xa_Vinh_Quang"
        }
      ]
    },
    {
      "code": 95,
      "category": null,
      "type": "District",
      "viNameLanguage": "Huyện Tây Sơn",
      "location": {
        "lat": 13.9479428,
        "lng": 108.8551484
      },
      "postalCode": "550007",
      "keyAccentLanguage": "Huyen_Tay_Son",
      "wards": [
        {
          "code": 96,
          "type": "Town",
          "location": {
            "lat": 13.9174816,
            "lng": 108.9234812
          },
          "viNameLanguage": "Thị trấn Phú Phong",
          "keyAccentLanguage": "Thi_tran_Phu_Phong"
        },
        {
          "code": 97,
          "type": "Commune",
          "location": {
            "lat": 14.0209777,
            "lng": 108.9145675
          },
          "viNameLanguage": "Xã Bình Tân",
          "keyAccentLanguage": "Xa_Binh_Tan"
        },
        {
          "code": 98,
          "type": "Commune",
          "location": {
            "lat": 14.0082754,
            "lng": 108.7957381
          },
          "viNameLanguage": "Xã Tây Thuận",
          "keyAccentLanguage": "Xa_Tay_Thuan"
        },
        {
          "code": 99,
          "type": "Commune",
          "location": {
            "lat": 13.9869667,
            "lng": 108.9918254
          },
          "viNameLanguage": "Xã Bình Thuận",
          "keyAccentLanguage": "Xa_Binh_Thuan"
        },
        {
          "code": 100,
          "type": "Commune",
          "location": {
            "lat": 13.9396735,
            "lng": 108.8195012
          },
          "viNameLanguage": "Xã Tây Giang",
          "keyAccentLanguage": "Xa_Tay_Giang"
        },
        {
          "code": 101,
          "type": "Commune",
          "location": {
            "lat": 13.9542984,
            "lng": 108.9145675
          },
          "viNameLanguage": "Xã Bình Thành",
          "keyAccentLanguage": "Xa_Binh_Thanh"
        },
        {
          "code": 102,
          "type": "Commune",
          "location": {
            "lat": 13.9526858,
            "lng": 109.0037125
          },
          "viNameLanguage": "Xã Tây An",
          "keyAccentLanguage": "Xa_Tay_An"
        },
        {
          "code": 103,
          "type": "Commune",
          "location": {
            "lat": 13.9222384,
            "lng": 108.9680522
          },
          "viNameLanguage": "Xã Bình Hòa",
          "keyAccentLanguage": "Xa_Binh_Hoa"
        },
        {
          "code": 104,
          "type": "Commune",
          "location": {
            "lat": 13.9332024,
            "lng": 108.9928708
          },
          "viNameLanguage": "Xã Tây Bình",
          "keyAccentLanguage": "Xa_Tay_Binh"
        },
        {
          "code": 105,
          "type": "Commune",
          "location": {
            "lat": 13.909527,
            "lng": 108.849207
          },
          "viNameLanguage": "Xã Bình Tường",
          "keyAccentLanguage": "Xa_Binh_Tuong"
        },
        {
          "code": 106,
          "type": "Commune",
          "location": {
            "lat": 13.9269832,
            "lng": 109.0126281
          },
          "viNameLanguage": "Xã Tây Vinh",
          "keyAccentLanguage": "Xa_Tay_Vinh"
        },
        {
          "code": 107,
          "type": "Commune",
          "location": {
            "lat": 13.8507924,
            "lng": 108.8195012
          },
          "viNameLanguage": "Xã Vĩnh An",
          "keyAccentLanguage": "Xa_Vinh_An"
        },
        {
          "code": 108,
          "type": "Commune",
          "location": {
            "lat": 13.8635503,
            "lng": 108.9383377
          },
          "viNameLanguage": "Xã Tây Xuân",
          "keyAccentLanguage": "Xa_Tay_Xuan"
        },
        {
          "code": 109,
          "type": "Commune",
          "location": {
            "lat": 13.8597506,
            "lng": 108.985882
          },
          "viNameLanguage": "Xã Bình Nghi",
          "keyAccentLanguage": "Xa_Binh_Nghi"
        },
        {
          "code": 110,
          "type": "Commune",
          "location": {
            "lat": 13.8470226,
            "lng": 108.8670315
          },
          "viNameLanguage": "Xã Tây Phú",
          "keyAccentLanguage": "Xa_Tay_Phu"
        }
      ]
    },
    {
      "code": 111,
      "category": null,
      "type": "District",
      "viNameLanguage": "Huyện Phù Cát",
      "location": {
        "lat": 14.013782,
        "lng": 109.140438
      },
      "postalCode": "550008",
      "keyAccentLanguage": "Huyen_Phu_Cat",
      "wards": [
        {
          "code": 112,
          "type": "Town",
          "location": {
            "lat": 14.0008748,
            "lng": 109.0601808
          },
          "viNameLanguage": "Thị trấn Ngô Mây",
          "keyAccentLanguage": "Thi_tran_Ngo_May"
        },
        {
          "code": 113,
          "type": "Commune",
          "location": {
            "lat": 14.1525061,
            "lng": 108.9383377
          },
          "viNameLanguage": "Xã Cát Sơn",
          "keyAccentLanguage": "Xa_Cat_Son"
        },
        {
          "code": 114,
          "type": "Commune",
          "location": {
            "lat": 14.1188215,
            "lng": 109.1463836
          },
          "viNameLanguage": "Xã Cát Minh",
          "keyAccentLanguage": "Xa_Cat_Minh"
        },
        {
          "code": 115,
          "type": "Commune",
          "location": {
            "lat": 14.094647,
            "lng": 109.1701666
          },
          "viNameLanguage": "Xã Cát Khánh",
          "keyAccentLanguage": "Xa_Cat_Khanh"
        },
        {
          "code": 116,
          "type": "Commune",
          "location": {
            "lat": 14.1000115,
            "lng": 109.1199666
          },
          "viNameLanguage": "Xã Cát Tài",
          "keyAccentLanguage": "Xa_Cat_Tai"
        },
        {
          "code": 117,
          "type": "Commune",
          "location": {
            "lat": 14.085767,
            "lng": 108.9383377
          },
          "viNameLanguage": "Xã Cát Lâm",
          "keyAccentLanguage": "Xa_Cat_Lam"
        },
        {
          "code": 118,
          "type": "Commune",
          "location": {
            "lat": 14.0538846,
            "lng": 109.0572086
          },
          "viNameLanguage": "Xã Cát Hanh",
          "keyAccentLanguage": "Xa_Cat_Hanh"
        },
        {
          "code": 119,
          "type": "Commune",
          "location": {
            "lat": 14.0613242,
            "lng": 109.1701666
          },
          "viNameLanguage": "Xã Cát Thành",
          "keyAccentLanguage": "Xa_Cat_Thanh"
        },
        {
          "code": 120,
          "type": "Commune",
          "location": {
            "lat": 14.0277944,
            "lng": 109.1047663
          },
          "viNameLanguage": "Xã Cát Trinh",
          "keyAccentLanguage": "Xa_Cat_Trinh"
        },
        {
          "code": 121,
          "type": "Commune",
          "location": {
            "lat": 14.0120417,
            "lng": 109.2296297
          },
          "viNameLanguage": "Xã Cát Hải",
          "keyAccentLanguage": "Xa_Cat_Hai"
        },
        {
          "code": 122,
          "type": "Commune",
          "location": {
            "lat": 14.0355228,
            "lng": 109.0096562
          },
          "viNameLanguage": "Xã Cát Hiệp",
          "keyAccentLanguage": "Xa_Cat_Hiep"
        },
        {
          "code": 123,
          "type": "Commune",
          "location": {
            "lat": 13.9855417,
            "lng": 109.1463836
          },
          "viNameLanguage": "Xã Cát Nhơn",
          "keyAccentLanguage": "Xa_Cat_Nhon"
        },
        {
          "code": 124,
          "type": "Commune",
          "location": {
            "lat": 13.9978264,
            "lng": 109.1998972
          },
          "viNameLanguage": "Xã Cát Hưng",
          "keyAccentLanguage": "Xa_Cat_Hung"
        },
        {
          "code": 125,
          "type": "Commune",
          "location": {
            "lat": 13.9773409,
            "lng": 109.1107114
          },
          "viNameLanguage": "Xã Cát Tường",
          "keyAccentLanguage": "Xa_Cat_Tuong"
        },
        {
          "code": 126,
          "type": "Commune",
          "location": {
            "lat": 13.9650233,
            "lng": 109.0572086
          },
          "viNameLanguage": "Xã Cát Tân",
          "keyAccentLanguage": "Xa_Cat_Tan"
        },
        {
          "code": 127,
          "type": "Commune",
          "location": {
            "lat": 13.9514977,
            "lng": 109.2236831
          },
          "viNameLanguage": "Xã Cát Tiến",
          "keyAccentLanguage": "Xa_Cat_Tien"
        },
        {
          "code": 128,
          "type": "Commune",
          "location": {
            "lat": 13.9493423,
            "lng": 109.1820586
          },
          "viNameLanguage": "Xã Cát Thắng",
          "keyAccentLanguage": "Xa_Cat_Thang"
        },
        {
          "code": 129,
          "type": "Commune",
          "location": {
            "lat": 13.9197819,
            "lng": 109.2385498
          },
          "viNameLanguage": "Xã Cát Chánh",
          "keyAccentLanguage": "Xa_Cat_Chanh"
        }
      ]
    },
    {
      "code": 130,
      "category": null,
      "type": "Town",
      "viNameLanguage": "Thị xã An Nhơn",
      "location": {
        "lat": 13.8865062,
        "lng": 109.1134353
      },
      "postalCode": "550009",
      "keyAccentLanguage": "Thi_xa_An_Nhon",
      "wards": [
        {
          "code": 131,
          "type": "Ward",
          "location": {
            "lat": 13.8860211,
            "lng": 109.1077389
          },
          "viNameLanguage": "Phường Bình Định",
          "keyAccentLanguage": "Phuong_Binh_Dinh"
        },
        {
          "code": 132,
          "type": "Ward",
          "location": {
            "lat": 13.9227714,
            "lng": 109.0906471
          },
          "viNameLanguage": "Phường Đập Đá",
          "keyAccentLanguage": "Phuong_Dap_Da"
        },
        {
          "code": 133,
          "type": "Commune",
          "location": {
            "lat": 13.927604,
            "lng": 109.0393759
          },
          "viNameLanguage": "Xã Nhơn Mỹ",
          "keyAccentLanguage": "Xa_Nhon_My"
        },
        {
          "code": 134,
          "type": "Ward",
          "location": {
            "lat": 13.9459647,
            "lng": 109.0869316
          },
          "viNameLanguage": "Phường Nhơn Thành",
          "keyAccentLanguage": "Phuong_Nhon_Thanh"
        },
        {
          "code": 135,
          "type": "Commune",
          "location": {
            "lat": 13.9316165,
            "lng": 109.1612478
          },
          "viNameLanguage": "Xã Nhơn Hạnh",
          "keyAccentLanguage": "Xa_Nhon_Hanh"
        },
        {
          "code": 136,
          "type": "Commune",
          "location": {
            "lat": 13.9256859,
            "lng": 109.0631531
          },
          "viNameLanguage": "Xã Nhơn Hậu",
          "keyAccentLanguage": "Xa_Nhon_Hau"
        },
        {
          "code": 137,
          "type": "Commune",
          "location": {
            "lat": 13.9310133,
            "lng": 109.1344926
          },
          "viNameLanguage": "Xã Nhơn Phong",
          "keyAccentLanguage": "Xa_Nhon_Phong"
        },
        {
          "code": 138,
          "type": "Commune",
          "location": {
            "lat": 13.9127983,
            "lng": 109.1196292
          },
          "viNameLanguage": "Xã Nhơn An",
          "keyAccentLanguage": "Xa_Nhon_An"
        },
        {
          "code": 139,
          "type": "Commune",
          "location": {
            "lat": 13.8962152,
            "lng": 109.0156
          },
          "viNameLanguage": "Xã Nhơn Phúc",
          "keyAccentLanguage": "Xa_Nhon_Phuc"
        },
        {
          "code": 140,
          "type": "Ward",
          "location": {
            "lat": 13.90061,
            "lng": 109.0988214
          },
          "viNameLanguage": "Phường Nhơn Hưng",
          "keyAccentLanguage": "Phuong_Nhon_Hung"
        },
        {
          "code": 141,
          "type": "Commune",
          "location": {
            "lat": 13.8923898,
            "lng": 109.0631531
          },
          "viNameLanguage": "Xã Nhơn Khánh",
          "keyAccentLanguage": "Xa_Nhon_Khanh"
        },
        {
          "code": 142,
          "type": "Commune",
          "location": {
            "lat": 13.8832055,
            "lng": 109.0393759
          },
          "viNameLanguage": "Xã Nhơn Lộc",
          "keyAccentLanguage": "Xa_Nhon_Loc"
        },
        {
          "code": 143,
          "type": "Ward",
          "location": {
            "lat": 13.863761,
            "lng": 109.0978925
          },
          "viNameLanguage": "Phường Nhơn Hoà",
          "keyAccentLanguage": "Phuong_Nhon_Hoa"
        },
        {
          "code": 144,
          "type": "Commune",
          "location": {
            "lat": 13.8134667,
            "lng": 109.0096562
          },
          "viNameLanguage": "Xã Nhơn Tân",
          "keyAccentLanguage": "Xa_Nhon_Tan"
        },
        {
          "code": 145,
          "type": "Commune",
          "location": {
            "lat": 13.8318463,
            "lng": 109.0572086
          },
          "viNameLanguage": "Xã Nhơn Thọ",
          "keyAccentLanguage": "Xa_Nhon_Tho"
        }
      ]
    },
    {
      "code": 146,
      "category": null,
      "type": "District",
      "viNameLanguage": "Huyện Tuy Phước",
      "location": {
        "lat": 13.8565034,
        "lng": 109.1642208
      },
      "postalCode": "5500010",
      "keyAccentLanguage": "Huyen_Tuy_Phuoc",
      "wards": [
        {
          "code": 147,
          "type": "Town",
          "location": {
            "lat": 13.8101029,
            "lng": 109.1553021
          },
          "viNameLanguage": "Thị trấn Diêu Trì",
          "keyAccentLanguage": "Thi_tran_Dieu_Tri"
        },
        {
          "code": 148,
          "type": "Commune",
          "location": {
            "lat": 13.9131586,
            "lng": 109.2177365
          },
          "viNameLanguage": "Xã Phước Thắng",
          "keyAccentLanguage": "Xa_Phuoc_Thang"
        },
        {
          "code": 149,
          "type": "Commune",
          "location": {
            "lat": 13.8890901,
            "lng": 109.1295945
          },
          "viNameLanguage": "Xã Phước Hưng",
          "keyAccentLanguage": "Xa_Phuoc_Hung"
        },
        {
          "code": 150,
          "type": "Commune",
          "location": {
            "lat": 13.8932695,
            "lng": 109.1553021
          },
          "viNameLanguage": "Xã Phước Quang",
          "keyAccentLanguage": "Xa_Phuoc_Quang"
        },
        {
          "code": 151,
          "type": "Commune",
          "location": {
            "lat": 13.8861269,
            "lng": 109.1851141
          },
          "viNameLanguage": "Xã Phước Hòa",
          "keyAccentLanguage": "Xa_Phuoc_Hoa"
        },
        {
          "code": 152,
          "type": "Commune",
          "location": {
            "lat": 13.8688025,
            "lng": 109.2177365
          },
          "viNameLanguage": "Xã Phước Sơn",
          "keyAccentLanguage": "Xa_Phuoc_Son"
        },
        {
          "code": 153,
          "type": "Commune",
          "location": {
            "lat": 13.8736187,
            "lng": 109.158275
          },
          "viNameLanguage": "Xã Phước Hiệp",
          "keyAccentLanguage": "Xa_Phuoc_Hiep"
        },
        {
          "code": 154,
          "type": "Commune",
          "location": {
            "lat": 13.8422691,
            "lng": 109.1344926
          },
          "viNameLanguage": "Xã Phước Lộc",
          "keyAccentLanguage": "Xa_Phuoc_Loc"
        },
        {
          "code": 155,
          "type": "Commune",
          "location": {
            "lat": 13.8363795,
            "lng": 109.1731396
          },
          "viNameLanguage": "Xã Phước Nghĩa",
          "keyAccentLanguage": "Xa_Phuoc_Nghia"
        },
        {
          "code": 156,
          "type": "Commune",
          "location": {
            "lat": 13.8353029,
            "lng": 109.1943237
          },
          "viNameLanguage": "Xã Phước Thuận",
          "keyAccentLanguage": "Xa_Phuoc_Thuan"
        },
        {
          "code": 157,
          "type": "Commune",
          "location": {
            "lat": 13.8058509,
            "lng": 109.1047663
          },
          "viNameLanguage": "Xã Phước An",
          "keyAccentLanguage": "Xa_Phuoc_An"
        },
        {
          "code": 158,
          "type": "Commune",
          "location": {
            "lat": 13.7786114,
            "lng": 109.0988214
          },
          "viNameLanguage": "Xã Phước Thành",
          "keyAccentLanguage": "Xa_Phuoc_Thanh"
        }
      ]
    },
    {
      "code": 159,
      "category": null,
      "type": "District",
      "viNameLanguage": "Huyện Vân Canh",
      "location": {
        "lat": 13.674033,
        "lng": 108.9502232
      },
      "postalCode": "5500011",
      "keyAccentLanguage": "Huyen_Van_Canh",
      "wards": [
        {
          "code": 160,
          "type": "Commune",
          "location": {
            "lat": 13.7018248,
            "lng": 108.878915
          },
          "viNameLanguage": "Xã Canh Liên",
          "keyAccentLanguage": "Xa_Canh_Lien"
        },
        {
          "code": 161,
          "type": "Commune",
          "location": {
            "lat": 13.6601368,
            "lng": 108.985882
          },
          "viNameLanguage": "Xã Canh Hiệp",
          "keyAccentLanguage": "Xa_Canh_Hiep"
        },
        {
          "code": 162,
          "type": "Commune",
          "location": {
            "lat": 13.7311079,
            "lng": 109.0690976
          },
          "viNameLanguage": "Xã Canh Vinh",
          "keyAccentLanguage": "Xa_Canh_Vinh"
        },
        {
          "code": 163,
          "type": "Commune",
          "location": {
            "lat": 13.6614464,
            "lng": 109.0393759
          },
          "viNameLanguage": "Xã Canh Hiển",
          "keyAccentLanguage": "Xa_Canh_Hien"
        },
        {
          "code": 164,
          "type": "Commune",
          "location": {
            "lat": 13.5955373,
            "lng": 108.9621091
          },
          "viNameLanguage": "Xã Canh Thuận",
          "keyAccentLanguage": "Xa_Canh_Thuan"
        },
        {
          "code": 165,
          "type": "Commune",
          "location": {
            "lat": 13.5493786,
            "lng": 108.985882
          },
          "viNameLanguage": "Xã Canh Hòa",
          "keyAccentLanguage": "Xa_Canh_Hoa"
        }
      ]
    }
  ]
}