{
  "code": 0,
  "type": "City",
  "location": {
    "lat": 20.5835196,
    "lng": 105.92299
  },
  "postalCode": "18000",
  "keyAccentLanguage": "Ha_Nam",
  "districtList": [
    {
      "code": 1,
      "category": null,
      "type": "City",
      "viNameLanguage": "Thành phố Phủ Lý",
      "location": {
        "lat": 20.5316929,
        "lng": 105.9176291
      },
      "postalCode": "180001",
      "keyAccentLanguage": "Thanh_pho_Phu_Ly",
      "wards": [
        {
          "code": 2,
          "type": "Ward",
          "location": {
            "lat": 20.5619421,
            "lng": 105.9215215
          },
          "viNameLanguage": "Phường Quang Trung",
          "keyAccentLanguage": "Phuong_Quang_Trung"
        },
        {
          "code": 3,
          "type": "Ward",
          "location": {
            "lat": 20.5456381,
            "lng": 105.9178504
          },
          "viNameLanguage": "Phường Lương Khánh Thiện",
          "keyAccentLanguage": "Phuong_Luong_Khanh_Thien"
        },
        {
          "code": 4,
          "type": "Ward",
          "location": {
            "lat": 20.5362244,
            "lng": 105.9024322
          },
          "viNameLanguage": "Phường Lê Hồng Phong",
          "keyAccentLanguage": "Phuong_Le_Hong_Phong"
        },
        {
          "code": 5,
          "type": "Ward",
          "location": {
            "lat": 20.5428804,
            "lng": 105.9163819
          },
          "viNameLanguage": "Phường Minh Khai",
          "keyAccentLanguage": "Phuong_Minh_Khai"
        },
        {
          "code": 6,
          "type": "Ward",
          "location": {
            "lat": 20.5364347,
            "lng": 105.9156477
          },
          "viNameLanguage": "Phường Hai Bà Trưng",
          "keyAccentLanguage": "Phuong_Hai_Ba_Trung"
        },
        {
          "code": 7,
          "type": "Ward",
          "location": {
            "lat": 20.5356256,
            "lng": 105.9204202
          },
          "viNameLanguage": "Phường Trần Hưng Đạo",
          "keyAccentLanguage": "Phuong_Tran_Hung_Dao"
        },
        {
          "code": 8,
          "type": "Ward",
          "location": {
            "lat": 20.5560832,
            "lng": 105.9376756
          },
          "viNameLanguage": "Phường Lam Hạ",
          "keyAccentLanguage": "Phuong_Lam_Ha"
        },
        {
          "code": 9,
          "type": "Commune",
          "location": {
            "lat": 20.5535973,
            "lng": 105.9024322
          },
          "viNameLanguage": "Xã Phù Vân",
          "keyAccentLanguage": "Xa_Phu_Van"
        },
        {
          "code": 10,
          "type": "Ward",
          "location": {
            "lat": 20.5376781,
            "lng": 105.9332698
          },
          "viNameLanguage": "Phường Liêm Chính",
          "keyAccentLanguage": "Phuong_Liem_Chinh"
        },
        {
          "code": 11,
          "type": "Commune",
          "location": {
            "lat": 20.5271321,
            "lng": 105.9376756
          },
          "viNameLanguage": "Xã Liêm Chung",
          "keyAccentLanguage": "Xa_Liem_Chung"
        },
        {
          "code": 12,
          "type": "Ward",
          "location": {
            "lat": 20.5229933,
            "lng": 105.9200531
          },
          "viNameLanguage": "Phường Thanh Châu",
          "keyAccentLanguage": "Phuong_Thanh_Chau"
        },
        {
          "code": 13,
          "type": "Ward",
          "location": {
            "lat": 20.519401,
            "lng": 105.896559
          },
          "viNameLanguage": "Phường Châu Sơn",
          "keyAccentLanguage": "Phuong_Chau_Son"
        },
        {
          "code": 14,
          "type": "Commune",
          "location": {
            "lat": 20.5855873,
            "lng": 105.9318012
          },
          "viNameLanguage": "Xã Tiên Tân",
          "keyAccentLanguage": "Xa_Tien_Tan"
        },
        {
          "code": 15,
          "type": "Commune",
          "location": {
            "lat": 20.5749689,
            "lng": 105.9523622
          },
          "viNameLanguage": "Xã Tiên Hiệp",
          "keyAccentLanguage": "Xa_Tien_Hiep"
        },
        {
          "code": 16,
          "type": "Commune",
          "location": {
            "lat": 20.5544276,
            "lng": 105.9552997
          },
          "viNameLanguage": "Xã Tiên Hải",
          "keyAccentLanguage": "Xa_Tien_Hai"
        },
        {
          "code": 17,
          "type": "Commune",
          "location": {
            "lat": 20.5762111,
            "lng": 105.9083056
          },
          "viNameLanguage": "Xã Kim Bình",
          "keyAccentLanguage": "Xa_Kim_Binh"
        },
        {
          "code": 18,
          "type": "Commune",
          "location": {
            "lat": 20.537058,
            "lng": 105.9552997
          },
          "viNameLanguage": "Xã Liêm Tuyền",
          "keyAccentLanguage": "Xa_Liem_Tuyen"
        },
        {
          "code": 19,
          "type": "Commune",
          "location": {
            "lat": 20.5191372,
            "lng": 105.9611748
          },
          "viNameLanguage": "Xã Liêm Tiết",
          "keyAccentLanguage": "Xa_Liem_Tiet"
        },
        {
          "code": 20,
          "type": "Ward",
          "location": {
            "lat": 20.5009306,
            "lng": 105.9083056
          },
          "viNameLanguage": "Phường Thanh Tuyền",
          "keyAccentLanguage": "Phuong_Thanh_Tuyen"
        },
        {
          "code": 21,
          "type": "Commune",
          "location": {
            "lat": 20.5574533,
            "lng": 105.9846769
          },
          "viNameLanguage": "Xã Đinh Xá",
          "keyAccentLanguage": "Xa_Dinh_Xa"
        },
        {
          "code": 22,
          "type": "Commune",
          "location": {
            "lat": 20.5342963,
            "lng": 105.9846769
          },
          "viNameLanguage": "Xã Trịnh Xá",
          "keyAccentLanguage": "Xa_Trinh_Xa"
        }
      ]
    },
    {
      "code": 23,
      "category": null,
      "type": "Town",
      "viNameLanguage": "Thị xã Duy Tiên",
      "location": {
        "lat": 20.6381089,
        "lng": 105.9582372
      },
      "postalCode": "180002",
      "keyAccentLanguage": "Thi_xa_Duy_Tien",
      "wards": [
        {
          "code": 24,
          "type": "Ward",
          "location": {
            "lat": 20.6382578,
            "lng": 105.9259271
          },
          "viNameLanguage": "Phường Đồng Văn",
          "keyAccentLanguage": "Phuong_Dong_Van"
        },
        {
          "code": 25,
          "type": "Ward",
          "location": {
            "lat": 20.6377542,
            "lng": 105.9773322
          },
          "viNameLanguage": "Phường Hòa Mạc",
          "keyAccentLanguage": "Phuong_Hoa_Mac"
        },
        {
          "code": 26,
          "type": "Commune",
          "location": {
            "lat": 20.6852179,
            "lng": 106.0111203
          },
          "viNameLanguage": "Xã Mộc Bắc",
          "keyAccentLanguage": "Xa_Moc_Bac"
        },
        {
          "code": 27,
          "type": "Ward",
          "location": {
            "lat": 20.6598213,
            "lng": 105.9852657
          },
          "viNameLanguage": "Phường Châu Giang",
          "keyAccentLanguage": "Phuong_Chau_Giang"
        },
        {
          "code": 28,
          "type": "Ward",
          "location": {
            "lat": 20.6666603,
            "lng": 105.9318012
          },
          "viNameLanguage": "Phường Bạch Thượng",
          "keyAccentLanguage": "Phuong_Bach_Thuong"
        },
        {
          "code": 29,
          "type": "Ward",
          "location": {
            "lat": 20.6619759,
            "lng": 105.9200531
          },
          "viNameLanguage": "Phường Duy Minh",
          "keyAccentLanguage": "Phuong_Duy_Minh"
        },
        {
          "code": 30,
          "type": "Commune",
          "location": {
            "lat": 20.6641189,
            "lng": 106.0199355
          },
          "viNameLanguage": "Xã Mộc Nam",
          "keyAccentLanguage": "Xa_Moc_Nam"
        },
        {
          "code": 31,
          "type": "Ward",
          "location": {
            "lat": 20.6520508,
            "lng": 105.9024322
          },
          "viNameLanguage": "Phường Duy Hải",
          "keyAccentLanguage": "Phuong_Duy_Hai"
        },
        {
          "code": 32,
          "type": "Commune",
          "location": {
            "lat": 20.6346161,
            "lng": 106.0258126
          },
          "viNameLanguage": "Xã Chuyên Ngoại",
          "keyAccentLanguage": "Xa_Chuyen_Ngoai"
        },
        {
          "code": 33,
          "type": "Ward",
          "location": {
            "lat": 20.6412812,
            "lng": 105.9552997
          },
          "viNameLanguage": "Phường Yên Bắc",
          "keyAccentLanguage": "Phuong_Yen_Bac"
        },
        {
          "code": 34,
          "type": "Commune",
          "location": {
            "lat": 20.630496,
            "lng": 106.0081819
          },
          "viNameLanguage": "Xã Trác Văn",
          "keyAccentLanguage": "Xa_Trac_Van"
        },
        {
          "code": 35,
          "type": "Ward",
          "location": {
            "lat": 20.6192261,
            "lng": 105.9435501
          },
          "viNameLanguage": "Phường Tiên Nội",
          "keyAccentLanguage": "Phuong_Tien_Noi"
        },
        {
          "code": 36,
          "type": "Ward",
          "location": {
            "lat": 20.6208845,
            "lng": 105.9259271
          },
          "viNameLanguage": "Phường Hoàng Đông",
          "keyAccentLanguage": "Phuong_Hoang_Dong"
        },
        {
          "code": 37,
          "type": "Commune",
          "location": {
            "lat": 20.6190754,
            "lng": 105.9758633
          },
          "viNameLanguage": "Xã Yên Nam",
          "keyAccentLanguage": "Xa_Yen_Nam"
        },
        {
          "code": 38,
          "type": "Commune",
          "location": {
            "lat": 20.6065387,
            "lng": 105.9552997
          },
          "viNameLanguage": "Xã Tiên Ngoại",
          "keyAccentLanguage": "Xa_Tien_Ngoai"
        },
        {
          "code": 39,
          "type": "Commune",
          "location": {
            "lat": 20.5835196,
            "lng": 105.92299
          },
          "viNameLanguage": "Xã Tiên Sơn",
          "keyAccentLanguage": "Xa_Tien_Son"
        }
      ]
    },
    {
      "code": 40,
      "category": null,
      "type": "District",
      "viNameLanguage": "Huyện Kim Bảng",
      "location": {
        "lat": 20.5669534,
        "lng": 105.8525154
      },
      "postalCode": "180003",
      "keyAccentLanguage": "Huyen_Kim_Bang",
      "wards": [
        {
          "code": 41,
          "type": "Town",
          "location": {
            "lat": 20.579097,
            "lng": 105.8711861
          },
          "viNameLanguage": "Thị trấn Quế",
          "keyAccentLanguage": "Thi_tran_Que"
        },
        {
          "code": 42,
          "type": "Commune",
          "location": {
            "lat": 20.6523192,
            "lng": 105.8378366
          },
          "viNameLanguage": "Xã Nguyễn Úy",
          "keyAccentLanguage": "Xa_Nguyen_Uy"
        },
        {
          "code": 43,
          "type": "Commune",
          "location": {
            "lat": 20.6368816,
            "lng": 105.8789403
          },
          "viNameLanguage": "Xã Đại Cương",
          "keyAccentLanguage": "Xa_Dai_Cuong"
        },
        {
          "code": 44,
          "type": "Commune",
          "location": {
            "lat": 20.6332912,
            "lng": 105.8554513
          },
          "viNameLanguage": "Xã Lê Hồ",
          "keyAccentLanguage": "Xa_Le_Ho"
        },
        {
          "code": 45,
          "type": "Commune",
          "location": {
            "lat": 20.6218297,
            "lng": 105.8231588
          },
          "viNameLanguage": "Xã Tượng Lĩnh",
          "keyAccentLanguage": "Xa_Tuong_Linh"
        },
        {
          "code": 46,
          "type": "Commune",
          "location": {
            "lat": 20.6294359,
            "lng": 105.896559
          },
          "viNameLanguage": "Xã Nhật Tựu",
          "keyAccentLanguage": "Xa_Nhat_Tuu"
        },
        {
          "code": 47,
          "type": "Commune",
          "location": {
            "lat": 20.6126121,
            "lng": 105.8906859
          },
          "viNameLanguage": "Xã Nhật Tân",
          "keyAccentLanguage": "Xa_Nhat_Tan"
        },
        {
          "code": 48,
          "type": "Commune",
          "location": {
            "lat": 20.6058508,
            "lng": 105.8701316
          },
          "viNameLanguage": "Xã Đồng Hóa",
          "keyAccentLanguage": "Xa_Dong_Hoa"
        },
        {
          "code": 49,
          "type": "Commune",
          "location": {
            "lat": 20.6046155,
            "lng": 105.9141793
          },
          "viNameLanguage": "Xã Hoàng Tây",
          "keyAccentLanguage": "Xa_Hoang_Tay"
        },
        {
          "code": 50,
          "type": "Commune",
          "location": {
            "lat": 20.6018278,
            "lng": 105.8202234
          },
          "viNameLanguage": "Xã Tân Sơn",
          "keyAccentLanguage": "Xa_Tan_Son"
        },
        {
          "code": 51,
          "type": "Commune",
          "location": {
            "lat": 20.5990855,
            "lng": 105.8495796
          },
          "viNameLanguage": "Xã Thụy Lôi",
          "keyAccentLanguage": "Xa_Thuy_Loi"
        },
        {
          "code": 52,
          "type": "Commune",
          "location": {
            "lat": 20.5941356,
            "lng": 105.9024322
          },
          "viNameLanguage": "Xã Văn Xá",
          "keyAccentLanguage": "Xa_Van_Xa"
        },
        {
          "code": 53,
          "type": "Commune",
          "location": {
            "lat": 20.5879457,
            "lng": 105.8339971
          },
          "viNameLanguage": "Xã Khả Phong",
          "keyAccentLanguage": "Xa_Kha_Phong"
        },
        {
          "code": 54,
          "type": "Commune",
          "location": {
            "lat": 20.5864027,
            "lng": 105.8613233
          },
          "viNameLanguage": "Xã Ngọc Sơn",
          "keyAccentLanguage": "Xa_Ngoc_Son"
        },
        {
          "code": 55,
          "type": "Town",
          "location": {
            "lat": 20.5429141,
            "lng": 105.7996769
          },
          "viNameLanguage": "Thị trấn Ba Sao",
          "keyAccentLanguage": "Thi_tran_Ba_Sao"
        },
        {
          "code": 56,
          "type": "Commune",
          "location": {
            "lat": 20.5396353,
            "lng": 105.8349009
          },
          "viNameLanguage": "Xã Liên Sơn",
          "keyAccentLanguage": "Xa_Lien_Son"
        },
        {
          "code": 57,
          "type": "Commune",
          "location": {
            "lat": 20.5626857,
            "lng": 105.8671954
          },
          "viNameLanguage": "Xã Thi Sơn",
          "keyAccentLanguage": "Xa_Thi_Son"
        },
        {
          "code": 58,
          "type": "Commune",
          "location": {
            "lat": 20.5258614,
            "lng": 105.8583873
          },
          "viNameLanguage": "Xã Thanh Sơn",
          "keyAccentLanguage": "Xa_Thanh_Son"
        }
      ]
    },
    {
      "code": 59,
      "category": null,
      "type": "District",
      "viNameLanguage": "Huyện Thanh Liêm",
      "location": {
        "lat": 20.4699057,
        "lng": 105.8994956
      },
      "postalCode": "180004",
      "keyAccentLanguage": "Huyen_Thanh_Liem",
      "wards": [
        {
          "code": 60,
          "type": "Town",
          "location": {
            "lat": 20.5031254,
            "lng": 105.884813
          },
          "viNameLanguage": "Thị trấn Kiện Khê",
          "keyAccentLanguage": "Thi_tran_Kien_Khe"
        },
        {
          "code": 61,
          "type": "Commune",
          "location": {
            "lat": 20.5116922,
            "lng": 105.9788011
          },
          "viNameLanguage": "Xã Liêm Phong",
          "keyAccentLanguage": "Xa_Liem_Phong"
        },
        {
          "code": 62,
          "type": "Commune",
          "location": {
            "lat": 20.5076924,
            "lng": 105.9288641
          },
          "viNameLanguage": "Xã Thanh Hà",
          "keyAccentLanguage": "Xa_Thanh_Ha"
        },
        {
          "code": 63,
          "type": "Commune",
          "location": {
            "lat": 20.5018807,
            "lng": 105.9528939
          },
          "viNameLanguage": "Xã Liêm Cần",
          "keyAccentLanguage": "Xa_Liem_Can"
        },
        {
          "code": 64,
          "type": "Commune",
          "location": {
            "lat": 20.4832985,
            "lng": 105.9729255
          },
          "viNameLanguage": "Xã Liêm Thuận",
          "keyAccentLanguage": "Xa_Liem_Thuan"
        },
        {
          "code": 65,
          "type": "Commune",
          "location": {
            "lat": 20.47734,
            "lng": 105.8818766
          },
          "viNameLanguage": "Xã Thanh Thủy",
          "keyAccentLanguage": "Xa_Thanh_Thuy"
        },
        {
          "code": 66,
          "type": "Commune",
          "location": {
            "lat": 20.4740505,
            "lng": 105.9171161
          },
          "viNameLanguage": "Xã Thanh Phong",
          "keyAccentLanguage": "Xa_Thanh_Phong"
        },
        {
          "code": 67,
          "type": "Town",
          "location": {
            "lat": 20.4602739,
            "lng": 105.9406128
          },
          "viNameLanguage": "Thị trấn Tân Thanh",
          "keyAccentLanguage": "Thi_tran_Tan_Thanh"
        },
        {
          "code": 68,
          "type": "Commune",
          "location": {
            "lat": 20.4541766,
            "lng": 105.8818766
          },
          "viNameLanguage": "Xã Thanh Tân",
          "keyAccentLanguage": "Xa_Thanh_Tan"
        },
        {
          "code": 69,
          "type": "Commune",
          "location": {
            "lat": 20.4569728,
            "lng": 105.9758633
          },
          "viNameLanguage": "Xã Liêm Túc",
          "keyAccentLanguage": "Xa_Liem_Tuc"
        },
        {
          "code": 70,
          "type": "Commune",
          "location": {
            "lat": 20.4349182,
            "lng": 105.9641124
          },
          "viNameLanguage": "Xã Liêm Sơn",
          "keyAccentLanguage": "Xa_Liem_Son"
        },
        {
          "code": 71,
          "type": "Commune",
          "location": {
            "lat": 20.4508902,
            "lng": 105.9171161
          },
          "viNameLanguage": "Xã Thanh Hương",
          "keyAccentLanguage": "Xa_Thanh_Huong"
        },
        {
          "code": 72,
          "type": "Commune",
          "location": {
            "lat": 20.4183399,
            "lng": 105.8936224
          },
          "viNameLanguage": "Xã Thanh Nghị",
          "keyAccentLanguage": "Xa_Thanh_Nghi"
        },
        {
          "code": 73,
          "type": "Commune",
          "location": {
            "lat": 20.4287064,
            "lng": 105.9376756
          },
          "viNameLanguage": "Xã Thanh Tâm",
          "keyAccentLanguage": "Xa_Thanh_Tam"
        },
        {
          "code": 74,
          "type": "Commune",
          "location": {
            "lat": 20.414446,
            "lng": 105.9241717
          },
          "viNameLanguage": "Xã Thanh Nguyên",
          "keyAccentLanguage": "Xa_Thanh_Nguyen"
        },
        {
          "code": 75,
          "type": "Commune",
          "location": {
            "lat": 20.3814137,
            "lng": 105.9171161
          },
          "viNameLanguage": "Xã Thanh Hải",
          "keyAccentLanguage": "Xa_Thanh_Hai"
        }
      ]
    },
    {
      "code": 76,
      "category": null,
      "type": "District",
      "viNameLanguage": "Huyện Bình Lục",
      "location": {
        "lat": 20.5029885,
        "lng": 106.040506
      },
      "postalCode": "180005",
      "keyAccentLanguage": "Huyen_Binh_Luc",
      "wards": [
        {
          "code": 77,
          "type": "Town",
          "location": {
            "lat": 20.4915633,
            "lng": 106.0081819
          },
          "viNameLanguage": "Thị trấn Bình Mỹ",
          "keyAccentLanguage": "Thi_tran_Binh_My"
        },
        {
          "code": 78,
          "type": "Commune",
          "location": {
            "lat": 20.566261,
            "lng": 106.0140586
          },
          "viNameLanguage": "Xã Bình Nghĩa",
          "keyAccentLanguage": "Xa_Binh_Nghia"
        },
        {
          "code": 79,
          "type": "Commune",
          "location": {
            "lat": 20.5473856,
            "lng": 105.9993672
          },
          "viNameLanguage": "Xã Tràng An",
          "keyAccentLanguage": "Xa_Trang_An"
        },
        {
          "code": 80,
          "type": "Commune",
          "location": {
            "lat": 20.5251866,
            "lng": 106.0199355
          },
          "viNameLanguage": "Xã Đồng Du",
          "keyAccentLanguage": "Xa_Dong_Du"
        },
        {
          "code": 81,
          "type": "Commune",
          "location": {
            "lat": 20.5248654,
            "lng": 106.0845931
          },
          "viNameLanguage": "Xã Ngọc Lũ",
          "keyAccentLanguage": "Xa_Ngoc_Lu"
        },
        {
          "code": 82,
          "type": "Commune",
          "location": {
            "lat": 20.5224134,
            "lng": 106.0493226
          },
          "viNameLanguage": "Xã Hưng Công",
          "keyAccentLanguage": "Xa_Hung_Cong"
        },
        {
          "code": 83,
          "type": "Commune",
          "location": {
            "lat": 20.5094818,
            "lng": 106.0023054
          },
          "viNameLanguage": "Xã Đồn Xá",
          "keyAccentLanguage": "Xa_Don_Xa"
        },
        {
          "code": 84,
          "type": "Commune",
          "location": {
            "lat": 20.5088337,
            "lng": 106.1316303
          },
          "viNameLanguage": "Xã An Ninh",
          "keyAccentLanguage": "Xa_An_Ninh"
        },
        {
          "code": 85,
          "type": "Commune",
          "location": {
            "lat": 20.5061382,
            "lng": 106.0988887
          },
          "viNameLanguage": "Xã Bồ Đề",
          "keyAccentLanguage": "Xa_Bo_De"
        },
        {
          "code": 86,
          "type": "Commune",
          "location": {
            "lat": 20.5050505,
            "lng": 106.0493226
          },
          "viNameLanguage": "Xã Bối Cầu",
          "keyAccentLanguage": "Xa_Boi_Cau"
        },
        {
          "code": 87,
          "type": "Commune",
          "location": {
            "lat": 20.4828527,
            "lng": 106.0698963
          },
          "viNameLanguage": "Xã An Nội",
          "keyAccentLanguage": "Xa_An_Noi"
        },
        {
          "code": 88,
          "type": "Commune",
          "location": {
            "lat": 20.4690577,
            "lng": 106.0934117
          },
          "viNameLanguage": "Xã Vũ Bản",
          "keyAccentLanguage": "Xa_Vu_Ban"
        },
        {
          "code": 89,
          "type": "Commune",
          "location": {
            "lat": 20.4714333,
            "lng": 106.0375673
          },
          "viNameLanguage": "Xã Trung Lương",
          "keyAccentLanguage": "Xa_Trung_Luong"
        },
        {
          "code": 90,
          "type": "Commune",
          "location": {
            "lat": 20.4641347,
            "lng": 106.022874
          },
          "viNameLanguage": "Xã An Đổ",
          "keyAccentLanguage": "Xa_An_Do"
        },
        {
          "code": 91,
          "type": "Commune",
          "location": {
            "lat": 20.4631742,
            "lng": 106.0023054
          },
          "viNameLanguage": "Xã La Sơn",
          "keyAccentLanguage": "Xa_La_Son"
        },
        {
          "code": 92,
          "type": "Commune",
          "location": {
            "lat": 20.4400215,
            "lng": 106.0023054
          },
          "viNameLanguage": "Xã Tiêu Động",
          "keyAccentLanguage": "Xa_Tieu_Dong"
        },
        {
          "code": 93,
          "type": "Commune",
          "location": {
            "lat": 20.4189366,
            "lng": 106.0111203
          },
          "viNameLanguage": "Xã An Lão",
          "keyAccentLanguage": "Xa_An_Lao"
        }
      ]
    },
    {
      "code": 94,
      "category": null,
      "type": "District",
      "viNameLanguage": "Huyện Lý Nhân",
      "location": {
        "lat": 20.5553005,
        "lng": 106.099291
      },
      "postalCode": "180006",
      "keyAccentLanguage": "Huyen_Ly_Nhan",
      "wards": [
        {
          "code": 95,
          "type": "Commune",
          "location": {
            "lat": 20.6084494,
            "lng": 105.9964291
          },
          "viNameLanguage": "Xã Hợp Lý",
          "keyAccentLanguage": "Xa_Hop_Ly"
        },
        {
          "code": 96,
          "type": "Commune",
          "location": {
            "lat": 20.6008298,
            "lng": 106.0463837
          },
          "viNameLanguage": "Xã Nguyên Lý",
          "keyAccentLanguage": "Xa_Nguyen_Ly"
        },
        {
          "code": 97,
          "type": "Commune",
          "location": {
            "lat": 20.6009944,
            "lng": 106.0140586
          },
          "viNameLanguage": "Xã Chính Lý",
          "keyAccentLanguage": "Xa_Chinh_Ly"
        },
        {
          "code": 98,
          "type": "Commune",
          "location": {
            "lat": 20.606825,
            "lng": 106.1051705
          },
          "viNameLanguage": "Xã Chân Lý",
          "keyAccentLanguage": "Xa_Chan_Ly"
        },
        {
          "code": 99,
          "type": "Commune",
          "location": {
            "lat": 20.5896404,
            "lng": 106.0728356
          },
          "viNameLanguage": "Xã Đạo Lý",
          "keyAccentLanguage": "Xa_Dao_Ly"
        },
        {
          "code": 100,
          "type": "Commune",
          "location": {
            "lat": 20.5877496,
            "lng": 106.0316898
          },
          "viNameLanguage": "Xã Công Lý",
          "keyAccentLanguage": "Xa_Cong_Ly"
        },
        {
          "code": 101,
          "type": "Commune",
          "location": {
            "lat": 20.5858463,
            "lng": 105.9905529
          },
          "viNameLanguage": "Xã Văn Lý",
          "keyAccentLanguage": "Xa_Van_Ly"
        },
        {
          "code": 102,
          "type": "Commune",
          "location": {
            "lat": 20.57695,
            "lng": 106.0845931
          },
          "viNameLanguage": "Xã Bắc Lý",
          "keyAccentLanguage": "Xa_Bac_Ly"
        },
        {
          "code": 103,
          "type": "Commune",
          "location": {
            "lat": 20.5765638,
            "lng": 106.0581397
          },
          "viNameLanguage": "Xã Đức Lý",
          "keyAccentLanguage": "Xa_Duc_Ly"
        },
        {
          "code": 104,
          "type": "Commune",
          "location": {
            "lat": 20.5631435,
            "lng": 106.1081103
          },
          "viNameLanguage": "Xã Trần Hưng Đạo",
          "keyAccentLanguage": "Xa_Tran_Hung_Dao"
        },
        {
          "code": 105,
          "type": "Town",
          "location": {
            "lat": 20.5588073,
            "lng": 106.0316898
          },
          "viNameLanguage": "Thị trấn Vĩnh Trụ",
          "keyAccentLanguage": "Thi_tran_Vinh_Tru"
        },
        {
          "code": 106,
          "type": "Commune",
          "location": {
            "lat": 20.5560565,
            "lng": 106.1522126
          },
          "viNameLanguage": "Xã Nhân Thịnh",
          "keyAccentLanguage": "Xa_Nhan_Thinh"
        },
        {
          "code": 107,
          "type": "Commune",
          "location": {
            "lat": 20.5461202,
            "lng": 106.0434449
          },
          "viNameLanguage": "Xã Nhân Khang",
          "keyAccentLanguage": "Xa_Nhan_Khang"
        },
        {
          "code": 108,
          "type": "Commune",
          "location": {
            "lat": 20.5372046,
            "lng": 106.1375107
          },
          "viNameLanguage": "Xã Nhân Mỹ",
          "keyAccentLanguage": "Xa_Nhan_My"
        },
        {
          "code": 109,
          "type": "Commune",
          "location": {
            "lat": 20.5422266,
            "lng": 106.0845931
          },
          "viNameLanguage": "Xã Nhân Nghĩa",
          "keyAccentLanguage": "Xa_Nhan_Nghia"
        },
        {
          "code": 110,
          "type": "Commune",
          "location": {
            "lat": 20.541837,
            "lng": 106.0581397
          },
          "viNameLanguage": "Xã Nhân Chính",
          "keyAccentLanguage": "Xa_Nhan_Chinh"
        },
        {
          "code": 111,
          "type": "Commune",
          "location": {
            "lat": 20.5289812,
            "lng": 106.1022307
          },
          "viNameLanguage": "Xã Nhân Bình",
          "keyAccentLanguage": "Xa_Nhan_Binh"
        },
        {
          "code": 112,
          "type": "Commune",
          "location": {
            "lat": 20.5202238,
            "lng": 106.1639749
          },
          "viNameLanguage": "Xã Phú Phúc",
          "keyAccentLanguage": "Xa_Phu_Phuc"
        },
        {
          "code": 113,
          "type": "Commune",
          "location": {
            "lat": 20.5246939,
            "lng": 106.1169299
          },
          "viNameLanguage": "Xã Xuân Khê",
          "keyAccentLanguage": "Xa_Xuan_Khe"
        },
        {
          "code": 114,
          "type": "Commune",
          "location": {
            "lat": 20.4955875,
            "lng": 106.1492721
          },
          "viNameLanguage": "Xã Tiến Thắng",
          "keyAccentLanguage": "Xa_Tien_Thang"
        },
        {
          "code": 115,
          "type": "Commune",
          "location": {
            "lat": 20.4823411,
            "lng": 106.1669156
          },
          "viNameLanguage": "Xã Hòa Hậu",
          "keyAccentLanguage": "Xa_Hoa_Hau"
        }
      ]
    }
  ]
}