{
  "code": 0,
  "type": "City",
  "location": {
    "lat": 18.3420419,
    "lng": 105.8923492
  },
  "postalCode": "23000",
  "keyAccentLanguage": "Ha_Tinh",
  "districtList": [
    {
      "code": 1,
      "category": null,
      "type": "City",
      "viNameLanguage": "Thành phố Hà Tĩnh",
      "location": {
        "lat": 18.3420419,
        "lng": 105.8923492
      },
      "postalCode": "230001",
      "keyAccentLanguage": "Thanh_pho_Ha_Tinh",
      "wards": [
        {
          "code": 2,
          "type": "Ward",
          "location": {
            "lat": 18.3413089,
            "lng": 105.8886012
          },
          "viNameLanguage": "Phường Trần Phú",
          "keyAccentLanguage": "Phuong_Tran_Phu"
        },
        {
          "code": 3,
          "type": "Ward",
          "location": {
            "lat": 18.3339509,
            "lng": 105.9054085
          },
          "viNameLanguage": "Phường Nam Hà",
          "keyAccentLanguage": "Phuong_Nam_Ha"
        },
        {
          "code": 4,
          "type": "Ward",
          "location": {
            "lat": 18.3441458,
            "lng": 105.8973095
          },
          "viNameLanguage": "Phường Bắc Hà",
          "keyAccentLanguage": "Phuong_Bac_Ha"
        },
        {
          "code": 5,
          "type": "Ward",
          "location": {
            "lat": 18.3570196,
            "lng": 105.8921541
          },
          "viNameLanguage": "Phường Nguyễn Du",
          "keyAccentLanguage": "Phuong_Nguyen_Du"
        },
        {
          "code": 6,
          "type": "Ward",
          "location": {
            "lat": 18.3413636,
            "lng": 105.9068373
          },
          "viNameLanguage": "Phường Tân Giang",
          "keyAccentLanguage": "Phuong_Tan_Giang"
        },
        {
          "code": 7,
          "type": "Ward",
          "location": {
            "lat": 18.3212047,
            "lng": 105.9110452
          },
          "viNameLanguage": "Phường Đại Nài",
          "keyAccentLanguage": "Phuong_Dai_Nai"
        },
        {
          "code": 8,
          "type": "Ward",
          "location": {
            "lat": 18.3292729,
            "lng": 105.896559
          },
          "viNameLanguage": "Phường Hà Huy Tập",
          "keyAccentLanguage": "Phuong_Ha_Huy_Tap"
        },
        {
          "code": 9,
          "type": "Commune",
          "location": {
            "lat": 18.3653477,
            "lng": 105.8789403
          },
          "viNameLanguage": "Xã Thạch Trung",
          "keyAccentLanguage": "Xa_Thach_Trung"
        },
        {
          "code": 10,
          "type": "Ward",
          "location": {
            "lat": 18.3533117,
            "lng": 105.9070127
          },
          "viNameLanguage": "Phường Thạch Quý",
          "keyAccentLanguage": "Phuong_Thach_Quy"
        },
        {
          "code": 11,
          "type": "Ward",
          "location": {
            "lat": 18.3391298,
            "lng": 105.8768196
          },
          "viNameLanguage": "Phường Thạch Linh",
          "keyAccentLanguage": "Phuong_Thach_Linh"
        },
        {
          "code": 12,
          "type": "Ward",
          "location": {
            "lat": 18.3320418,
            "lng": 105.9198794
          },
          "viNameLanguage": "Phường Văn Yên",
          "keyAccentLanguage": "Phuong_Van_Yen"
        },
        {
          "code": 13,
          "type": "Commune",
          "location": {
            "lat": 18.3829615,
            "lng": 105.8922647
          },
          "viNameLanguage": "Xã Thạch Hạ",
          "keyAccentLanguage": "Xa_Thach_Ha"
        },
        {
          "code": 14,
          "type": "Commune",
          "location": {
            "lat": 18.3790286,
            "lng": 105.9091039
          },
          "viNameLanguage": "Xã Đồng Môn",
          "keyAccentLanguage": "Xa_Dong_Mon"
        },
        {
          "code": 15,
          "type": "Commune",
          "location": {
            "lat": 18.3564415,
            "lng": 105.9171928
          },
          "viNameLanguage": "Xã Thạch Hưng",
          "keyAccentLanguage": "Xa_Thach_Hung"
        },
        {
          "code": 16,
          "type": "Commune",
          "location": {
            "lat": 18.3141029,
            "lng": 105.9304773
          },
          "viNameLanguage": "Xã Thạch Bình",
          "keyAccentLanguage": "Xa_Thach_Binh"
        }
      ]
    },
    {
      "code": 24,
      "category": null,
      "type": "District",
      "viNameLanguage": "Huyện Hương Sơn",
      "location": {
        "lat": 18.5118006,
        "lng": 105.2662931
      },
      "postalCode": "230002",
      "keyAccentLanguage": "Huyen_Huong_Son",
      "wards": [
        {
          "code": 25,
          "type": "Town",
          "location": {
            "lat": 18.5084158,
            "lng": 105.4238363
          },
          "viNameLanguage": "Thị trấn Phố Châu",
          "keyAccentLanguage": "Thi_tran_Pho_Chau"
        },
        {
          "code": 26,
          "type": "Town",
          "location": {
            "lat": 18.4590804,
            "lng": 105.3101915
          },
          "viNameLanguage": "Thị trấn Tây Sơn",
          "keyAccentLanguage": "Thi_tran_Tay_Son"
        },
        {
          "code": 27,
          "type": "Commune",
          "location": {
            "lat": 18.5792221,
            "lng": 105.2897042
          },
          "viNameLanguage": "Xã Sơn Hồng",
          "keyAccentLanguage": "Xa_Son_Hong"
        },
        {
          "code": 28,
          "type": "Commune",
          "location": {
            "lat": 18.5973283,
            "lng": 105.488828
          },
          "viNameLanguage": "Xã Sơn Tiến",
          "keyAccentLanguage": "Xa_Son_Tien"
        },
        {
          "code": 29,
          "type": "Commune",
          "location": {
            "lat": 18.5608817,
            "lng": 105.3716684
          },
          "viNameLanguage": "Xã Sơn Lâm",
          "keyAccentLanguage": "Xa_Son_Lam"
        },
        {
          "code": 30,
          "type": "Commune",
          "location": {
            "lat": 18.5550378,
            "lng": 105.4419546
          },
          "viNameLanguage": "Xã Sơn Lễ",
          "keyAccentLanguage": "Xa_Son_Le"
        },
        {
          "code": 31,
          "type": "Commune",
          "location": {
            "lat": 18.540147,
            "lng": 105.4126652
          },
          "viNameLanguage": "Xã Sơn Giang",
          "keyAccentLanguage": "Xa_Son_Giang"
        },
        {
          "code": 32,
          "type": "Commune",
          "location": {
            "lat": 18.5238311,
            "lng": 105.3306814
          },
          "viNameLanguage": "Xã Sơn Lĩnh",
          "keyAccentLanguage": "Xa_Son_Linh"
        },
        {
          "code": 33,
          "type": "Commune",
          "location": {
            "lat": 18.5457258,
            "lng": 105.512641
          },
          "viNameLanguage": "Xã An Hòa Thịnh",
          "keyAccentLanguage": "Xa_An_Hoa_Thinh"
        },
        {
          "code": 34,
          "type": "Commune",
          "location": {
            "lat": 18.4472837,
            "lng": 105.348246
          },
          "viNameLanguage": "Xã Sơn Tây",
          "keyAccentLanguage": "Xa_Son_Tay"
        },
        {
          "code": 35,
          "type": "Commune",
          "location": {
            "lat": 18.5316481,
            "lng": 105.4800382
          },
          "viNameLanguage": "Xã Sơn Ninh",
          "keyAccentLanguage": "Xa_Son_Ninh"
        },
        {
          "code": 36,
          "type": "Commune",
          "location": {
            "lat": 18.5244058,
            "lng": 105.4976181
          },
          "viNameLanguage": "Xã Sơn Châu",
          "keyAccentLanguage": "Xa_Son_Chau"
        },
        {
          "code": 37,
          "type": "Commune",
          "location": {
            "lat": 18.5289308,
            "lng": 105.5191795
          },
          "viNameLanguage": "Xã Tân Mỹ Hà",
          "keyAccentLanguage": "Xa_Tan_My_Ha"
        },
        {
          "code": 38,
          "type": "Commune",
          "location": {
            "lat": 18.496851,
            "lng": 105.3775245
          },
          "viNameLanguage": "Xã Quang Diệm",
          "keyAccentLanguage": "Xa_Quang_Diem"
        },
        {
          "code": 39,
          "type": "Commune",
          "location": {
            "lat": 18.5235154,
            "lng": 105.4390254
          },
          "viNameLanguage": "Xã Sơn Trung",
          "keyAccentLanguage": "Xa_Son_Trung"
        },
        {
          "code": 40,
          "type": "Commune",
          "location": {
            "lat": 18.5153013,
            "lng": 105.4683193
          },
          "viNameLanguage": "Xã Sơn Bằng",
          "keyAccentLanguage": "Xa_Son_Bang"
        },
        {
          "code": 41,
          "type": "Commune",
          "location": {
            "lat": 18.5092366,
            "lng": 105.5064087
          },
          "viNameLanguage": "Xã Sơn Bình",
          "keyAccentLanguage": "Xa_Son_Binh"
        },
        {
          "code": 42,
          "type": "Commune",
          "location": {
            "lat": 18.4482007,
            "lng": 105.1960795
          },
          "viNameLanguage": "Xã Sơn Kim 1",
          "keyAccentLanguage": "Xa_Son_Kim_1"
        },
        {
          "code": 43,
          "type": "Commune",
          "location": {
            "lat": 18.3481249,
            "lng": 105.2897042
          },
          "viNameLanguage": "Xã Sơn Kim 2",
          "keyAccentLanguage": "Xa_Son_Kim_2"
        },
        {
          "code": 44,
          "type": "Commune",
          "location": {
            "lat": 18.5046355,
            "lng": 105.5269218
          },
          "viNameLanguage": "Xã Sơn Trà",
          "keyAccentLanguage": "Xa_Son_Tra"
        },
        {
          "code": 45,
          "type": "Commune",
          "location": {
            "lat": 18.5036549,
            "lng": 105.5386447
          },
          "viNameLanguage": "Xã Sơn Long",
          "keyAccentLanguage": "Xa_Son_Long"
        },
        {
          "code": 46,
          "type": "Commune",
          "location": {
            "lat": 18.4911466,
            "lng": 105.4541348
          },
          "viNameLanguage": "Xã Kim Hoa",
          "keyAccentLanguage": "Xa_Kim_Hoa"
        },
        {
          "code": 47,
          "type": "Commune",
          "location": {
            "lat": 18.4718091,
            "lng": 105.4009508
          },
          "viNameLanguage": "Xã Sơn Hàm",
          "keyAccentLanguage": "Xa_Son_Ham"
        },
        {
          "code": 48,
          "type": "Commune",
          "location": {
            "lat": 18.4946395,
            "lng": 105.4390254
          },
          "viNameLanguage": "Xã Sơn Phú",
          "keyAccentLanguage": "Xa_Son_Phu"
        },
        {
          "code": 49,
          "type": "Commune",
          "location": {
            "lat": 18.4573477,
            "lng": 105.4360963
          },
          "viNameLanguage": "Xã Sơn Trường",
          "keyAccentLanguage": "Xa_Son_Truong"
        }
      ]
    },
    {
      "code": 50,
      "category": null,
      "type": "District",
      "viNameLanguage": "Huyện Đức Thọ",
      "location": {
        "lat": 18.5056718,
        "lng": 105.6177942
      },
      "postalCode": "230003",
      "keyAccentLanguage": "Huyen_Duc_Tho",
      "wards": [
        {
          "code": 51,
          "type": "Commune",
          "location": {
            "lat": 18.5659226,
            "lng": 105.656272
          },
          "viNameLanguage": "Xã Quang Vĩnh",
          "keyAccentLanguage": "Xa_Quang_Vinh"
        },
        {
          "code": 52,
          "type": "Commune",
          "location": {
            "lat": 18.5642764,
            "lng": 105.5982851
          },
          "viNameLanguage": "Xã Tùng Châu",
          "keyAccentLanguage": "Xa_Tung_Chau"
        },
        {
          "code": 53,
          "type": "Commune",
          "location": {
            "lat": 18.5478745,
            "lng": 105.5620927
          },
          "viNameLanguage": "Xã Trường Sơn",
          "keyAccentLanguage": "Xa_Truong_Son"
        },
        {
          "code": 54,
          "type": "Commune",
          "location": {
            "lat": 18.544423,
            "lng": 105.6031342
          },
          "viNameLanguage": "Xã Liên Minh",
          "keyAccentLanguage": "Xa_Lien_Minh"
        },
        {
          "code": 55,
          "type": "Commune",
          "location": {
            "lat": 18.5457424,
            "lng": 105.6559158
          },
          "viNameLanguage": "Xã Yên Hồ",
          "keyAccentLanguage": "Xa_Yen_Ho"
        },
        {
          "code": 56,
          "type": "Commune",
          "location": {
            "lat": 18.5274225,
            "lng": 105.5650239
          },
          "viNameLanguage": "Xã Tùng Ảnh",
          "keyAccentLanguage": "Xa_Tung_Anh"
        },
        {
          "code": 57,
          "type": "Commune",
          "location": {
            "lat": 18.5317059,
            "lng": 105.6202063
          },
          "viNameLanguage": "Xã Bùi La Nhân",
          "keyAccentLanguage": "Xa_Bui_La_Nhan"
        },
        {
          "code": 58,
          "type": "Commune",
          "location": {
            "lat": 18.5176879,
            "lng": 105.6668951
          },
          "viNameLanguage": "Xã Thanh Bình Thịnh",
          "keyAccentLanguage": "Xa_Thanh_Binh_Thinh"
        },
        {
          "code": 59,
          "type": "Commune",
          "location": {
            "lat": 18.5056409,
            "lng": 105.6264922
          },
          "viNameLanguage": "Xã Lâm Trung Thủy",
          "keyAccentLanguage": "Xa_Lam_Trung_Thuy"
        },
        {
          "code": 60,
          "type": "Commune",
          "location": {
            "lat": 18.4956924,
            "lng": 105.5714443
          },
          "viNameLanguage": "Xã Hòa Lạc",
          "keyAccentLanguage": "Xa_Hoa_Lac"
        },
        {
          "code": 61,
          "type": "Commune",
          "location": {
            "lat": 18.4981028,
            "lng": 105.5879739
          },
          "viNameLanguage": "Xã Tân Dân",
          "keyAccentLanguage": "Xa_Tan_Dan"
        },
        {
          "code": 62,
          "type": "Commune",
          "location": {
            "lat": 18.4770009,
            "lng": 105.612302
          },
          "viNameLanguage": "Xã An Dũng",
          "keyAccentLanguage": "Xa_An_Dung"
        },
        {
          "code": 63,
          "type": "Commune",
          "location": {
            "lat": 18.4571741,
            "lng": 105.5767493
          },
          "viNameLanguage": "Xã Đức Đồng",
          "keyAccentLanguage": "Xa_Duc_Dong"
        },
        {
          "code": 64,
          "type": "Commune",
          "location": {
            "lat": 18.4423724,
            "lng": 105.5685325
          },
          "viNameLanguage": "Xã Đức Lạng",
          "keyAccentLanguage": "Xa_Duc_Lang"
        },
        {
          "code": 65,
          "type": "Commune",
          "location": {
            "lat": 18.419604,
            "lng": 105.6119301
          },
          "viNameLanguage": "Xã Tân Hương",
          "keyAccentLanguage": "Xa_Tan_Huong"
        }
      ]
    },
    {
      "code": 66,
      "category": null,
      "type": "District",
      "viNameLanguage": "Huyện Vũ Quang",
      "location": {
        "lat": 18.3365936,
        "lng": 105.4302383
      },
      "postalCode": "230004",
      "keyAccentLanguage": "Huyen_Vu_Quang",
      "wards": [
        {
          "code": 67,
          "type": "Commune",
          "location": {
            "lat": 18.4726394,
            "lng": 105.5298525
          },
          "viNameLanguage": "Xã Ân Phú",
          "keyAccentLanguage": "Xa_An_Phu"
        },
        {
          "code": 68,
          "type": "Commune",
          "location": {
            "lat": 18.4495497,
            "lng": 105.5298525
          },
          "viNameLanguage": "Xã Đức Giang",
          "keyAccentLanguage": "Xa_Duc_Giang"
        },
        {
          "code": 69,
          "type": "Commune",
          "location": {
            "lat": 18.4284138,
            "lng": 105.5064087
          },
          "viNameLanguage": "Xã Đức Lĩnh",
          "keyAccentLanguage": "Xa_Duc_Linh"
        },
        {
          "code": 70,
          "type": "Commune",
          "location": {
            "lat": 18.3702611,
            "lng": 105.4419546
          },
          "viNameLanguage": "Xã Thọ Điền",
          "keyAccentLanguage": "Xa_Tho_Dien"
        },
        {
          "code": 71,
          "type": "Commune",
          "location": {
            "lat": 18.3889034,
            "lng": 105.5650239
          },
          "viNameLanguage": "Xã Đức Hương",
          "keyAccentLanguage": "Xa_Duc_Huong"
        },
        {
          "code": 72,
          "type": "Commune",
          "location": {
            "lat": 18.4023991,
            "lng": 105.5415755
          },
          "viNameLanguage": "Xã Đức Bồng",
          "keyAccentLanguage": "Xa_Duc_Bong"
        },
        {
          "code": 73,
          "type": "Commune",
          "location": {
            "lat": 18.3859667,
            "lng": 105.6002024
          },
          "viNameLanguage": "Xã Đức Liên",
          "keyAccentLanguage": "Xa_Duc_Lien"
        },
        {
          "code": 74,
          "type": "Commune",
          "location": {
            "lat": 18.3413554,
            "lng": 105.5122694
          },
          "viNameLanguage": "Xã Hương Minh",
          "keyAccentLanguage": "Xa_Huong_Minh"
        },
        {
          "code": 75,
          "type": "Commune",
          "location": {
            "lat": 18.3355106,
            "lng": 105.5826123
          },
          "viNameLanguage": "Xã Quang Thọ",
          "keyAccentLanguage": "Xa_Quang_Tho"
        }
      ]
    },
    {
      "code": 76,
      "category": null,
      "type": "District",
      "viNameLanguage": "Huyện Nghi Xuân",
      "location": {
        "lat": 18.6642304,
        "lng": 105.7556564
      },
      "postalCode": "230005",
      "keyAccentLanguage": "Huyen_Nghi_Xuan",
      "wards": [
        {
          "code": 77,
          "type": "Town",
          "location": {
            "lat": 18.6405151,
            "lng": 105.7292491
          },
          "viNameLanguage": "Thị trấn Xuân An",
          "keyAccentLanguage": "Thi_tran_Xuan_An"
        },
        {
          "code": 78,
          "type": "Commune",
          "location": {
            "lat": 18.7529406,
            "lng": 105.7644596
          },
          "viNameLanguage": "Xã Xuân Hội",
          "keyAccentLanguage": "Xa_Xuan_Hoi"
        },
        {
          "code": 79,
          "type": "Commune",
          "location": {
            "lat": 18.7221719,
            "lng": 105.7769878
          },
          "viNameLanguage": "Xã Đan Trường",
          "keyAccentLanguage": "Xa_Dan_Truong"
        },
        {
          "code": 80,
          "type": "Commune",
          "location": {
            "lat": 18.6942131,
            "lng": 105.776198
          },
          "viNameLanguage": "Xã Xuân Phổ",
          "keyAccentLanguage": "Xa_Xuan_Pho"
        },
        {
          "code": 81,
          "type": "Commune",
          "location": {
            "lat": 18.6790301,
            "lng": 105.7850022
          },
          "viNameLanguage": "Xã Xuân Hải",
          "keyAccentLanguage": "Xa_Xuan_Hai"
        },
        {
          "code": 82,
          "type": "Commune",
          "location": {
            "lat": 18.6500534,
            "lng": 105.7527221
          },
          "viNameLanguage": "Xã Xuân Giang",
          "keyAccentLanguage": "Xa_Xuan_Giang"
        },
        {
          "code": 83,
          "type": "Town",
          "location": {
            "lat": 18.657455,
            "lng": 105.7673942
          },
          "viNameLanguage": "Thị trấn Tiên Điền",
          "keyAccentLanguage": "Thi_tran_Tien_Dien"
        },
        {
          "code": 84,
          "type": "Commune",
          "location": {
            "lat": 18.658581,
            "lng": 105.7879371
          },
          "viNameLanguage": "Xã Xuân Yên",
          "keyAccentLanguage": "Xa_Xuan_Yen"
        },
        {
          "code": 85,
          "type": "Commune",
          "location": {
            "lat": 18.624964,
            "lng": 105.776198
          },
          "viNameLanguage": "Xã Xuân Mỹ",
          "keyAccentLanguage": "Xa_Xuan_My"
        },
        {
          "code": 86,
          "type": "Commune",
          "location": {
            "lat": 18.6344944,
            "lng": 105.7996769
          },
          "viNameLanguage": "Xã Xuân Thành",
          "keyAccentLanguage": "Xa_Xuan_Thanh"
        },
        {
          "code": 87,
          "type": "Commune",
          "location": {
            "lat": 18.6038878,
            "lng": 105.7527221
          },
          "viNameLanguage": "Xã Xuân Viên",
          "keyAccentLanguage": "Xa_Xuan_Vien"
        },
        {
          "code": 88,
          "type": "Commune",
          "location": {
            "lat": 18.6078856,
            "lng": 105.7057792
          },
          "viNameLanguage": "Xã Xuân Hồng",
          "keyAccentLanguage": "Xa_Xuan_Hong"
        },
        {
          "code": 89,
          "type": "Commune",
          "location": {
            "lat": 18.5893423,
            "lng": 105.7879371
          },
          "viNameLanguage": "Xã Cỗ Đạm",
          "keyAccentLanguage": "Xa_Co_Dam"
        },
        {
          "code": 90,
          "type": "Commune",
          "location": {
            "lat": 18.5978671,
            "lng": 105.8231588
          },
          "viNameLanguage": "Xã Xuân Liên",
          "keyAccentLanguage": "Xa_Xuan_Lien"
        },
        {
          "code": 91,
          "type": "Commune",
          "location": {
            "lat": 18.5712652,
            "lng": 105.7292491
          },
          "viNameLanguage": "Xã Xuân Lĩnh",
          "keyAccentLanguage": "Xa_Xuan_Linh"
        },
        {
          "code": 92,
          "type": "Commune",
          "location": {
            "lat": 18.584801,
            "lng": 105.7057792
          },
          "viNameLanguage": "Xã Xuân Lam",
          "keyAccentLanguage": "Xa_Xuan_Lam"
        },
        {
          "code": 93,
          "type": "Commune",
          "location": {
            "lat": 18.5622521,
            "lng": 105.8349009
          },
          "viNameLanguage": "Xã Cương Gián",
          "keyAccentLanguage": "Xa_Cuong_Gian"
        }
      ]
    },
    {
      "code": 94,
      "category": null,
      "type": "District",
      "viNameLanguage": "Huyện Can Lộc",
      "location": {
        "lat": 18.4516009,
        "lng": 105.7116464
      },
      "postalCode": "230006",
      "keyAccentLanguage": "Huyen_Can_Loc",
      "wards": [
        {
          "code": 95,
          "type": "Town",
          "location": {
            "lat": 18.4529003,
            "lng": 105.7644596
          },
          "viNameLanguage": "Thị trấn Nghèn",
          "keyAccentLanguage": "Thi_tran_Nghen"
        },
        {
          "code": 96,
          "type": "Commune",
          "location": {
            "lat": 18.5043119,
            "lng": 105.7703287
          },
          "viNameLanguage": "Xã Thiên Lộc",
          "keyAccentLanguage": "Xa_Thien_Loc"
        },
        {
          "code": 97,
          "type": "Commune",
          "location": {
            "lat": 18.5075826,
            "lng": 105.7996769
          },
          "viNameLanguage": "Xã Thuần Thiện",
          "keyAccentLanguage": "Xa_Thuan_Thien"
        },
        {
          "code": 98,
          "type": "Commune",
          "location": {
            "lat": 18.4779609,
            "lng": 105.7409852
          },
          "viNameLanguage": "Xã Vượng Lộc",
          "keyAccentLanguage": "Xa_Vuong_Loc"
        },
        {
          "code": 99,
          "type": "Commune",
          "location": {
            "lat": 18.4799481,
            "lng": 105.7175138
          },
          "viNameLanguage": "Xã Thanh Lộc",
          "keyAccentLanguage": "Xa_Thanh_Loc"
        },
        {
          "code": 100,
          "type": "Commune",
          "location": {
            "lat": 18.4923204,
            "lng": 105.6735131
          },
          "viNameLanguage": "Xã Kim Song Trường",
          "keyAccentLanguage": "Xa_Kim_Song_Truong"
        },
        {
          "code": 101,
          "type": "Commune",
          "location": {
            "lat": 18.4539082,
            "lng": 105.6500504
          },
          "viNameLanguage": "Xã Thường Nga",
          "keyAccentLanguage": "Xa_Thuong_Nga"
        },
        {
          "code": 102,
          "type": "Commune",
          "location": {
            "lat": 18.4573141,
            "lng": 105.8143528
          },
          "viNameLanguage": "Xã Tùng Lộc",
          "keyAccentLanguage": "Xa_Tung_Loc"
        },
        {
          "code": 103,
          "type": "Commune",
          "location": {
            "lat": 18.4262193,
            "lng": 105.6705801
          },
          "viNameLanguage": "Xã Phú Lộc",
          "keyAccentLanguage": "Xa_Phu_Loc"
        },
        {
          "code": 104,
          "type": "Commune",
          "location": {
            "lat": 18.4221007,
            "lng": 105.6852455
          },
          "viNameLanguage": "Xã Gia Hanh",
          "keyAccentLanguage": "Xa_Gia_Hanh"
        },
        {
          "code": 105,
          "type": "Commune",
          "location": {
            "lat": 18.436622,
            "lng": 105.7184813
          },
          "viNameLanguage": "Xã Khánh Vĩnh Yên",
          "keyAccentLanguage": "Xa_Khanh_Vinh_Yen"
        },
        {
          "code": 106,
          "type": "Commune",
          "location": {
            "lat": 18.4239105,
            "lng": 105.7321831
          },
          "viNameLanguage": "Xã Trung Lộc",
          "keyAccentLanguage": "Xa_Trung_Loc"
        },
        {
          "code": 107,
          "type": "Commune",
          "location": {
            "lat": 18.4194538,
            "lng": 105.757769
          },
          "viNameLanguage": "Xã Xuân Lộc",
          "keyAccentLanguage": "Xa_Xuan_Loc"
        },
        {
          "code": 108,
          "type": "Commune",
          "location": {
            "lat": 18.3896359,
            "lng": 105.6940454
          },
          "viNameLanguage": "Xã Thượng Lộc",
          "keyAccentLanguage": "Xa_Thuong_Loc"
        },
        {
          "code": 109,
          "type": "Commune",
          "location": {
            "lat": 18.403137,
            "lng": 105.7732633
          },
          "viNameLanguage": "Xã Quang Lộc",
          "keyAccentLanguage": "Xa_Quang_Loc"
        },
        {
          "code": 110,
          "type": "Town",
          "location": {
            "lat": 18.3761263,
            "lng": 105.7175138
          },
          "viNameLanguage": "Thị trấn Đồng Lộc",
          "keyAccentLanguage": "Thi_tran_Dong_Loc"
        },
        {
          "code": 111,
          "type": "Commune",
          "location": {
            "lat": 18.3626162,
            "lng": 105.7409852
          },
          "viNameLanguage": "Xã Mỹ Lộc",
          "keyAccentLanguage": "Xa_My_Loc"
        },
        {
          "code": 112,
          "type": "Commune",
          "location": {
            "lat": 18.3743072,
            "lng": 105.7732633
          },
          "viNameLanguage": "Xã Sơn Lộc",
          "keyAccentLanguage": "Xa_Son_Loc"
        }
      ]
    },
    {
      "code": 113,
      "category": null,
      "type": "District",
      "viNameLanguage": "Huyện Hương Khê",
      "location": {
        "lat": 18.2037562,
        "lng": 105.6412527
      },
      "postalCode": "230007",
      "keyAccentLanguage": "Huyen_Huong_Khe",
      "wards": [
        {
          "code": 114,
          "type": "Commune",
          "location": {
            "lat": 18.3527078,
            "lng": 105.652983
          },
          "viNameLanguage": "Xã Điền Mỹ",
          "keyAccentLanguage": "Xa_Dien_My"
        },
        {
          "code": 115,
          "type": "Commune",
          "location": {
            "lat": 18.3026415,
            "lng": 105.6999122
          },
          "viNameLanguage": "Xã Hà Linh",
          "keyAccentLanguage": "Xa_Ha_Linh"
        },
        {
          "code": 116,
          "type": "Commune",
          "location": {
            "lat": 18.2608098,
            "lng": 105.7175138
          },
          "viNameLanguage": "Xã Hương Thủy",
          "keyAccentLanguage": "Xa_Huong_Thuy"
        },
        {
          "code": 117,
          "type": "Commune",
          "location": {
            "lat": 18.2471036,
            "lng": 105.5357139
          },
          "viNameLanguage": "Xã Hòa Hải",
          "keyAccentLanguage": "Xa_Hoa_Hai"
        },
        {
          "code": 118,
          "type": "Commune",
          "location": {
            "lat": 18.2604364,
            "lng": 105.652983
          },
          "viNameLanguage": "Xã Phúc Đồng",
          "keyAccentLanguage": "Xa_Phuc_Dong"
        },
        {
          "code": 119,
          "type": "Commune",
          "location": {
            "lat": 18.2355985,
            "lng": 105.7486869
          },
          "viNameLanguage": "Xã Hương Giang",
          "keyAccentLanguage": "Xa_Huong_Giang"
        },
        {
          "code": 120,
          "type": "Commune",
          "location": {
            "lat": 18.1869126,
            "lng": 105.7468527
          },
          "viNameLanguage": "Xã Lộc Yên",
          "keyAccentLanguage": "Xa_Loc_Yen"
        },
        {
          "code": 121,
          "type": "Commune",
          "location": {
            "lat": 18.2234885,
            "lng": 105.6119301
          },
          "viNameLanguage": "Xã Hương Bình",
          "keyAccentLanguage": "Xa_Huong_Binh"
        },
        {
          "code": 122,
          "type": "Commune",
          "location": {
            "lat": 18.2059076,
            "lng": 105.6500504
          },
          "viNameLanguage": "Xã Hương Long",
          "keyAccentLanguage": "Xa_Huong_Long"
        },
        {
          "code": 123,
          "type": "Commune",
          "location": {
            "lat": 18.1528942,
            "lng": 105.5591615
          },
          "viNameLanguage": "Xã Phú Gia",
          "keyAccentLanguage": "Xa_Phu_Gia"
        },
        {
          "code": 124,
          "type": "Commune",
          "location": {
            "lat": 18.1935985,
            "lng": 105.6940454
          },
          "viNameLanguage": "Xã Gia Phố",
          "keyAccentLanguage": "Xa_Gia_Pho"
        },
        {
          "code": 125,
          "type": "Commune",
          "location": {
            "lat": 18.1674179,
            "lng": 105.6969788
          },
          "viNameLanguage": "Xã Phú Phong",
          "keyAccentLanguage": "Xa_Phu_Phong"
        },
        {
          "code": 126,
          "type": "Commune",
          "location": {
            "lat": 18.1445601,
            "lng": 105.7292491
          },
          "viNameLanguage": "Xã Hương Đô",
          "keyAccentLanguage": "Xa_Huong_Do"
        },
        {
          "code": 127,
          "type": "Commune",
          "location": {
            "lat": 18.1187458,
            "lng": 105.6236585
          },
          "viNameLanguage": "Xã Hương Vĩnh",
          "keyAccentLanguage": "Xa_Huong_Vinh"
        },
        {
          "code": 128,
          "type": "Commune",
          "location": {
            "lat": 18.1369399,
            "lng": 105.6823124
          },
          "viNameLanguage": "Xã Hương Xuân",
          "keyAccentLanguage": "Xa_Huong_Xuan"
        },
        {
          "code": 129,
          "type": "Commune",
          "location": {
            "lat": 18.1142845,
            "lng": 105.7468535
          },
          "viNameLanguage": "Xã Phúc Trạch",
          "keyAccentLanguage": "Xa_Phuc_Trach"
        },
        {
          "code": 130,
          "type": "Commune",
          "location": {
            "lat": 18.2459683,
            "lng": 105.6881788
          },
          "viNameLanguage": "Xã Hương Trà",
          "keyAccentLanguage": "Xa_Huong_Tra"
        },
        {
          "code": 131,
          "type": "Commune",
          "location": {
            "lat": 18.0834005,
            "lng": 105.8407722
          },
          "viNameLanguage": "Xã Hương Trạch",
          "keyAccentLanguage": "Xa_Huong_Trach"
        },
        {
          "code": 132,
          "type": "Commune",
          "location": {
            "lat": 18.0404391,
            "lng": 105.6647142
          },
          "viNameLanguage": "Xã Hương Lâm",
          "keyAccentLanguage": "Xa_Huong_Lam"
        },
        {
          "code": 133,
          "type": "Commune",
          "location": {
            "lat": 18.0432073,
            "lng": 105.7703287
          },
          "viNameLanguage": "Xã Hương Liên",
          "keyAccentLanguage": "Xa_Huong_Lien"
        }
      ]
    },
    {
      "code": 134,
      "category": null,
      "type": "District",
      "viNameLanguage": "Huyện Thạch Hà",
      "location": {
        "lat": 18.301316,
        "lng": 105.8525154
      },
      "postalCode": "230008",
      "keyAccentLanguage": "Huyen_Thach_Ha",
      "wards": [
        {
          "code": 135,
          "type": "Commune",
          "location": {
            "lat": 18.3478354,
            "lng": 105.762214
          },
          "viNameLanguage": "Xã Ngọc Sơn",
          "keyAccentLanguage": "Xa_Ngoc_Son"
        },
        {
          "code": 136,
          "type": "Commune",
          "location": {
            "lat": 18.4368795,
            "lng": 105.9523622
          },
          "viNameLanguage": "Xã Thạch Hải",
          "keyAccentLanguage": "Xa_Thach_Hai"
        },
        {
          "code": 137,
          "type": "Commune",
          "location": {
            "lat": 18.4222192,
            "lng": 105.8202234
          },
          "viNameLanguage": "Xã Thạch Kênh",
          "keyAccentLanguage": "Xa_Thach_Kenh"
        },
        {
          "code": 138,
          "type": "Commune",
          "location": {
            "lat": 18.4134583,
            "lng": 105.8554513
          },
          "viNameLanguage": "Xã Thạch Sơn",
          "keyAccentLanguage": "Xa_Thach_Son"
        },
        {
          "code": 139,
          "type": "Commune",
          "location": {
            "lat": 18.4069147,
            "lng": 105.7967419
          },
          "viNameLanguage": "Xã Thạch Liên",
          "keyAccentLanguage": "Xa_Thach_Lien"
        },
        {
          "code": 140,
          "type": "Commune",
          "location": {
            "lat": 18.4062909,
            "lng": 105.9366672
          },
          "viNameLanguage": "Xã Đỉnh Bàn",
          "keyAccentLanguage": "Xa_Dinh_Ban"
        },
        {
          "code": 141,
          "type": "Commune",
          "location": {
            "lat": 18.392396,
            "lng": 105.8319653
          },
          "viNameLanguage": "Xã Việt Tiến",
          "keyAccentLanguage": "Xa_Viet_Tien"
        },
        {
          "code": 142,
          "type": "Commune",
          "location": {
            "lat": 18.3802589,
            "lng": 105.9406128
          },
          "viNameLanguage": "Xã Thạch Khê",
          "keyAccentLanguage": "Xa_Thach_Khe"
        },
        {
          "code": 143,
          "type": "Commune",
          "location": {
            "lat": 18.3904004,
            "lng": 105.8554513
          },
          "viNameLanguage": "Xã Thạch Long",
          "keyAccentLanguage": "Xa_Thach_Long"
        },
        {
          "code": 144,
          "type": "Commune",
          "location": {
            "lat": 18.3657201,
            "lng": 105.9758633
          },
          "viNameLanguage": "Xã Thạch Trị",
          "keyAccentLanguage": "Xa_Thach_Tri"
        },
        {
          "code": 145,
          "type": "Commune",
          "location": {
            "lat": 18.3698578,
            "lng": 105.9611748
          },
          "viNameLanguage": "Xã Thạch Lạc",
          "keyAccentLanguage": "Xa_Thach_Lac"
        },
        {
          "code": 146,
          "type": "Commune",
          "location": {
            "lat": 18.3586536,
            "lng": 105.7879371
          },
          "viNameLanguage": "Xã Thạch Ngọc",
          "keyAccentLanguage": "Xa_Thach_Ngoc"
        },
        {
          "code": 147,
          "type": "Commune",
          "location": {
            "lat": 18.3430572,
            "lng": 105.9376756
          },
          "viNameLanguage": "Xã Tượng Sơn",
          "keyAccentLanguage": "Xa_Tuong_Son"
        },
        {
          "code": 148,
          "type": "Commune",
          "location": {
            "lat": 18.3521854,
            "lng": 105.9993672
          },
          "viNameLanguage": "Xã Thạch Văn",
          "keyAccentLanguage": "Xa_Thach_Van"
        },
        {
          "code": 149,
          "type": "Commune",
          "location": {
            "lat": 18.3255865,
            "lng": 105.8383135
          },
          "viNameLanguage": "Xã Lưu Vĩnh Sơn",
          "keyAccentLanguage": "Xa_Luu_Vinh_Son"
        },
        {
          "code": 150,
          "type": "Commune",
          "location": {
            "lat": 18.3321588,
            "lng": 105.9641124
          },
          "viNameLanguage": "Xã Thạch Thắng",
          "keyAccentLanguage": "Xa_Thach_Thang"
        },
        {
          "code": 151,
          "type": "Commune",
          "location": {
            "lat": 18.3207394,
            "lng": 105.8613233
          },
          "viNameLanguage": "Xã Thạch Đài",
          "keyAccentLanguage": "Xa_Thach_Dai"
        },
        {
          "code": 152,
          "type": "Commune",
          "location": {
            "lat": 18.3212584,
            "lng": 105.9905529
          },
          "viNameLanguage": "Xã Thạch Hội",
          "keyAccentLanguage": "Xa_Thach_Hoi"
        },
        {
          "code": 153,
          "type": "Commune",
          "location": {
            "lat": 18.3035933,
            "lng": 105.8936224
          },
          "viNameLanguage": "Xã Tân Lâm Hương",
          "keyAccentLanguage": "Xa_Tan_Lam_Huong"
        },
        {
          "code": 154,
          "type": "Commune",
          "location": {
            "lat": 18.2960503,
            "lng": 105.8466437
          },
          "viNameLanguage": "Xã Thạch Xuân",
          "keyAccentLanguage": "Xa_Thach_Xuan"
        },
        {
          "code": 155,
          "type": "Commune",
          "location": {
            "lat": 18.260484,
            "lng": 105.8583873
          },
          "viNameLanguage": "Xã Nam Điền",
          "keyAccentLanguage": "Xa_Nam_Dien"
        }
      ]
    },
    {
      "code": 156,
      "category": null,
      "type": "District",
      "viNameLanguage": "Huyện Cẩm Xuyên",
      "location": {
        "lat": 18.1721653,
        "lng": 106.0169971
      },
      "postalCode": "230009",
      "keyAccentLanguage": "Huyen_Cam_Xuyen",
      "wards": [
        {
          "code": 157,
          "type": "Town",
          "location": {
            "lat": 18.2760217,
            "lng": 106.0816536
          },
          "viNameLanguage": "Thị trấn Thiên Cầm",
          "keyAccentLanguage": "Thi_tran_Thien_Cam"
        },
        {
          "code": 158,
          "type": "Commune",
          "location": {
            "lat": 18.2459683,
            "lng": 105.6881788
          },
          "viNameLanguage": "Xã Yên Hòa",
          "keyAccentLanguage": "Xa_Yen_Hoa"
        },
        {
          "code": 159,
          "type": "Commune",
          "location": {
            "lat": 18.3010708,
            "lng": 106.0581397
          },
          "viNameLanguage": "Xã Cẩm Dương",
          "keyAccentLanguage": "Xa_Cam_Duong"
        },
        {
          "code": 160,
          "type": "Commune",
          "location": {
            "lat": 18.2975957,
            "lng": 105.9641124
          },
          "viNameLanguage": "Xã Cẩm Bình",
          "keyAccentLanguage": "Xa_Cam_Binh"
        },
        {
          "code": 161,
          "type": "Commune",
          "location": {
            "lat": 18.3026088,
            "lng": 105.9296034
          },
          "viNameLanguage": "Xã Cẩm Vĩnh",
          "keyAccentLanguage": "Xa_Cam_Vinh"
        },
        {
          "code": 162,
          "type": "Commune",
          "location": {
            "lat": 18.2709691,
            "lng": 105.9488058
          },
          "viNameLanguage": "Xã Cẩm Thành",
          "keyAccentLanguage": "Xa_Cam_Thanh"
        },
        {
          "code": 163,
          "type": "Commune",
          "location": {
            "lat": 18.2766848,
            "lng": 105.9729255
          },
          "viNameLanguage": "Xã Cẩm Quang",
          "keyAccentLanguage": "Xa_Cam_Quang"
        },
        {
          "code": 164,
          "type": "Commune",
          "location": {
            "lat": 18.2449859,
            "lng": 105.9053689
          },
          "viNameLanguage": "Xã Cẩm Thạch",
          "keyAccentLanguage": "Xa_Cam_Thach"
        },
        {
          "code": 165,
          "type": "Commune",
          "location": {
            "lat": 18.2683387,
            "lng": 106.1042573
          },
          "viNameLanguage": "Xã Cẩm Nhượng",
          "keyAccentLanguage": "Xa_Cam_Nhuong"
        },
        {
          "code": 166,
          "type": "Commune",
          "location": {
            "lat": 18.260653,
            "lng": 106.0258126
          },
          "viNameLanguage": "Xã Nam Phúc Thăng",
          "keyAccentLanguage": "Xa_Nam_Phuc_Thang"
        },
        {
          "code": 167,
          "type": "Commune",
          "location": {
            "lat": 18.2451256,
            "lng": 105.9376756
          },
          "viNameLanguage": "Xã Cẩm Duệ",
          "keyAccentLanguage": "Xa_Cam_Due"
        },
        {
          "code": 168,
          "type": "Commune",
          "location": {
            "lat": 18.2489543,
            "lng": 106.1286901
          },
          "viNameLanguage": "Xã Cẩm Lĩnh",
          "keyAccentLanguage": "Xa_Cam_Linh"
        },
        {
          "code": 169,
          "type": "Commune",
          "location": {
            "lat": 18.2097078,
            "lng": 105.981739
          },
          "viNameLanguage": "Xã Cẩm Quan",
          "keyAccentLanguage": "Xa_Cam_Quan"
        },
        {
          "code": 170,
          "type": "Commune",
          "location": {
            "lat": 18.2336008,
            "lng": 106.0728356
          },
          "viNameLanguage": "Xã Cẩm Hà",
          "keyAccentLanguage": "Xa_Cam_Ha"
        },
        {
          "code": 171,
          "type": "Commune",
          "location": {
            "lat": 18.2378461,
            "lng": 106.0904721
          },
          "viNameLanguage": "Xã Cẩm Lộc",
          "keyAccentLanguage": "Xa_Cam_Loc"
        },
        {
          "code": 172,
          "type": "Commune",
          "location": {
            "lat": 18.2234781,
            "lng": 106.022874
          },
          "viNameLanguage": "Xã Cẩm Hưng",
          "keyAccentLanguage": "Xa_Cam_Hung"
        },
        {
          "code": 173,
          "type": "Commune",
          "location": {
            "lat": 18.0695597,
            "lng": 106.0052437
          },
          "viNameLanguage": "Xã Cẩm Thịnh",
          "keyAccentLanguage": "Xa_Cam_Thinh"
        },
        {
          "code": 174,
          "type": "Commune",
          "location": {
            "lat": 18.1445957,
            "lng": 105.9347384
          },
          "viNameLanguage": "Xã Cẩm Mỹ",
          "keyAccentLanguage": "Xa_Cam_My"
        },
        {
          "code": 175,
          "type": "Commune",
          "location": {
            "lat": 18.2205976,
            "lng": 106.101806
          },
          "viNameLanguage": "Xã Cẩm Trung",
          "keyAccentLanguage": "Xa_Cam_Trung"
        },
        {
          "code": 176,
          "type": "Commune",
          "location": {
            "lat": 18.1513947,
            "lng": 106.0581397
          },
          "viNameLanguage": "Xã Cẩm Sơn",
          "keyAccentLanguage": "Xa_Cam_Son"
        },
        {
          "code": 177,
          "type": "Commune",
          "location": {
            "lat": 18.1714048,
            "lng": 106.0934117
          },
          "viNameLanguage": "Xã Cẩm Lạc",
          "keyAccentLanguage": "Xa_Cam_Lac"
        },
        {
          "code": 178,
          "type": "Commune",
          "location": {
            "lat": 18.1516271,
            "lng": 106.1228099
          },
          "viNameLanguage": "Xã Cẩm Minh",
          "keyAccentLanguage": "Xa_Cam_Minh"
        }
      ]
    },
    {
      "code": 179,
      "category": null,
      "type": "District",
      "viNameLanguage": "Huyện Kỳ Anh",
      "location": {
        "lat": 18.0640472,
        "lng": 106.2051484
      },
      "postalCode": "2300010",
      "keyAccentLanguage": "Huyen_Ky_Anh",
      "wards": [
        {
          "code": 180,
          "type": "Commune",
          "location": {
            "lat": 18.232379,
            "lng": 106.1875016
          },
          "viNameLanguage": "Xã Kỳ Xuân",
          "keyAccentLanguage": "Xa_Ky_Xuan"
        },
        {
          "code": 181,
          "type": "Commune",
          "location": {
            "lat": 18.2239102,
            "lng": 106.1522126
          },
          "viNameLanguage": "Xã Kỳ Bắc",
          "keyAccentLanguage": "Xa_Ky_Bac"
        },
        {
          "code": 182,
          "type": "Commune",
          "location": {
            "lat": 18.2042851,
            "lng": 106.2463305
          },
          "viNameLanguage": "Xã Kỳ Phú",
          "keyAccentLanguage": "Xa_Ky_Phu"
        },
        {
          "code": 183,
          "type": "Commune",
          "location": {
            "lat": 18.1778763,
            "lng": 106.1522126
          },
          "viNameLanguage": "Xã Kỳ Phong",
          "keyAccentLanguage": "Xa_Ky_Phong"
        },
        {
          "code": 184,
          "type": "Commune",
          "location": {
            "lat": 18.1863498,
            "lng": 106.1875016
          },
          "viNameLanguage": "Xã Kỳ Tiến",
          "keyAccentLanguage": "Xa_Ky_Tien"
        },
        {
          "code": 185,
          "type": "Commune",
          "location": {
            "lat": 18.172818,
            "lng": 106.2110311
          },
          "viNameLanguage": "Xã Kỳ Giang",
          "keyAccentLanguage": "Xa_Ky_Giang"
        },
        {
          "code": 186,
          "type": "Commune",
          "location": {
            "lat": 18.1697736,
            "lng": 106.2463305
          },
          "viNameLanguage": "Xã Kỳ Đồng",
          "keyAccentLanguage": "Xa_Ky_Dong"
        },
        {
          "code": 187,
          "type": "Commune",
          "location": {
            "lat": 18.1562382,
            "lng": 106.2698669
          },
          "viNameLanguage": "Xã Kỳ Khang",
          "keyAccentLanguage": "Xa_Ky_Khang"
        },
        {
          "code": 188,
          "type": "Commune",
          "location": {
            "lat": 18.0955189,
            "lng": 106.2404468
          },
          "viNameLanguage": "Xã Kỳ Văn",
          "keyAccentLanguage": "Xa_Ky_Van"
        },
        {
          "code": 189,
          "type": "Commune",
          "location": {
            "lat": 18.1278134,
            "lng": 106.199266
          },
          "viNameLanguage": "Xã Kỳ Trung",
          "keyAccentLanguage": "Xa_Ky_Trung"
        },
        {
          "code": 190,
          "type": "Commune",
          "location": {
            "lat": 18.1223042,
            "lng": 106.2882566
          },
          "viNameLanguage": "Xã Kỳ Thọ",
          "keyAccentLanguage": "Xa_Ky_Tho"
        },
        {
          "code": 191,
          "type": "Commune",
          "location": {
            "lat": 18.0805809,
            "lng": 106.1463317
          },
          "viNameLanguage": "Xã Kỳ Tây",
          "keyAccentLanguage": "Xa_Ky_Tay"
        },
        {
          "code": 192,
          "type": "Commune",
          "location": {
            "lat": 18.0193962,
            "lng": 106.1261175
          },
          "viNameLanguage": "Xã Kỳ Thượng",
          "keyAccentLanguage": "Xa_Ky_Thuong"
        },
        {
          "code": 193,
          "type": "Commune",
          "location": {
            "lat": 18.0983101,
            "lng": 106.3081194
          },
          "viNameLanguage": "Xã Kỳ Hải",
          "keyAccentLanguage": "Xa_Ky_Hai"
        },
        {
          "code": 194,
          "type": "Commune",
          "location": {
            "lat": 18.1003423,
            "lng": 106.2845785
          },
          "viNameLanguage": "Xã Kỳ Thư",
          "keyAccentLanguage": "Xa_Ky_Thu"
        },
        {
          "code": 195,
          "type": "Commune",
          "location": {
            "lat": 18.0878287,
            "lng": 106.2963486
          },
          "viNameLanguage": "Xã Kỳ Châu",
          "keyAccentLanguage": "Xa_Ky_Chau"
        },
        {
          "code": 196,
          "type": "Commune",
          "location": {
            "lat": 18.0495209,
            "lng": 106.2404468
          },
          "viNameLanguage": "Xã Kỳ Tân",
          "keyAccentLanguage": "Xa_Ky_Tan"
        },
        {
          "code": 197,
          "type": "Commune",
          "location": {
            "lat": 18.0093684,
            "lng": 106.1889721
          },
          "viNameLanguage": "Xã Lâm Hợp",
          "keyAccentLanguage": "Xa_Lam_Hop"
        },
        {
          "code": 198,
          "type": "Commune",
          "location": {
            "lat": 17.9872207,
            "lng": 106.1367757
          },
          "viNameLanguage": "Xã Kỳ Sơn",
          "keyAccentLanguage": "Xa_Ky_Son"
        },
        {
          "code": 199,
          "type": "Commune",
          "location": {
            "lat": 17.9644043,
            "lng": 106.2400791
          },
          "viNameLanguage": "Xã Kỳ Lạc",
          "keyAccentLanguage": "Xa_Ky_Lac"
        }
      ]
    },
    {
      "code": 200,
      "category": null,
      "type": "District",
      "viNameLanguage": "Huyện Lộc Hà",
      "location": {
        "lat": 18.4857759,
        "lng": 105.8525154
      },
      "postalCode": "2300011",
      "keyAccentLanguage": "Huyen_Loc_Ha",
      "wards": [
        {
          "code": 201,
          "type": "Commune",
          "location": {
            "lat": 18.5067104,
            "lng": 105.843708
          },
          "viNameLanguage": "Xã Tân Lộc",
          "keyAccentLanguage": "Xa_Tan_Loc"
        },
        {
          "code": 202,
          "type": "Commune",
          "location": {
            "lat": 18.4940472,
            "lng": 105.8231588
          },
          "viNameLanguage": "Xã Hồng Lộc",
          "keyAccentLanguage": "Xa_Hong_Loc"
        },
        {
          "code": 203,
          "type": "Commune",
          "location": {
            "lat": 18.5120948,
            "lng": 105.8818766
          },
          "viNameLanguage": "Xã Thịnh Lộc",
          "keyAccentLanguage": "Xa_Thinh_Loc"
        },
        {
          "code": 204,
          "type": "Commune",
          "location": {
            "lat": 18.2459683,
            "lng": 105.6881788
          },
          "viNameLanguage": "Xã Bình An",
          "keyAccentLanguage": "Xa_Binh_An"
        },
        {
          "code": 205,
          "type": "Commune",
          "location": {
            "lat": 18.4437837,
            "lng": 105.8378366
          },
          "viNameLanguage": "Xã Ích Hậu",
          "keyAccentLanguage": "Xa_Ich_Hau"
        },
        {
          "code": 206,
          "type": "Commune",
          "location": {
            "lat": 18.456446,
            "lng": 105.8583873
          },
          "viNameLanguage": "Xã Phù Lưu",
          "keyAccentLanguage": "Xa_Phu_Luu"
        },
        {
          "code": 207,
          "type": "Commune",
          "location": {
            "lat": 18.4439137,
            "lng": 105.8701316
          },
          "viNameLanguage": "Xã Thạch Mỹ",
          "keyAccentLanguage": "Xa_Thach_My"
        },
        {
          "code": 208,
          "type": "Commune",
          "location": {
            "lat": 18.4598215,
            "lng": 105.9200531
          },
          "viNameLanguage": "Xã Thạch Kim",
          "keyAccentLanguage": "Xa_Thach_Kim"
        },
        {
          "code": 209,
          "type": "Commune",
          "location": {
            "lat": 18.4387748,
            "lng": 105.896559
          },
          "viNameLanguage": "Xã Thạch Châu",
          "keyAccentLanguage": "Xa_Thach_Chau"
        },
        {
          "code": 210,
          "type": "Commune",
          "location": {
            "lat": 18.4073235,
            "lng": 105.8936224
          },
          "viNameLanguage": "Xã Hộ Độ",
          "keyAccentLanguage": "Xa_Ho_Do"
        },
        {
          "code": 211,
          "type": "Commune",
          "location": {
            "lat": 18.4219838,
            "lng": 105.8906859
          },
          "viNameLanguage": "Xã Mai Phụ",
          "keyAccentLanguage": "Xa_Mai_Phu"
        }
      ]
    },
    {
      "code": 211,
      "category": null,
      "type": "Town",
      "viNameLanguage": "Thị xã Kỳ Anh",
      "location": {
        "lat": 18.0691143,
        "lng": 106.2946142
      },
      "postalCode": "2300012",
      "keyAccentLanguage": "Thi_xa_Ky_Anh",
      "wards": [
        {
          "code": 211,
          "type": "Ward",
          "location": {
            "lat": 18.0196009,
            "lng": 106.3875898
          },
          "viNameLanguage": "Phường Kỳ Long",
          "keyAccentLanguage": "Phuong_Ky_Long"
        },
        {
          "code": 211,
          "type": "Ward",
          "location": {
            "lat": 18.0091997,
            "lng": 106.4081983
          },
          "viNameLanguage": "Phường Kỳ Liên",
          "keyAccentLanguage": "Phuong_Ky_Lien"
        },
        {
          "code": 211,
          "type": "Ward",
          "location": {
            "lat": 17.9873099,
            "lng": 106.4288088
          },
          "viNameLanguage": "Phường Kỳ Phương",
          "keyAccentLanguage": "Phuong_Ky_Phuong"
        },
        {
          "code": 211,
          "type": "Ward",
          "location": {
            "lat": 18.043603,
            "lng": 106.3758145
          },
          "viNameLanguage": "Phường Kỳ Thịnh",
          "keyAccentLanguage": "Phuong_Ky_Thinh"
        },
        {
          "code": 211,
          "type": "Ward",
          "location": {
            "lat": 18.0690259,
            "lng": 106.2946376
          },
          "viNameLanguage": "Phường Sông Trí",
          "keyAccentLanguage": "Phuong_Song_Tri"
        },
        {
          "code": 211,
          "type": "Commune",
          "location": {
            "lat": 18.0926366,
            "lng": 106.3404925
          },
          "viNameLanguage": "Xã Kỳ Hà",
          "keyAccentLanguage": "Xa_Ky_Ha"
        },
        {
          "code": 211,
          "type": "Commune",
          "location": {
            "lat": 18.0224839,
            "lng": 106.287521
          },
          "viNameLanguage": "Xã Kỳ Hoa",
          "keyAccentLanguage": "Xa_Ky_Hoa"
        },
        {
          "code": 211,
          "type": "Commune",
          "location": {
            "lat": 18.0805561,
            "lng": 106.314005
          },
          "viNameLanguage": "Xã Kỳ Hưng",
          "keyAccentLanguage": "Xa_Ky_Hung"
        },
        {
          "code": 211,
          "type": "Commune",
          "location": {
            "lat": 18.0896379,
            "lng": 106.4081983
          },
          "viNameLanguage": "Xã Kỳ Lợi",
          "keyAccentLanguage": "Xa_Ky_Loi"
        },
        {
          "code": 211,
          "type": "Commune",
          "location": {
            "lat": 17.9779922,
            "lng": 106.470036
          },
          "viNameLanguage": "Xã Kỳ Nam",
          "keyAccentLanguage": "Xa_Ky_Nam"
        },
        {
          "code": 211,
          "type": "Commune",
          "location": {
            "lat": 18.141684,
            "lng": 106.3051766
          },
          "viNameLanguage": "Xã Kỳ Ninh",
          "keyAccentLanguage": "Xa_Ky_Ninh"
        }
      ]
    }
  ]
}