{
  "code": 0,
  "type": "City",
  "location": {
    "lat": 10.8230989,
    "lng": 106.6296638
  },
  "postalCode": "70000",
  "keyAccentLanguage": "Ho_Chi_Minh",
  "districtList": [
    {
      "code": 1,
      "category": null,
      "type": "District",
      "viNameLanguage": "Quận 1",
      "location": {
        "lat": 10.7753882,
        "lng": 106.702825
      },
      "postalCode": "700001",
      "keyAccentLanguage": "Quan_1",
      "wards": [
        {
          "code": 2,
          "type": "Ward",
          "location": {
            "lat": 10.7930968,
            "lng": 106.6902951
          },
          "viNameLanguage": "Phường Tân Định",
          "keyAccentLanguage": "Phuong_Tan_Dinh"
        },
        {
          "code": 3,
          "type": "Ward",
          "location": {
            "lat": 10.7878843,
            "lng": 106.6984026
          },
          "viNameLanguage": "Phường Đa Kao",
          "keyAccentLanguage": "Phuong_Da_Kao"
        },
        {
          "code": 4,
          "type": "Ward",
          "location": {
            "lat": 10.7808334,
            "lng": 106.702825
          },
          "viNameLanguage": "Phường Bến Nghé",
          "keyAccentLanguage": "Phuong_Ben_Nghe"
        },
        {
          "code": 5,
          "type": "Ward",
          "location": {
            "lat": 10.7735994,
            "lng": 106.6944173
          },
          "viNameLanguage": "Phường Bến Thành",
          "keyAccentLanguage": "Phuong_Ben_Thanh"
        },
        {
          "code": 6,
          "type": "Ward",
          "location": {
            "lat": 10.7693846,
            "lng": 106.7006138
          },
          "viNameLanguage": "Phường Nguyễn Thái Bình",
          "keyAccentLanguage": "Phuong_Nguyen_Thai_Binh"
        },
        {
          "code": 7,
          "type": "Ward",
          "location": {
            "lat": 10.7658855,
            "lng": 106.6908105
          },
          "viNameLanguage": "Phường Phạm Ngũ Lão",
          "keyAccentLanguage": "Phuong_Pham_Ngu_Lao"
        },
        {
          "code": 8,
          "type": "Ward",
          "location": {
            "lat": 10.7655446,
            "lng": 106.6961914
          },
          "viNameLanguage": "Phường Cầu Ông Lãnh",
          "keyAccentLanguage": "Phuong_Cau_Ong_Lanh"
        },
        {
          "code": 9,
          "type": "Ward",
          "location": {
            "lat": 10.7616235,
            "lng": 106.6932433
          },
          "viNameLanguage": "Phường Cô Giang",
          "keyAccentLanguage": "Phuong_Co_Giang"
        },
        {
          "code": 10,
          "type": "Ward",
          "location": {
            "lat": 10.7640301,
            "lng": 106.68661
          },
          "viNameLanguage": "Phường Nguyễn Cư Trinh",
          "keyAccentLanguage": "Phuong_Nguyen_Cu_Trinh"
        },
        {
          "code": 11,
          "type": "Ward",
          "location": {
            "lat": 10.7577834,
            "lng": 106.6888211
          },
          "viNameLanguage": "Phường Cầu Kho",
          "keyAccentLanguage": "Phuong_Cau_Kho"
        }
      ]
    },
    {
      "code": 12,
      "category": null,
      "type": "District",
      "viNameLanguage": "Quận 12",
      "location": {
        "lat": 10.8731803,
        "lng": 106.6586052
      },
      "postalCode": "700002",
      "keyAccentLanguage": "Quan_12",
      "wards": [
        {
          "code": 13,
          "type": "Ward",
          "location": {
            "lat": 10.8758121,
            "lng": 106.6751731
          },
          "viNameLanguage": "Phường Thạnh Xuân",
          "keyAccentLanguage": "Phuong_Thanh_Xuan"
        },
        {
          "code": 14,
          "type": "Ward",
          "location": {
            "lat": 10.870554,
            "lng": 106.6850482
          },
          "viNameLanguage": "Phường Thạnh Lộc",
          "keyAccentLanguage": "Phuong_Thanh_Loc"
        },
        {
          "code": 15,
          "type": "Ward",
          "location": {
            "lat": 10.8827031,
            "lng": 106.6400646
          },
          "viNameLanguage": "Phường Hiệp Thành",
          "keyAccentLanguage": "Phuong_Hiep_Thanh"
        },
        {
          "code": 16,
          "type": "Ward",
          "location": {
            "lat": 10.8760697,
            "lng": 106.6556575
          },
          "viNameLanguage": "Phường Thới An",
          "keyAccentLanguage": "Phuong_Thoi_An"
        },
        {
          "code": 17,
          "type": "Ward",
          "location": {
            "lat": 10.866797,
            "lng": 106.6261831
          },
          "viNameLanguage": "Phường Tân Chánh Hiệp",
          "keyAccentLanguage": "Phuong_Tan_Chanh_Hiep"
        },
        {
          "code": 18,
          "type": "Ward",
          "location": {
            "lat": 10.8552311,
            "lng": 106.6926615
          },
          "viNameLanguage": "Phường An Phú Đông",
          "keyAccentLanguage": "Phuong_An_Phu_Dong"
        },
        {
          "code": 19,
          "type": "Ward",
          "location": {
            "lat": 10.8603672,
            "lng": 106.6438673
          },
          "viNameLanguage": "Phường Tân Thới Hiệp",
          "keyAccentLanguage": "Phuong_Tan_Thoi_Hiep"
        },
        {
          "code": 20,
          "type": "Ward",
          "location": {
            "lat": 10.856544,
            "lng": 106.6143944
          },
          "viNameLanguage": "Phường Trung Mỹ Tây",
          "keyAccentLanguage": "Phuong_Trung_My_Tay"
        },
        {
          "code": 21,
          "type": "Ward",
          "location": {
            "lat": 10.854286,
            "lng": 106.630604
          },
          "viNameLanguage": "Phường Tân Hưng Thuận",
          "keyAccentLanguage": "Phuong_Tan_Hung_Thuan"
        },
        {
          "code": 22,
          "type": "Ward",
          "location": {
            "lat": 10.8433839,
            "lng": 106.630604
          },
          "viNameLanguage": "Phường Đông Hưng Thuận",
          "keyAccentLanguage": "Phuong_Dong_Hung_Thuan"
        },
        {
          "code": 23,
          "type": "Ward",
          "location": {
            "lat": 10.8297309,
            "lng": 106.6152105
          },
          "viNameLanguage": "Phường Tân Thới Nhất",
          "keyAccentLanguage": "Phuong_Tan_Thoi_Nhat"
        }
      ]
    },
    {
      "code": 24,
      "category": null,
      "type": "District",
      "viNameLanguage": "Quận Gò Vấp",
      "location": {
        "lat": 10.8398228,
        "lng": 106.6703963
      },
      "postalCode": "700003",
      "keyAccentLanguage": "Quan_Go_Vap",
      "wards": [
        {
          "code": 25,
          "type": "Ward",
          "location": {
            "lat": 10.8230989,
            "lng": 106.6296638
          },
          "viNameLanguage": "Phường 15",
          "keyAccentLanguage": "Phuong_15"
        },
        {
          "code": 26,
          "type": "Ward",
          "location": {
            "lat": 10.8230989,
            "lng": 106.6296638
          },
          "viNameLanguage": "Phường 13",
          "keyAccentLanguage": "Phuong_13"
        },
        {
          "code": 27,
          "type": "Ward",
          "location": {
            "lat": 10.8409406,
            "lng": 106.6748181
          },
          "viNameLanguage": "Phường 17",
          "keyAccentLanguage": "Phuong_17"
        },
        {
          "code": 28,
          "type": "Ward",
          "location": {
            "lat": 10.8384391,
            "lng": 106.6816998
          },
          "viNameLanguage": "Phường 6",
          "keyAccentLanguage": "Phuong_6"
        },
        {
          "code": 29,
          "type": "Ward",
          "location": {
            "lat": 10.7251488,
            "lng": 106.6261831
          },
          "viNameLanguage": "Phường 16",
          "keyAccentLanguage": "Phuong_16"
        },
        {
          "code": 30,
          "type": "Ward",
          "location": {
            "lat": 10.7754981,
            "lng": 106.6763197
          },
          "viNameLanguage": "Phường 12",
          "keyAccentLanguage": "Phuong_12"
        },
        {
          "code": 31,
          "type": "Ward",
          "location": {
            "lat": 10.8230989,
            "lng": 106.6296638
          },
          "viNameLanguage": "Phường 14",
          "keyAccentLanguage": "Phuong_14"
        },
        {
          "code": 32,
          "type": "Ward",
          "location": {
            "lat": 10.8230989,
            "lng": 106.6296638
          },
          "viNameLanguage": "Phường 10",
          "keyAccentLanguage": "Phuong_10"
        },
        {
          "code": 33,
          "type": "Ward",
          "location": {
            "lat": 10.8230989,
            "lng": 106.6296638
          },
          "viNameLanguage": "Phường 5",
          "keyAccentLanguage": "Phuong_5"
        },
        {
          "code": 34,
          "type": "Ward",
          "location": {
            "lat": 10.8230989,
            "lng": 106.6296638
          },
          "viNameLanguage": "Phường 7",
          "keyAccentLanguage": "Phuong_7"
        },
        {
          "code": 35,
          "type": "Ward",
          "location": {
            "lat": 10.8230989,
            "lng": 106.6296638
          },
          "viNameLanguage": "Phường 4",
          "keyAccentLanguage": "Phuong_4"
        },
        {
          "code": 36,
          "type": "Ward",
          "location": {
            "lat": 10.8230989,
            "lng": 106.6296638
          },
          "viNameLanguage": "Phường 1",
          "keyAccentLanguage": "Phuong_1"
        },
        {
          "code": 37,
          "type": "Ward",
          "location": {
            "lat": 10.8084065,
            "lng": 106.6736384
          },
          "viNameLanguage": "Phường 9",
          "keyAccentLanguage": "Phuong_9"
        },
        {
          "code": 38,
          "type": "Ward",
          "location": {
            "lat": 10.8230989,
            "lng": 106.6296638
          },
          "viNameLanguage": "Phường 8",
          "keyAccentLanguage": "Phuong_8"
        },
        {
          "code": 39,
          "type": "Ward",
          "location": {
            "lat": 10.8230989,
            "lng": 106.6296638
          },
          "viNameLanguage": "Phường 11",
          "keyAccentLanguage": "Phuong_11"
        },
        {
          "code": 40,
          "type": "Ward",
          "location": {
            "lat": 10.8230989,
            "lng": 106.6296638
          },
          "viNameLanguage": "Phường 3",
          "keyAccentLanguage": "Phuong_3"
        }
      ]
    },
    {
      "code": 41,
      "category": null,
      "type": "District",
      "viNameLanguage": "Quận Bình Thạnh",
      "location": {
        "lat": 10.8160719,
        "lng": 106.7057733
      },
      "postalCode": "700004",
      "keyAccentLanguage": "Quan_Binh_Thanh",
      "wards": [
        {
          "code": 42,
          "type": "Ward",
          "location": {
            "lat": 10.8230989,
            "lng": 106.6296638
          },
          "viNameLanguage": "Phường 13",
          "keyAccentLanguage": "Phuong_13"
        },
        {
          "code": 43,
          "type": "Ward",
          "location": {
            "lat": 10.8230989,
            "lng": 106.6296638
          },
          "viNameLanguage": "Phường 11",
          "keyAccentLanguage": "Phuong_11"
        },
        {
          "code": 44,
          "type": "Ward",
          "location": {
            "lat": 10.8166994,
            "lng": 106.7190411
          },
          "viNameLanguage": "Phường 27",
          "keyAccentLanguage": "Phuong_27"
        },
        {
          "code": 45,
          "type": "Ward",
          "location": {
            "lat": 10.8131851,
            "lng": 106.7087216
          },
          "viNameLanguage": "Phường 26",
          "keyAccentLanguage": "Phuong_26"
        },
        {
          "code": 46,
          "type": "Ward",
          "location": {
            "lat": 10.7754981,
            "lng": 106.6763197
          },
          "viNameLanguage": "Phường 12",
          "keyAccentLanguage": "Phuong_12"
        },
        {
          "code": 47,
          "type": "Ward",
          "location": {
            "lat": 10.8040973,
            "lng": 106.7153875
          },
          "viNameLanguage": "Phường 25",
          "keyAccentLanguage": "Phuong_25"
        },
        {
          "code": 48,
          "type": "Ward",
          "location": {
            "lat": 10.8230989,
            "lng": 106.6296638
          },
          "viNameLanguage": "Phường 5",
          "keyAccentLanguage": "Phuong_5"
        },
        {
          "code": 49,
          "type": "Ward",
          "location": {
            "lat": 10.8230989,
            "lng": 106.6296638
          },
          "viNameLanguage": "Phường 7",
          "keyAccentLanguage": "Phuong_7"
        },
        {
          "code": 50,
          "type": "Ward",
          "location": {
            "lat": 10.8058993,
            "lng": 106.7050362
          },
          "viNameLanguage": "Phường 24",
          "keyAccentLanguage": "Phuong_24"
        },
        {
          "code": 51,
          "type": "Ward",
          "location": {
            "lat": 10.8384391,
            "lng": 106.6816998
          },
          "viNameLanguage": "Phường 6",
          "keyAccentLanguage": "Phuong_6"
        },
        {
          "code": 52,
          "type": "Ward",
          "location": {
            "lat": 10.8230989,
            "lng": 106.6296638
          },
          "viNameLanguage": "Phường 14",
          "keyAccentLanguage": "Phuong_14"
        },
        {
          "code": 53,
          "type": "Ward",
          "location": {
            "lat": 10.8230989,
            "lng": 106.6296638
          },
          "viNameLanguage": "Phường 15",
          "keyAccentLanguage": "Phuong_15"
        },
        {
          "code": 54,
          "type": "Ward",
          "location": {
            "lat": 10.8114607,
            "lng": 106.6659746
          },
          "viNameLanguage": "Phường 2",
          "keyAccentLanguage": "Phuong_2"
        },
        {
          "code": 55,
          "type": "Ward",
          "location": {
            "lat": 10.8230989,
            "lng": 106.6296638
          },
          "viNameLanguage": "Phường 1",
          "keyAccentLanguage": "Phuong_1"
        },
        {
          "code": 56,
          "type": "Ward",
          "location": {
            "lat": 10.8230989,
            "lng": 106.6296638
          },
          "viNameLanguage": "Phường 3",
          "keyAccentLanguage": "Phuong_3"
        },
        {
          "code": 57,
          "type": "Ward",
          "location": {
            "lat": 10.8409406,
            "lng": 106.6748181
          },
          "viNameLanguage": "Phường 17",
          "keyAccentLanguage": "Phuong_17"
        },
        {
          "code": 58,
          "type": "Ward",
          "location": {
            "lat": 10.7957882,
            "lng": 106.7117589
          },
          "viNameLanguage": "Phường 21",
          "keyAccentLanguage": "Phuong_21"
        },
        {
          "code": 59,
          "type": "Ward",
          "location": {
            "lat": 10.7921907,
            "lng": 106.7190411
          },
          "viNameLanguage": "Phường 22",
          "keyAccentLanguage": "Phuong_22"
        },
        {
          "code": 60,
          "type": "Ward",
          "location": {
            "lat": 10.7899564,
            "lng": 106.7101958
          },
          "viNameLanguage": "Phường 19",
          "keyAccentLanguage": "Phuong_19"
        },
        {
          "code": 61,
          "type": "Ward",
          "location": {
            "lat": 10.825006,
            "lng": 106.7411559
          },
          "viNameLanguage": "Phường 28",
          "keyAccentLanguage": "Phuong_28"
        }
      ]
    },
    {
      "code": 62,
      "category": null,
      "type": "District",
      "viNameLanguage": "Quận Tân Bình",
      "location": {
        "lat": 10.8084306,
        "lng": 106.6468148
      },
      "postalCode": "700005",
      "keyAccentLanguage": "Quan_Tan_Binh",
      "wards": [
        {
          "code": 63,
          "type": "Ward",
          "location": {
            "lat": 10.8114607,
            "lng": 106.6659746
          },
          "viNameLanguage": "Phường 2",
          "keyAccentLanguage": "Phuong_2"
        },
        {
          "code": 64,
          "type": "Ward",
          "location": {
            "lat": 10.8230989,
            "lng": 106.6296638
          },
          "viNameLanguage": "Phường 4",
          "keyAccentLanguage": "Phuong_4"
        },
        {
          "code": 65,
          "type": "Ward",
          "location": {
            "lat": 10.7754981,
            "lng": 106.6763197
          },
          "viNameLanguage": "Phường 12",
          "keyAccentLanguage": "Phuong_12"
        },
        {
          "code": 66,
          "type": "Ward",
          "location": {
            "lat": 10.8230989,
            "lng": 106.6296638
          },
          "viNameLanguage": "Phường 13",
          "keyAccentLanguage": "Phuong_13"
        },
        {
          "code": 67,
          "type": "Ward",
          "location": {
            "lat": 10.8230989,
            "lng": 106.6296638
          },
          "viNameLanguage": "Phường 1",
          "keyAccentLanguage": "Phuong_1"
        },
        {
          "code": 68,
          "type": "Ward",
          "location": {
            "lat": 10.8230989,
            "lng": 106.6296638
          },
          "viNameLanguage": "Phường 3",
          "keyAccentLanguage": "Phuong_3"
        },
        {
          "code": 69,
          "type": "Ward",
          "location": {
            "lat": 10.8230989,
            "lng": 106.6296638
          },
          "viNameLanguage": "Phường 11",
          "keyAccentLanguage": "Phuong_11"
        },
        {
          "code": 70,
          "type": "Ward",
          "location": {
            "lat": 10.8230989,
            "lng": 106.6296638
          },
          "viNameLanguage": "Phường 7",
          "keyAccentLanguage": "Phuong_7"
        },
        {
          "code": 71,
          "type": "Ward",
          "location": {
            "lat": 10.8230989,
            "lng": 106.6296638
          },
          "viNameLanguage": "Phường 5",
          "keyAccentLanguage": "Phuong_5"
        },
        {
          "code": 72,
          "type": "Ward",
          "location": {
            "lat": 10.8230989,
            "lng": 106.6296638
          },
          "viNameLanguage": "Phường 10",
          "keyAccentLanguage": "Phuong_10"
        },
        {
          "code": 73,
          "type": "Ward",
          "location": {
            "lat": 10.8384391,
            "lng": 106.6816998
          },
          "viNameLanguage": "Phường 6",
          "keyAccentLanguage": "Phuong_6"
        },
        {
          "code": 74,
          "type": "Ward",
          "location": {
            "lat": 10.8230989,
            "lng": 106.6296638
          },
          "viNameLanguage": "Phường 8",
          "keyAccentLanguage": "Phuong_8"
        },
        {
          "code": 75,
          "type": "Ward",
          "location": {
            "lat": 10.8084065,
            "lng": 106.6736384
          },
          "viNameLanguage": "Phường 9",
          "keyAccentLanguage": "Phuong_9"
        },
        {
          "code": 76,
          "type": "Ward",
          "location": {
            "lat": 10.8230989,
            "lng": 106.6296638
          },
          "viNameLanguage": "Phường 14",
          "keyAccentLanguage": "Phuong_14"
        },
        {
          "code": 77,
          "type": "Ward",
          "location": {
            "lat": 10.8230989,
            "lng": 106.6296638
          },
          "viNameLanguage": "Phường 15",
          "keyAccentLanguage": "Phuong_15"
        }
      ]
    },
    {
      "code": 78,
      "category": null,
      "type": "District",
      "viNameLanguage": "Quận Tân Phú",
      "location": {
        "lat": 10.7988311,
        "lng": 106.6232359
      },
      "postalCode": "700006",
      "keyAccentLanguage": "Quan_Tan_Phu",
      "wards": [
        {
          "code": 79,
          "type": "Ward",
          "location": {
            "lat": 10.7997882,
            "lng": 106.630604
          },
          "viNameLanguage": "Phường Tân Sơn Nhì",
          "keyAccentLanguage": "Phuong_Tan_Son_Nhi"
        },
        {
          "code": 80,
          "type": "Ward",
          "location": {
            "lat": 10.8151411,
            "lng": 106.6243021
          },
          "viNameLanguage": "Phường Tây Thạnh",
          "keyAccentLanguage": "Phuong_Tay_Thanh"
        },
        {
          "code": 81,
          "type": "Ward",
          "location": {
            "lat": 10.8060467,
            "lng": 106.615868
          },
          "viNameLanguage": "Phường Sơn Kỳ",
          "keyAccentLanguage": "Phuong_Son_Ky"
        },
        {
          "code": 82,
          "type": "Ward",
          "location": {
            "lat": 10.7409584,
            "lng": 106.7101958
          },
          "viNameLanguage": "Phường Tân Quý",
          "keyAccentLanguage": "Phuong_Tan_Quy"
        },
        {
          "code": 83,
          "type": "Ward",
          "location": {
            "lat": 10.7914545,
            "lng": 106.6335513
          },
          "viNameLanguage": "Phường Tân Thành",
          "keyAccentLanguage": "Phuong_Tan_Thanh"
        },
        {
          "code": 84,
          "type": "Ward",
          "location": {
            "lat": 10.7863307,
            "lng": 106.6276567
          },
          "viNameLanguage": "Phường Phú Thọ Hòa",
          "keyAccentLanguage": "Phuong_Phu_Tho_Hoa"
        },
        {
          "code": 85,
          "type": "Ward",
          "location": {
            "lat": 10.7785654,
            "lng": 106.6317792
          },
          "viNameLanguage": "Phường Phú Thạnh",
          "keyAccentLanguage": "Phuong_Phu_Thanh"
        },
        {
          "code": 86,
          "type": "Ward",
          "location": {
            "lat": 10.7773512,
            "lng": 106.6423935
          },
          "viNameLanguage": "Phường Phú Trung",
          "keyAccentLanguage": "Phuong_Phu_Trung"
        },
        {
          "code": 87,
          "type": "Ward",
          "location": {
            "lat": 10.7783152,
            "lng": 106.6372355
          },
          "viNameLanguage": "Phường Hòa Thạnh",
          "keyAccentLanguage": "Phuong_Hoa_Thanh"
        },
        {
          "code": 88,
          "type": "Ward",
          "location": {
            "lat": 10.7727133,
            "lng": 106.6276567
          },
          "viNameLanguage": "Phường Hiệp Tân",
          "keyAccentLanguage": "Phuong_Hiep_Tan"
        },
        {
          "code": 89,
          "type": "Ward",
          "location": {
            "lat": 10.76294,
            "lng": 106.6320777
          },
          "viNameLanguage": "Phường Tân Thới Hòa",
          "keyAccentLanguage": "Phuong_Tan_Thoi_Hoa"
        }
      ]
    },
    {
      "code": 90,
      "category": null,
      "type": "District",
      "viNameLanguage": "Quận Phú Nhuận",
      "location": {
        "lat": 10.7984723,
        "lng": 106.67924
      },
      "postalCode": "700007",
      "keyAccentLanguage": "Quan_Phu_Nhuan",
      "wards": [
        {
          "code": 91,
          "type": "Ward",
          "location": {
            "lat": 10.8230989,
            "lng": 106.6296638
          },
          "viNameLanguage": "Phường 4",
          "keyAccentLanguage": "Phuong_4"
        },
        {
          "code": 92,
          "type": "Ward",
          "location": {
            "lat": 10.8230989,
            "lng": 106.6296638
          },
          "viNameLanguage": "Phường 5",
          "keyAccentLanguage": "Phuong_5"
        },
        {
          "code": 93,
          "type": "Ward",
          "location": {
            "lat": 10.8084065,
            "lng": 106.6736384
          },
          "viNameLanguage": "Phường 9",
          "keyAccentLanguage": "Phuong_9"
        },
        {
          "code": 94,
          "type": "Ward",
          "location": {
            "lat": 10.8230989,
            "lng": 106.6296638
          },
          "viNameLanguage": "Phường 7",
          "keyAccentLanguage": "Phuong_7"
        },
        {
          "code": 95,
          "type": "Ward",
          "location": {
            "lat": 10.8230989,
            "lng": 106.6296638
          },
          "viNameLanguage": "Phường 3",
          "keyAccentLanguage": "Phuong_3"
        },
        {
          "code": 96,
          "type": "Ward",
          "location": {
            "lat": 10.8230989,
            "lng": 106.6296638
          },
          "viNameLanguage": "Phường 1",
          "keyAccentLanguage": "Phuong_1"
        },
        {
          "code": 97,
          "type": "Ward",
          "location": {
            "lat": 10.8114607,
            "lng": 106.6659746
          },
          "viNameLanguage": "Phường 2",
          "keyAccentLanguage": "Phuong_2"
        },
        {
          "code": 98,
          "type": "Ward",
          "location": {
            "lat": 10.8230989,
            "lng": 106.6296638
          },
          "viNameLanguage": "Phường 8",
          "keyAccentLanguage": "Phuong_8"
        },
        {
          "code": 99,
          "type": "Ward",
          "location": {
            "lat": 10.8230989,
            "lng": 106.6296638
          },
          "viNameLanguage": "Phường 15",
          "keyAccentLanguage": "Phuong_15"
        },
        {
          "code": 100,
          "type": "Ward",
          "location": {
            "lat": 10.8230989,
            "lng": 106.6296638
          },
          "viNameLanguage": "Phường 10",
          "keyAccentLanguage": "Phuong_10"
        },
        {
          "code": 101,
          "type": "Ward",
          "location": {
            "lat": 10.8230989,
            "lng": 106.6296638
          },
          "viNameLanguage": "Phường 11",
          "keyAccentLanguage": "Phuong_11"
        },
        {
          "code": 102,
          "type": "Ward",
          "location": {
            "lat": 10.8409406,
            "lng": 106.6748181
          },
          "viNameLanguage": "Phường 17",
          "keyAccentLanguage": "Phuong_17"
        },
        {
          "code": 103,
          "type": "Ward",
          "location": {
            "lat": 10.8230989,
            "lng": 106.6296638
          },
          "viNameLanguage": "Phường 13",
          "keyAccentLanguage": "Phuong_13"
        }
      ]
    },
    {
      "code": 104,
      "category": null,
      "type": "City",
      "viNameLanguage": "Thành phố Thủ Đức",
      "location": {
        "lat": 10.8576945,
        "lng": 106.7411559
      },
      "postalCode": "700008",
      "keyAccentLanguage": "Thanh_pho_Thu_Duc",
      "wards": [
        {
          "code": 105,
          "type": "Ward",
          "location": {
            "lat": 10.8804079,
            "lng": 106.773595
          },
          "viNameLanguage": "Phường Linh Xuân",
          "keyAccentLanguage": "Phuong_Linh_Xuan"
        },
        {
          "code": 106,
          "type": "Ward",
          "location": {
            "lat": 10.8830404,
            "lng": 106.7264125
          },
          "viNameLanguage": "Phường Bình Chiểu",
          "keyAccentLanguage": "Phuong_Binh_Chieu"
        },
        {
          "code": 107,
          "type": "Ward",
          "location": {
            "lat": 10.8589054,
            "lng": 106.7778529
          },
          "viNameLanguage": "Phường Linh Trung",
          "keyAccentLanguage": "Phuong_Linh_Trung"
        },
        {
          "code": 108,
          "type": "Ward",
          "location": {
            "lat": 10.8676413,
            "lng": 106.7337841
          },
          "viNameLanguage": "Phường Tam Bình",
          "keyAccentLanguage": "Phuong_Tam_Binh"
        },
        {
          "code": 109,
          "type": "Ward",
          "location": {
            "lat": 10.8551341,
            "lng": 106.7382072
          },
          "viNameLanguage": "Phường Tam Phú",
          "keyAccentLanguage": "Phuong_Tam_Phu"
        },
        {
          "code": 110,
          "type": "Ward",
          "location": {
            "lat": 10.8448276,
            "lng": 106.7181888
          },
          "viNameLanguage": "Phường Hiệp Bình Phước",
          "keyAccentLanguage": "Phuong_Hiep_Binh_Phuoc"
        },
        {
          "code": 111,
          "type": "Ward",
          "location": {
            "lat": 10.8339953,
            "lng": 106.7264125
          },
          "viNameLanguage": "Phường Hiệp Bình Chánh",
          "keyAccentLanguage": "Phuong_Hiep_Binh_Chanh"
        },
        {
          "code": 112,
          "type": "Ward",
          "location": {
            "lat": 10.8538209,
            "lng": 106.7617984
          },
          "viNameLanguage": "Phường Linh Chiểu",
          "keyAccentLanguage": "Phuong_Linh_Chieu"
        },
        {
          "code": 113,
          "type": "Ward",
          "location": {
            "lat": 10.8560516,
            "lng": 106.7535475
          },
          "viNameLanguage": "Phường Linh Tây",
          "keyAccentLanguage": "Phuong_Linh_Tay"
        },
        {
          "code": 114,
          "type": "Ward",
          "location": {
            "lat": 10.843909,
            "lng": 106.7441048
          },
          "viNameLanguage": "Phường Linh Đông",
          "keyAccentLanguage": "Phuong_Linh_Dong"
        },
        {
          "code": 115,
          "type": "Ward",
          "location": {
            "lat": 10.8467644,
            "lng": 106.7662221
          },
          "viNameLanguage": "Phường Bình Thọ",
          "keyAccentLanguage": "Phuong_Binh_Tho"
        },
        {
          "code": 116,
          "type": "Ward",
          "location": {
            "lat": 10.834344,
            "lng": 106.7557257
          },
          "viNameLanguage": "Phường Trường Thọ",
          "keyAccentLanguage": "Phuong_Truong_Tho"
        },
        {
          "code": 117,
          "type": "Ward",
          "location": {
            "lat": 10.8909381,
            "lng": 106.8283134
          },
          "viNameLanguage": "Phường Long Bình",
          "keyAccentLanguage": "Phuong_Long_Binh"
        },
        {
          "code": 118,
          "type": "Ward",
          "location": {
            "lat": 10.8421949,
            "lng": 106.8237374
          },
          "viNameLanguage": "Phường Long Thạnh Mỹ",
          "keyAccentLanguage": "Phuong_Long_Thanh_My"
        },
        {
          "code": 119,
          "type": "Ward",
          "location": {
            "lat": 10.8569656,
            "lng": 106.8030892
          },
          "viNameLanguage": "Phường Tân Phú",
          "keyAccentLanguage": "Phuong_Tan_Phu"
        },
        {
          "code": 120,
          "type": "Ward",
          "location": {
            "lat": 10.8486667,
            "lng": 106.7809682
          },
          "viNameLanguage": "Phường Hiệp Phú",
          "keyAccentLanguage": "Phuong_Hiep_Phu"
        },
        {
          "code": 121,
          "type": "Ward",
          "location": {
            "lat": 10.8409534,
            "lng": 106.79719
          },
          "viNameLanguage": "Phường Tăng Nhơn Phú A",
          "keyAccentLanguage": "Phuong_Tang_Nhon_Phu_A"
        },
        {
          "code": 122,
          "type": "Ward",
          "location": {
            "lat": 10.8307175,
            "lng": 106.7853922
          },
          "viNameLanguage": "Phường Tăng Nhơn Phú B",
          "keyAccentLanguage": "Phuong_Tang_Nhon_Phu_B"
        },
        {
          "code": 123,
          "type": "Ward",
          "location": {
            "lat": 10.8175473,
            "lng": 106.7803469
          },
          "viNameLanguage": "Phường Phước Long B",
          "keyAccentLanguage": "Phuong_Phuoc_Long_B"
        },
        {
          "code": 124,
          "type": "Ward",
          "location": {
            "lat": 10.8224164,
            "lng": 106.763273
          },
          "viNameLanguage": "Phường Phước Long A",
          "keyAccentLanguage": "Phuong_Phuoc_Long_A"
        },
        {
          "code": 125,
          "type": "Ward",
          "location": {
            "lat": 10.8117526,
            "lng": 106.8325872
          },
          "viNameLanguage": "Phường Trường Thạnh",
          "keyAccentLanguage": "Phuong_Truong_Thanh"
        },
        {
          "code": 126,
          "type": "Ward",
          "location": {
            "lat": 10.8075496,
            "lng": 106.8591387
          },
          "viNameLanguage": "Phường Long Phước",
          "keyAccentLanguage": "Phuong_Long_Phuoc"
        },
        {
          "code": 127,
          "type": "Ward",
          "location": {
            "lat": 10.7986358,
            "lng": 106.8237374
          },
          "viNameLanguage": "Phường Long Trường",
          "keyAccentLanguage": "Phuong_Long_Truong"
        },
        {
          "code": 128,
          "type": "Ward",
          "location": {
            "lat": 10.8137558,
            "lng": 106.7721204
          },
          "viNameLanguage": "Phường Phước Bình",
          "keyAccentLanguage": "Phuong_Phuoc_Binh"
        },
        {
          "code": 129,
          "type": "Ward",
          "location": {
            "lat": 10.7890603,
            "lng": 106.8001396
          },
          "viNameLanguage": "Phường Phú Hữu",
          "keyAccentLanguage": "Phuong_Phu_Huu"
        },
        {
          "code": 130,
          "type": "Ward",
          "location": {
            "lat": 10.8081623,
            "lng": 106.7307036
          },
          "viNameLanguage": "Phường Thảo Điền",
          "keyAccentLanguage": "Phuong_Thao_Dien"
        },
        {
          "code": 131,
          "type": "Ward",
          "location": {
            "lat": 10.8019128,
            "lng": 106.7647475
          },
          "viNameLanguage": "Phường An Phú",
          "keyAccentLanguage": "Phuong_An_Phu"
        },
        {
          "code": 132,
          "type": "Ward",
          "location": {
            "lat": 10.7852158,
            "lng": 106.7294715
          },
          "viNameLanguage": "Phường An Khánh",
          "keyAccentLanguage": "Phuong_An_Khanh"
        },
        {
          "code": 133,
          "type": "Ward",
          "location": {
            "lat": 10.78204,
            "lng": 106.7794935
          },
          "viNameLanguage": "Phường Bình Trưng Đông",
          "keyAccentLanguage": "Phuong_Binh_Trung_Dong"
        },
        {
          "code": 134,
          "type": "Ward",
          "location": {
            "lat": 10.7844627,
            "lng": 106.7603239
          },
          "viNameLanguage": "Phường Bình Trưng Tây",
          "keyAccentLanguage": "Phuong_Binh_Trung_Tay"
        },
        {
          "code": 135,
          "type": "Ward",
          "location": {
            "lat": 10.7708268,
            "lng": 106.7853922
          },
          "viNameLanguage": "Phường Cát Lái",
          "keyAccentLanguage": "Phuong_Cat_Lai"
        },
        {
          "code": 136,
          "type": "Ward",
          "location": {
            "lat": 10.7583621,
            "lng": 106.7647475
          },
          "viNameLanguage": "Phường Thạnh Mỹ Lợi",
          "keyAccentLanguage": "Phuong_Thanh_My_Loi"
        },
        {
          "code": 137,
          "type": "Ward",
          "location": {
            "lat": 10.7631993,
            "lng": 106.7264125
          },
          "viNameLanguage": "Phường An Lợi Đông",
          "keyAccentLanguage": "Phuong_An_Loi_Dong"
        },
        {
          "code": 138,
          "type": "Ward",
          "location": {
            "lat": 10.7732956,
            "lng": 106.7160926
          },
          "viNameLanguage": "Phường Thủ Thiêm",
          "keyAccentLanguage": "Phuong_Thu_Thiem"
        }
      ]
    },
    {
      "code": 139,
      "category": null,
      "type": "District",
      "viNameLanguage": "Quận 3",
      "location": {
        "lat": 10.7818082,
        "lng": 106.685136
      },
      "postalCode": "700009",
      "keyAccentLanguage": "Quan_3",
      "wards": [
        {
          "code": 140,
          "type": "Ward",
          "location": {
            "lat": 10.8230989,
            "lng": 106.6296638
          },
          "viNameLanguage": "Phường 14",
          "keyAccentLanguage": "Phuong_14"
        },
        {
          "code": 141,
          "type": "Ward",
          "location": {
            "lat": 10.7754981,
            "lng": 106.6763197
          },
          "viNameLanguage": "Phường 12",
          "keyAccentLanguage": "Phuong_12"
        },
        {
          "code": 142,
          "type": "Ward",
          "location": {
            "lat": 10.8230989,
            "lng": 106.6296638
          },
          "viNameLanguage": "Phường 11",
          "keyAccentLanguage": "Phuong_11"
        },
        {
          "code": 143,
          "type": "Ward",
          "location": {
            "lat": 10.8230989,
            "lng": 106.6296638
          },
          "viNameLanguage": "Phường 13",
          "keyAccentLanguage": "Phuong_13"
        },
        {
          "code": 144,
          "type": "Ward",
          "location": {
            "lat": 10.7830885,
            "lng": 106.68661
          },
          "viNameLanguage": "Phường Võ Thị Sáu",
          "keyAccentLanguage": "Phuong_Vo_Thi_Sau"
        },
        {
          "code": 145,
          "type": "Ward",
          "location": {
            "lat": 10.8084065,
            "lng": 106.6736384
          },
          "viNameLanguage": "Phường 9",
          "keyAccentLanguage": "Phuong_9"
        },
        {
          "code": 146,
          "type": "Ward",
          "location": {
            "lat": 10.8230989,
            "lng": 106.6296638
          },
          "viNameLanguage": "Phường 10",
          "keyAccentLanguage": "Phuong_10"
        },
        {
          "code": 147,
          "type": "Ward",
          "location": {
            "lat": 10.8230989,
            "lng": 106.6296638
          },
          "viNameLanguage": "Phường 4",
          "keyAccentLanguage": "Phuong_4"
        },
        {
          "code": 148,
          "type": "Ward",
          "location": {
            "lat": 10.8230989,
            "lng": 106.6296638
          },
          "viNameLanguage": "Phường 5",
          "keyAccentLanguage": "Phuong_5"
        },
        {
          "code": 149,
          "type": "Ward",
          "location": {
            "lat": 10.8230989,
            "lng": 106.6296638
          },
          "viNameLanguage": "Phường 3",
          "keyAccentLanguage": "Phuong_3"
        },
        {
          "code": 150,
          "type": "Ward",
          "location": {
            "lat": 10.8114607,
            "lng": 106.6659746
          },
          "viNameLanguage": "Phường 2",
          "keyAccentLanguage": "Phuong_2"
        },
        {
          "code": 151,
          "type": "Ward",
          "location": {
            "lat": 10.8230989,
            "lng": 106.6296638
          },
          "viNameLanguage": "Phường 1",
          "keyAccentLanguage": "Phuong_1"
        }
      ]
    },
    {
      "code": 152,
      "category": null,
      "type": "District",
      "viNameLanguage": "Quận 10",
      "location": {
        "lat": 10.7718901,
        "lng": 106.6674484
      },
      "postalCode": "7000010",
      "keyAccentLanguage": "Quan_10",
      "wards": [
        {
          "code": 153,
          "type": "Ward",
          "location": {
            "lat": 10.8230989,
            "lng": 106.6296638
          },
          "viNameLanguage": "Phường 15",
          "keyAccentLanguage": "Phuong_15"
        },
        {
          "code": 154,
          "type": "Ward",
          "location": {
            "lat": 10.8230989,
            "lng": 106.6296638
          },
          "viNameLanguage": "Phường 13",
          "keyAccentLanguage": "Phuong_13"
        },
        {
          "code": 155,
          "type": "Ward",
          "location": {
            "lat": 10.8230989,
            "lng": 106.6296638
          },
          "viNameLanguage": "Phường 14",
          "keyAccentLanguage": "Phuong_14"
        },
        {
          "code": 156,
          "type": "Ward",
          "location": {
            "lat": 10.7754981,
            "lng": 106.6763197
          },
          "viNameLanguage": "Phường 12",
          "keyAccentLanguage": "Phuong_12"
        },
        {
          "code": 157,
          "type": "Ward",
          "location": {
            "lat": 10.8230989,
            "lng": 106.6296638
          },
          "viNameLanguage": "Phường 11",
          "keyAccentLanguage": "Phuong_11"
        },
        {
          "code": 158,
          "type": "Ward",
          "location": {
            "lat": 10.8230989,
            "lng": 106.6296638
          },
          "viNameLanguage": "Phường 10",
          "keyAccentLanguage": "Phuong_10"
        },
        {
          "code": 159,
          "type": "Ward",
          "location": {
            "lat": 10.8084065,
            "lng": 106.6736384
          },
          "viNameLanguage": "Phường 9",
          "keyAccentLanguage": "Phuong_9"
        },
        {
          "code": 160,
          "type": "Ward",
          "location": {
            "lat": 10.8230989,
            "lng": 106.6296638
          },
          "viNameLanguage": "Phường 1",
          "keyAccentLanguage": "Phuong_1"
        },
        {
          "code": 161,
          "type": "Ward",
          "location": {
            "lat": 10.8230989,
            "lng": 106.6296638
          },
          "viNameLanguage": "Phường 8",
          "keyAccentLanguage": "Phuong_8"
        },
        {
          "code": 162,
          "type": "Ward",
          "location": {
            "lat": 10.8114607,
            "lng": 106.6659746
          },
          "viNameLanguage": "Phường 2",
          "keyAccentLanguage": "Phuong_2"
        },
        {
          "code": 163,
          "type": "Ward",
          "location": {
            "lat": 10.8230989,
            "lng": 106.6296638
          },
          "viNameLanguage": "Phường 4",
          "keyAccentLanguage": "Phuong_4"
        },
        {
          "code": 164,
          "type": "Ward",
          "location": {
            "lat": 10.8230989,
            "lng": 106.6296638
          },
          "viNameLanguage": "Phường 7",
          "keyAccentLanguage": "Phuong_7"
        },
        {
          "code": 165,
          "type": "Ward",
          "location": {
            "lat": 10.8230989,
            "lng": 106.6296638
          },
          "viNameLanguage": "Phường 5",
          "keyAccentLanguage": "Phuong_5"
        },
        {
          "code": 166,
          "type": "Ward",
          "location": {
            "lat": 10.8384391,
            "lng": 106.6816998
          },
          "viNameLanguage": "Phường 6",
          "keyAccentLanguage": "Phuong_6"
        }
      ]
    },
    {
      "code": 167,
      "category": null,
      "type": "District",
      "viNameLanguage": "Quận 11",
      "location": {
        "lat": 10.7619703,
        "lng": 106.6497623
      },
      "postalCode": "7000011",
      "keyAccentLanguage": "Quan_11",
      "wards": [
        {
          "code": 168,
          "type": "Ward",
          "location": {
            "lat": 10.8230989,
            "lng": 106.6296638
          },
          "viNameLanguage": "Phường 15",
          "keyAccentLanguage": "Phuong_15"
        },
        {
          "code": 169,
          "type": "Ward",
          "location": {
            "lat": 10.8230989,
            "lng": 106.6296638
          },
          "viNameLanguage": "Phường 5",
          "keyAccentLanguage": "Phuong_5"
        },
        {
          "code": 170,
          "type": "Ward",
          "location": {
            "lat": 10.8230989,
            "lng": 106.6296638
          },
          "viNameLanguage": "Phường 14",
          "keyAccentLanguage": "Phuong_14"
        },
        {
          "code": 171,
          "type": "Ward",
          "location": {
            "lat": 10.8230989,
            "lng": 106.6296638
          },
          "viNameLanguage": "Phường 11",
          "keyAccentLanguage": "Phuong_11"
        },
        {
          "code": 172,
          "type": "Ward",
          "location": {
            "lat": 10.8230989,
            "lng": 106.6296638
          },
          "viNameLanguage": "Phường 3",
          "keyAccentLanguage": "Phuong_3"
        },
        {
          "code": 173,
          "type": "Ward",
          "location": {
            "lat": 10.8230989,
            "lng": 106.6296638
          },
          "viNameLanguage": "Phường 10",
          "keyAccentLanguage": "Phuong_10"
        },
        {
          "code": 174,
          "type": "Ward",
          "location": {
            "lat": 10.8230989,
            "lng": 106.6296638
          },
          "viNameLanguage": "Phường 13",
          "keyAccentLanguage": "Phuong_13"
        },
        {
          "code": 175,
          "type": "Ward",
          "location": {
            "lat": 10.8230989,
            "lng": 106.6296638
          },
          "viNameLanguage": "Phường 8",
          "keyAccentLanguage": "Phuong_8"
        },
        {
          "code": 176,
          "type": "Ward",
          "location": {
            "lat": 10.8084065,
            "lng": 106.6736384
          },
          "viNameLanguage": "Phường 9",
          "keyAccentLanguage": "Phuong_9"
        },
        {
          "code": 177,
          "type": "Ward",
          "location": {
            "lat": 10.7754981,
            "lng": 106.6763197
          },
          "viNameLanguage": "Phường 12",
          "keyAccentLanguage": "Phuong_12"
        },
        {
          "code": 178,
          "type": "Ward",
          "location": {
            "lat": 10.8230989,
            "lng": 106.6296638
          },
          "viNameLanguage": "Phường 7",
          "keyAccentLanguage": "Phuong_7"
        },
        {
          "code": 179,
          "type": "Ward",
          "location": {
            "lat": 10.8384391,
            "lng": 106.6816998
          },
          "viNameLanguage": "Phường 6",
          "keyAccentLanguage": "Phuong_6"
        },
        {
          "code": 180,
          "type": "Ward",
          "location": {
            "lat": 10.8230989,
            "lng": 106.6296638
          },
          "viNameLanguage": "Phường 4",
          "keyAccentLanguage": "Phuong_4"
        },
        {
          "code": 181,
          "type": "Ward",
          "location": {
            "lat": 10.8230989,
            "lng": 106.6296638
          },
          "viNameLanguage": "Phường 1",
          "keyAccentLanguage": "Phuong_1"
        },
        {
          "code": 182,
          "type": "Ward",
          "location": {
            "lat": 10.8114607,
            "lng": 106.6659746
          },
          "viNameLanguage": "Phường 2",
          "keyAccentLanguage": "Phuong_2"
        },
        {
          "code": 183,
          "type": "Ward",
          "location": {
            "lat": 10.7251488,
            "lng": 106.6261831
          },
          "viNameLanguage": "Phường 16",
          "keyAccentLanguage": "Phuong_16"
        }
      ]
    },
    {
      "code": 184,
      "category": null,
      "type": "District",
      "viNameLanguage": "Quận 4",
      "location": {
        "lat": 10.7590547,
        "lng": 106.702825
      },
      "postalCode": "7000012",
      "keyAccentLanguage": "Quan_4",
      "wards": [
        {
          "code": 185,
          "type": "Ward",
          "location": {
            "lat": 10.8230989,
            "lng": 106.6296638
          },
          "viNameLanguage": "Phường 13",
          "keyAccentLanguage": "Phuong_13"
        },
        {
          "code": 186,
          "type": "Ward",
          "location": {
            "lat": 10.8084065,
            "lng": 106.6736384
          },
          "viNameLanguage": "Phường 9",
          "keyAccentLanguage": "Phuong_9"
        },
        {
          "code": 187,
          "type": "Ward",
          "location": {
            "lat": 10.8384391,
            "lng": 106.6816998
          },
          "viNameLanguage": "Phường 6",
          "keyAccentLanguage": "Phuong_6"
        },
        {
          "code": 188,
          "type": "Ward",
          "location": {
            "lat": 10.8230989,
            "lng": 106.6296638
          },
          "viNameLanguage": "Phường 8",
          "keyAccentLanguage": "Phuong_8"
        },
        {
          "code": 189,
          "type": "Ward",
          "location": {
            "lat": 10.8230989,
            "lng": 106.6296638
          },
          "viNameLanguage": "Phường 10",
          "keyAccentLanguage": "Phuong_10"
        },
        {
          "code": 190,
          "type": "Ward",
          "location": {
            "lat": 10.7596852,
            "lng": 106.7160926
          },
          "viNameLanguage": "Phường 18",
          "keyAccentLanguage": "Phuong_18"
        },
        {
          "code": 191,
          "type": "Ward",
          "location": {
            "lat": 10.8230989,
            "lng": 106.6296638
          },
          "viNameLanguage": "Phường 14",
          "keyAccentLanguage": "Phuong_14"
        },
        {
          "code": 192,
          "type": "Ward",
          "location": {
            "lat": 10.8230989,
            "lng": 106.6296638
          },
          "viNameLanguage": "Phường 4",
          "keyAccentLanguage": "Phuong_4"
        },
        {
          "code": 193,
          "type": "Ward",
          "location": {
            "lat": 10.8230989,
            "lng": 106.6296638
          },
          "viNameLanguage": "Phường 3",
          "keyAccentLanguage": "Phuong_3"
        },
        {
          "code": 194,
          "type": "Ward",
          "location": {
            "lat": 10.7251488,
            "lng": 106.6261831
          },
          "viNameLanguage": "Phường 16",
          "keyAccentLanguage": "Phuong_16"
        },
        {
          "code": 195,
          "type": "Ward",
          "location": {
            "lat": 10.8114607,
            "lng": 106.6659746
          },
          "viNameLanguage": "Phường 2",
          "keyAccentLanguage": "Phuong_2"
        },
        {
          "code": 196,
          "type": "Ward",
          "location": {
            "lat": 10.8230989,
            "lng": 106.6296638
          },
          "viNameLanguage": "Phường 15",
          "keyAccentLanguage": "Phuong_15"
        },
        {
          "code": 197,
          "type": "Ward",
          "location": {
            "lat": 10.8230989,
            "lng": 106.6296638
          },
          "viNameLanguage": "Phường 1",
          "keyAccentLanguage": "Phuong_1"
        }
      ]
    },
    {
      "code": 198,
      "category": null,
      "type": "District",
      "viNameLanguage": "Quận 5",
      "location": {
        "lat": 10.7555548,
        "lng": 106.6674484
      },
      "postalCode": "7000013",
      "keyAccentLanguage": "Quan_5",
      "wards": [
        {
          "code": 199,
          "type": "Ward",
          "location": {
            "lat": 10.8230989,
            "lng": 106.6296638
          },
          "viNameLanguage": "Phường 4",
          "keyAccentLanguage": "Phuong_4"
        },
        {
          "code": 200,
          "type": "Ward",
          "location": {
            "lat": 10.8084065,
            "lng": 106.6736384
          },
          "viNameLanguage": "Phường 9",
          "keyAccentLanguage": "Phuong_9"
        },
        {
          "code": 201,
          "type": "Ward",
          "location": {
            "lat": 10.8230989,
            "lng": 106.6296638
          },
          "viNameLanguage": "Phường 3",
          "keyAccentLanguage": "Phuong_3"
        },
        {
          "code": 202,
          "type": "Ward",
          "location": {
            "lat": 10.7754981,
            "lng": 106.6763197
          },
          "viNameLanguage": "Phường 12",
          "keyAccentLanguage": "Phuong_12"
        },
        {
          "code": 203,
          "type": "Ward",
          "location": {
            "lat": 10.8114607,
            "lng": 106.6659746
          },
          "viNameLanguage": "Phường 2",
          "keyAccentLanguage": "Phuong_2"
        },
        {
          "code": 204,
          "type": "Ward",
          "location": {
            "lat": 10.8230989,
            "lng": 106.6296638
          },
          "viNameLanguage": "Phường 8",
          "keyAccentLanguage": "Phuong_8"
        },
        {
          "code": 205,
          "type": "Ward",
          "location": {
            "lat": 10.8230989,
            "lng": 106.6296638
          },
          "viNameLanguage": "Phường 7",
          "keyAccentLanguage": "Phuong_7"
        },
        {
          "code": 206,
          "type": "Ward",
          "location": {
            "lat": 10.8230989,
            "lng": 106.6296638
          },
          "viNameLanguage": "Phường 1",
          "keyAccentLanguage": "Phuong_1"
        },
        {
          "code": 207,
          "type": "Ward",
          "location": {
            "lat": 10.8230989,
            "lng": 106.6296638
          },
          "viNameLanguage": "Phường 11",
          "keyAccentLanguage": "Phuong_11"
        },
        {
          "code": 208,
          "type": "Ward",
          "location": {
            "lat": 10.8230989,
            "lng": 106.6296638
          },
          "viNameLanguage": "Phường 14",
          "keyAccentLanguage": "Phuong_14"
        },
        {
          "code": 209,
          "type": "Ward",
          "location": {
            "lat": 10.8230989,
            "lng": 106.6296638
          },
          "viNameLanguage": "Phường 5",
          "keyAccentLanguage": "Phuong_5"
        },
        {
          "code": 210,
          "type": "Ward",
          "location": {
            "lat": 10.8384391,
            "lng": 106.6816998
          },
          "viNameLanguage": "Phường 6",
          "keyAccentLanguage": "Phuong_6"
        },
        {
          "code": 211,
          "type": "Ward",
          "location": {
            "lat": 10.8230989,
            "lng": 106.6296638
          },
          "viNameLanguage": "Phường 10",
          "keyAccentLanguage": "Phuong_10"
        },
        {
          "code": 212,
          "type": "Ward",
          "location": {
            "lat": 10.8230989,
            "lng": 106.6296638
          },
          "viNameLanguage": "Phường 13",
          "keyAccentLanguage": "Phuong_13"
        }
      ]
    },
    {
      "code": 213,
      "category": null,
      "type": "District",
      "viNameLanguage": "Quận 6",
      "location": {
        "lat": 10.7437202,
        "lng": 106.635025
      },
      "postalCode": "7000014",
      "keyAccentLanguage": "Quan_6",
      "wards": [
        {
          "code": 214,
          "type": "Ward",
          "location": {
            "lat": 10.8230989,
            "lng": 106.6296638
          },
          "viNameLanguage": "Phường 14",
          "keyAccentLanguage": "Phuong_14"
        },
        {
          "code": 215,
          "type": "Ward",
          "location": {
            "lat": 10.8230989,
            "lng": 106.6296638
          },
          "viNameLanguage": "Phường 13",
          "keyAccentLanguage": "Phuong_13"
        },
        {
          "code": 216,
          "type": "Ward",
          "location": {
            "lat": 10.8084065,
            "lng": 106.6736384
          },
          "viNameLanguage": "Phường 9",
          "keyAccentLanguage": "Phuong_9"
        },
        {
          "code": 217,
          "type": "Ward",
          "location": {
            "lat": 10.8384391,
            "lng": 106.6816998
          },
          "viNameLanguage": "Phường 6",
          "keyAccentLanguage": "Phuong_6"
        },
        {
          "code": 218,
          "type": "Ward",
          "location": {
            "lat": 10.7754981,
            "lng": 106.6763197
          },
          "viNameLanguage": "Phường 12",
          "keyAccentLanguage": "Phuong_12"
        },
        {
          "code": 219,
          "type": "Ward",
          "location": {
            "lat": 10.8230989,
            "lng": 106.6296638
          },
          "viNameLanguage": "Phường 5",
          "keyAccentLanguage": "Phuong_5"
        },
        {
          "code": 220,
          "type": "Ward",
          "location": {
            "lat": 10.8230989,
            "lng": 106.6296638
          },
          "viNameLanguage": "Phường 11",
          "keyAccentLanguage": "Phuong_11"
        },
        {
          "code": 221,
          "type": "Ward",
          "location": {
            "lat": 10.8114607,
            "lng": 106.6659746
          },
          "viNameLanguage": "Phường 2",
          "keyAccentLanguage": "Phuong_2"
        },
        {
          "code": 222,
          "type": "Ward",
          "location": {
            "lat": 10.8230989,
            "lng": 106.6296638
          },
          "viNameLanguage": "Phường 1",
          "keyAccentLanguage": "Phuong_1"
        },
        {
          "code": 223,
          "type": "Ward",
          "location": {
            "lat": 10.8230989,
            "lng": 106.6296638
          },
          "viNameLanguage": "Phường 4",
          "keyAccentLanguage": "Phuong_4"
        },
        {
          "code": 224,
          "type": "Ward",
          "location": {
            "lat": 10.8230989,
            "lng": 106.6296638
          },
          "viNameLanguage": "Phường 8",
          "keyAccentLanguage": "Phuong_8"
        },
        {
          "code": 225,
          "type": "Ward",
          "location": {
            "lat": 10.8230989,
            "lng": 106.6296638
          },
          "viNameLanguage": "Phường 3",
          "keyAccentLanguage": "Phuong_3"
        },
        {
          "code": 226,
          "type": "Ward",
          "location": {
            "lat": 10.8230989,
            "lng": 106.6296638
          },
          "viNameLanguage": "Phường 7",
          "keyAccentLanguage": "Phuong_7"
        },
        {
          "code": 227,
          "type": "Ward",
          "location": {
            "lat": 10.8230989,
            "lng": 106.6296638
          },
          "viNameLanguage": "Phường 10",
          "keyAccentLanguage": "Phuong_10"
        }
      ]
    },
    {
      "code": 228,
      "category": null,
      "type": "District",
      "viNameLanguage": "Quận 8",
      "location": {
        "lat": 10.8286143,
        "lng": 106.5781923
      },
      "postalCode": "7000015",
      "keyAccentLanguage": "Quan_8",
      "wards": [
        {
          "code": 229,
          "type": "Ward",
          "location": {
            "lat": 10.8230989,
            "lng": 106.6296638
          },
          "viNameLanguage": "Phường 8",
          "keyAccentLanguage": "Phuong_8"
        },
        {
          "code": 230,
          "type": "Ward",
          "location": {
            "lat": 10.8114607,
            "lng": 106.6659746
          },
          "viNameLanguage": "Phường 2",
          "keyAccentLanguage": "Phuong_2"
        },
        {
          "code": 231,
          "type": "Ward",
          "location": {
            "lat": 10.8230989,
            "lng": 106.6296638
          },
          "viNameLanguage": "Phường 1",
          "keyAccentLanguage": "Phuong_1"
        },
        {
          "code": 232,
          "type": "Ward",
          "location": {
            "lat": 10.8230989,
            "lng": 106.6296638
          },
          "viNameLanguage": "Phường 3",
          "keyAccentLanguage": "Phuong_3"
        },
        {
          "code": 233,
          "type": "Ward",
          "location": {
            "lat": 10.8230989,
            "lng": 106.6296638
          },
          "viNameLanguage": "Phường 11",
          "keyAccentLanguage": "Phuong_11"
        },
        {
          "code": 234,
          "type": "Ward",
          "location": {
            "lat": 10.8084065,
            "lng": 106.6736384
          },
          "viNameLanguage": "Phường 9",
          "keyAccentLanguage": "Phuong_9"
        },
        {
          "code": 235,
          "type": "Ward",
          "location": {
            "lat": 10.8230989,
            "lng": 106.6296638
          },
          "viNameLanguage": "Phường 10",
          "keyAccentLanguage": "Phuong_10"
        },
        {
          "code": 236,
          "type": "Ward",
          "location": {
            "lat": 10.8230989,
            "lng": 106.6296638
          },
          "viNameLanguage": "Phường 4",
          "keyAccentLanguage": "Phuong_4"
        },
        {
          "code": 237,
          "type": "Ward",
          "location": {
            "lat": 10.8230989,
            "lng": 106.6296638
          },
          "viNameLanguage": "Phường 13",
          "keyAccentLanguage": "Phuong_13"
        },
        {
          "code": 238,
          "type": "Ward",
          "location": {
            "lat": 10.7754981,
            "lng": 106.6763197
          },
          "viNameLanguage": "Phường 12",
          "keyAccentLanguage": "Phuong_12"
        },
        {
          "code": 239,
          "type": "Ward",
          "location": {
            "lat": 10.8230989,
            "lng": 106.6296638
          },
          "viNameLanguage": "Phường 5",
          "keyAccentLanguage": "Phuong_5"
        },
        {
          "code": 240,
          "type": "Ward",
          "location": {
            "lat": 10.8230989,
            "lng": 106.6296638
          },
          "viNameLanguage": "Phường 14",
          "keyAccentLanguage": "Phuong_14"
        },
        {
          "code": 241,
          "type": "Ward",
          "location": {
            "lat": 10.8384391,
            "lng": 106.6816998
          },
          "viNameLanguage": "Phường 6",
          "keyAccentLanguage": "Phuong_6"
        },
        {
          "code": 242,
          "type": "Ward",
          "location": {
            "lat": 10.8230989,
            "lng": 106.6296638
          },
          "viNameLanguage": "Phường 15",
          "keyAccentLanguage": "Phuong_15"
        },
        {
          "code": 243,
          "type": "Ward",
          "location": {
            "lat": 10.7251488,
            "lng": 106.6261831
          },
          "viNameLanguage": "Phường 16",
          "keyAccentLanguage": "Phuong_16"
        },
        {
          "code": 244,
          "type": "Ward",
          "location": {
            "lat": 10.8230989,
            "lng": 106.6296638
          },
          "viNameLanguage": "Phường 7",
          "keyAccentLanguage": "Phuong_7"
        }
      ]
    },
    {
      "code": 245,
      "category": null,
      "type": "District",
      "viNameLanguage": "Quận Bình Tân",
      "location": {
        "lat": 10.7623139,
        "lng": 106.5937658
      },
      "postalCode": "7000016",
      "keyAccentLanguage": "Quan_Binh_Tan",
      "wards": [
        {
          "code": 246,
          "type": "Ward",
          "location": {
            "lat": 10.8037227,
            "lng": 106.6051788
          },
          "viNameLanguage": "Phường Bình Hưng Hòa",
          "keyAccentLanguage": "Phuong_Binh_Hung_Hoa"
        },
        {
          "code": 247,
          "type": "Ward",
          "location": {
            "lat": 10.7868677,
            "lng": 106.604777
          },
          "viNameLanguage": "Phường Bình Hưng Hoà A",
          "keyAccentLanguage": "Phuong_Binh_Hung_Hoa_A"
        },
        {
          "code": 248,
          "type": "Ward",
          "location": {
            "lat": 10.8033353,
            "lng": 106.590819
          },
          "viNameLanguage": "Phường Bình Hưng Hoà B",
          "keyAccentLanguage": "Phuong_Binh_Hung_Hoa_B"
        },
        {
          "code": 249,
          "type": "Ward",
          "location": {
            "lat": 10.7639086,
            "lng": 106.6143944
          },
          "viNameLanguage": "Phường Bình Trị Đông",
          "keyAccentLanguage": "Phuong_Binh_Tri_Dong"
        },
        {
          "code": 250,
          "type": "Ward",
          "location": {
            "lat": 10.7703231,
            "lng": 106.5967126
          },
          "viNameLanguage": "Phường Bình Trị Đông A",
          "keyAccentLanguage": "Phuong_Binh_Tri_Dong_A"
        },
        {
          "code": 251,
          "type": "Ward",
          "location": {
            "lat": 10.7478829,
            "lng": 106.6118492
          },
          "viNameLanguage": "Phường Bình Trị Đông B",
          "keyAccentLanguage": "Phuong_Binh_Tri_Dong_B"
        },
        {
          "code": 252,
          "type": "Ward",
          "location": {
            "lat": 10.7597516,
            "lng": 106.590819
          },
          "viNameLanguage": "Phường Tân Tạo",
          "keyAccentLanguage": "Phuong_Tan_Tao"
        },
        {
          "code": 253,
          "type": "Ward",
          "location": {
            "lat": 10.7360575,
            "lng": 106.5906249
          },
          "viNameLanguage": "Phường Tân Tạo A",
          "keyAccentLanguage": "Phuong_Tan_Tao_A"
        },
        {
          "code": 254,
          "type": "Ward",
          "location": {
            "lat": 10.7231349,
            "lng": 106.6111242
          },
          "viNameLanguage": "Phường An Lạc",
          "keyAccentLanguage": "Phuong_An_Lac"
        },
        {
          "code": 255,
          "type": "Ward",
          "location": {
            "lat": 10.7539749,
            "lng": 106.6217623
          },
          "viNameLanguage": "Phường An Lạc A",
          "keyAccentLanguage": "Phuong_An_Lac_A"
        }
      ]
    },
    {
      "code": 256,
      "category": null,
      "type": "District",
      "viNameLanguage": "Quận 7",
      "location": {
        "lat": 10.7385437,
        "lng": 106.7293611
      },
      "postalCode": "7000017",
      "keyAccentLanguage": "Quan_7",
      "wards": [
        {
          "code": 257,
          "type": "Ward",
          "location": {
            "lat": 10.7573596,
            "lng": 106.7368689
          },
          "viNameLanguage": "Phường Tân Thuận Đông",
          "keyAccentLanguage": "Phuong_Tan_Thuan_Dong"
        },
        {
          "code": 258,
          "type": "Ward",
          "location": {
            "lat": 10.7511954,
            "lng": 106.7219896
          },
          "viNameLanguage": "Phường Tân Thuận Tây",
          "keyAccentLanguage": "Phuong_Tan_Thuan_Tay"
        },
        {
          "code": 259,
          "type": "Ward",
          "location": {
            "lat": 10.7491228,
            "lng": 106.7101958
          },
          "viNameLanguage": "Phường Tân Kiểng",
          "keyAccentLanguage": "Phuong_Tan_Kieng"
        },
        {
          "code": 260,
          "type": "Ward",
          "location": {
            "lat": 10.7443766,
            "lng": 106.6981243
          },
          "viNameLanguage": "Phường Tân Hưng",
          "keyAccentLanguage": "Phuong_Tan_Hung"
        },
        {
          "code": 261,
          "type": "Ward",
          "location": {
            "lat": 10.7417516,
            "lng": 106.7205154
          },
          "viNameLanguage": "Phường Bình Thuận",
          "keyAccentLanguage": "Phuong_Binh_Thuan"
        },
        {
          "code": 262,
          "type": "Ward",
          "location": {
            "lat": 10.7409584,
            "lng": 106.7101958
          },
          "viNameLanguage": "Phường Tân Quy",
          "keyAccentLanguage": "Phuong_Tan_Quy"
        },
        {
          "code": 263,
          "type": "Ward",
          "location": {
            "lat": 10.7299898,
            "lng": 106.7426687
          },
          "viNameLanguage": "Phường Phú Thuận",
          "keyAccentLanguage": "Phuong_Phu_Thuan"
        },
        {
          "code": 264,
          "type": "Ward",
          "location": {
            "lat": 10.8569656,
            "lng": 106.8030892
          },
          "viNameLanguage": "Phường Tân Phú",
          "keyAccentLanguage": "Phuong_Tan_Phu"
        },
        {
          "code": 265,
          "type": "Ward",
          "location": {
            "lat": 10.7318388,
            "lng": 106.702825
          },
          "viNameLanguage": "Phường Tân Phong",
          "keyAccentLanguage": "Phuong_Tan_Phong"
        },
        {
          "code": 266,
          "type": "Ward",
          "location": {
            "lat": 10.7081313,
            "lng": 106.7382072
          },
          "viNameLanguage": "Phường Phú Mỹ",
          "keyAccentLanguage": "Phuong_Phu_My"
        }
      ]
    },
    {
      "code": 267,
      "category": null,
      "type": "District",
      "viNameLanguage": "Huyện Củ Chi",
      "location": {
        "lat": 10.9959552,
        "lng": 106.5112712
      },
      "postalCode": "7000018",
      "keyAccentLanguage": "Huyen_Cu_Chi",
      "wards": [
        {
          "code": 268,
          "type": "Commune",
          "location": {
            "lat": 11.1246502,
            "lng": 106.458256
          },
          "viNameLanguage": "Xã Phú Mỹ Hưng",
          "keyAccentLanguage": "Xa_Phu_My_Hung"
        },
        {
          "code": 269,
          "type": "Commune",
          "location": {
            "lat": 11.1168711,
            "lng": 106.4994889
          },
          "viNameLanguage": "Xã An Phú",
          "keyAccentLanguage": "Xa_An_Phu"
        },
        {
          "code": 270,
          "type": "Commune",
          "location": {
            "lat": 11.0603258,
            "lng": 106.4346979
          },
          "viNameLanguage": "Xã Trung Lập Thượng",
          "keyAccentLanguage": "Xa_Trung_Lap_Thuong"
        },
        {
          "code": 271,
          "type": "Commune",
          "location": {
            "lat": 11.074436,
            "lng": 106.4759262
          },
          "viNameLanguage": "Xã An Nhơn Tây",
          "keyAccentLanguage": "Xa_An_Nhon_Tay"
        },
        {
          "code": 272,
          "type": "Commune",
          "location": {
            "lat": 11.0461163,
            "lng": 106.493598
          },
          "viNameLanguage": "Xã Nhuận Đức",
          "keyAccentLanguage": "Xa_Nhuan_Duc"
        },
        {
          "code": 273,
          "type": "Commune",
          "location": {
            "lat": 11.0338732,
            "lng": 106.5171626
          },
          "viNameLanguage": "Xã Phạm Văn Cội",
          "keyAccentLanguage": "Xa_Pham_Van_Coi"
        },
        {
          "code": 274,
          "type": "Commune",
          "location": {
            "lat": 11.0203175,
            "lng": 106.5642998
          },
          "viNameLanguage": "Xã Phú Hòa Đông",
          "keyAccentLanguage": "Xa_Phu_Hoa_Dong"
        },
        {
          "code": 275,
          "type": "Commune",
          "location": {
            "lat": 11.026217,
            "lng": 106.458256
          },
          "viNameLanguage": "Xã Trung Lập Hạ",
          "keyAccentLanguage": "Xa_Trung_Lap_Ha"
        },
        {
          "code": 276,
          "type": "Commune",
          "location": {
            "lat": 11.0048859,
            "lng": 106.5893129
          },
          "viNameLanguage": "Xã Trung An",
          "keyAccentLanguage": "Xa_Trung_An"
        },
        {
          "code": 277,
          "type": "Commune",
          "location": {
            "lat": 11.011451,
            "lng": 106.4288088
          },
          "viNameLanguage": "Xã Phước Thạnh",
          "keyAccentLanguage": "Xa_Phuoc_Thanh"
        },
        {
          "code": 278,
          "type": "Commune",
          "location": {
            "lat": 10.9831531,
            "lng": 106.4464766
          },
          "viNameLanguage": "Xã Phước Hiệp",
          "keyAccentLanguage": "Xa_Phuoc_Hiep"
        },
        {
          "code": 279,
          "type": "Commune",
          "location": {
            "lat": 10.9593528,
            "lng": 106.4818167
          },
          "viNameLanguage": "Xã Tân An Hội",
          "keyAccentLanguage": "Xa_Tan_An_Hoi"
        },
        {
          "code": 280,
          "type": "Commune",
          "location": {
            "lat": 10.984377,
            "lng": 106.5230542
          },
          "viNameLanguage": "Xã Phước Vĩnh An",
          "keyAccentLanguage": "Xa_Phuoc_Vinh_An"
        },
        {
          "code": 281,
          "type": "Commune",
          "location": {
            "lat": 10.9857505,
            "lng": 106.3993658
          },
          "viNameLanguage": "Xã Thái Mỹ",
          "keyAccentLanguage": "Xa_Thai_My"
        },
        {
          "code": 282,
          "type": "Commune",
          "location": {
            "lat": 10.9875463,
            "lng": 106.5642998
          },
          "viNameLanguage": "Xã Tân Thạnh Tây",
          "keyAccentLanguage": "Xa_Tan_Thanh_Tay"
        },
        {
          "code": 283,
          "type": "Commune",
          "location": {
            "lat": 10.9765654,
            "lng": 106.6143944
          },
          "viNameLanguage": "Xã Hòa Phú",
          "keyAccentLanguage": "Xa_Hoa_Phu"
        },
        {
          "code": 284,
          "type": "Commune",
          "location": {
            "lat": 10.9586085,
            "lng": 106.5937658
          },
          "viNameLanguage": "Xã Tân Thạnh Đông",
          "keyAccentLanguage": "Xa_Tan_Thanh_Dong"
        },
        {
          "code": 285,
          "type": "Commune",
          "location": {
            "lat": 10.9399403,
            "lng": 106.635025
          },
          "viNameLanguage": "Xã Bình Mỹ",
          "keyAccentLanguage": "Xa_Binh_My"
        },
        {
          "code": 286,
          "type": "Commune",
          "location": {
            "lat": 10.9389375,
            "lng": 106.5411065
          },
          "viNameLanguage": "Xã Tân Phú Trung",
          "keyAccentLanguage": "Xa_Tan_Phu_Trung"
        },
        {
          "code": 287,
          "type": "Commune",
          "location": {
            "lat": 10.9471303,
            "lng": 106.50538
          },
          "viNameLanguage": "Xã Tân Thông Hội",
          "keyAccentLanguage": "Xa_Tan_Thong_Hoi"
        }
      ]
    },
    {
      "code": 288,
      "category": null,
      "type": "District",
      "viNameLanguage": "Huyện Hóc Môn",
      "location": {
        "lat": 10.8931299,
        "lng": 106.5937658
      },
      "postalCode": "7000019",
      "keyAccentLanguage": "Huyen_Hoc_Mon",
      "wards": [
        {
          "code": 289,
          "type": "Commune",
          "location": {
            "lat": 10.9084099,
            "lng": 106.5912473
          },
          "viNameLanguage": "Xã Tân Hiệp",
          "keyAccentLanguage": "Xa_Tan_Hiep"
        },
        {
          "code": 290,
          "type": "Commune",
          "location": {
            "lat": 10.9132585,
            "lng": 106.6733441
          },
          "viNameLanguage": "Xã Nhị Bình",
          "keyAccentLanguage": "Xa_Nhi_Binh"
        },
        {
          "code": 291,
          "type": "Commune",
          "location": {
            "lat": 10.9065528,
            "lng": 106.6468148
          },
          "viNameLanguage": "Xã Đông Thạnh",
          "keyAccentLanguage": "Xa_Dong_Thanh"
        },
        {
          "code": 292,
          "type": "Commune",
          "location": {
            "lat": 10.8919577,
            "lng": 106.5714148
          },
          "viNameLanguage": "Xã Tân Thới Nhì",
          "keyAccentLanguage": "Xa_Tan_Thoi_Nhi"
        },
        {
          "code": 293,
          "type": "Commune",
          "location": {
            "lat": 10.8976059,
            "lng": 106.6114474
          },
          "viNameLanguage": "Xã Thới Tam Thôn",
          "keyAccentLanguage": "Xa_Thoi_Tam_Thon"
        },
        {
          "code": 294,
          "type": "Commune",
          "location": {
            "lat": 10.8790427,
            "lng": 106.5525145
          },
          "viNameLanguage": "Xã Xuân Thới Sơn",
          "keyAccentLanguage": "Xa_Xuan_Thoi_Son"
        },
        {
          "code": 295,
          "type": "Commune",
          "location": {
            "lat": 10.8684249,
            "lng": 106.5967126
          },
          "viNameLanguage": "Xã Tân Xuân",
          "keyAccentLanguage": "Xa_Tan_Xuan"
        },
        {
          "code": 296,
          "type": "Commune",
          "location": {
            "lat": 10.8605277,
            "lng": 106.6018314
          },
          "viNameLanguage": "Xã Xuân Thới Đông",
          "keyAccentLanguage": "Xa_Xuan_Thoi_Dong"
        },
        {
          "code": 297,
          "type": "Commune",
          "location": {
            "lat": 10.8683571,
            "lng": 106.6059239
          },
          "viNameLanguage": "Xã Trung Chánh",
          "keyAccentLanguage": "Xa_Trung_Chanh"
        },
        {
          "code": 298,
          "type": "Commune",
          "location": {
            "lat": 10.8565784,
            "lng": 106.5642998
          },
          "viNameLanguage": "Xã Xuân Thới Thượng",
          "keyAccentLanguage": "Xa_Xuan_Thoi_Thuong"
        },
        {
          "code": 299,
          "type": "Commune",
          "location": {
            "lat": 10.8411638,
            "lng": 106.5967126
          },
          "viNameLanguage": "Xã Bà Điểm",
          "keyAccentLanguage": "Xa_Ba_Diem"
        }
      ]
    },
    {
      "code": 300,
      "category": null,
      "type": "District",
      "viNameLanguage": "Huyện Bình Chánh",
      "location": {
        "lat": 10.7213143,
        "lng": 106.5466221
      },
      "postalCode": "7000020",
      "keyAccentLanguage": "Huyen_Binh_Chanh",
      "wards": [
        {
          "code": 301,
          "type": "Town",
          "location": {
            "lat": 10.6844901,
            "lng": 106.5731392
          },
          "viNameLanguage": "Thị trấn Tân Túc",
          "keyAccentLanguage": "Thi_tran_Tan_Tuc"
        },
        {
          "code": 302,
          "type": "Commune",
          "location": {
            "lat": 10.8148999,
            "lng": 106.528946
          },
          "viNameLanguage": "Xã Phạm Văn Hai",
          "keyAccentLanguage": "Xa_Pham_Van_Hai"
        },
        {
          "code": 303,
          "type": "Commune",
          "location": {
            "lat": 10.8238657,
            "lng": 106.5642998
          },
          "viNameLanguage": "Xã Vĩnh Lộc A",
          "keyAccentLanguage": "Xa_Vinh_Loc_A"
        },
        {
          "code": 304,
          "type": "Commune",
          "location": {
            "lat": 10.7911649,
            "lng": 106.5642998
          },
          "viNameLanguage": "Xã Vĩnh Lộc B",
          "keyAccentLanguage": "Xa_Vinh_Loc_B"
        },
        {
          "code": 305,
          "type": "Commune",
          "location": {
            "lat": 10.7756348,
            "lng": 106.5096239
          },
          "viNameLanguage": "Xã Bình Lợi",
          "keyAccentLanguage": "Xa_Binh_Loi"
        },
        {
          "code": 306,
          "type": "Commune",
          "location": {
            "lat": 10.7661714,
            "lng": 106.5230542
          },
          "viNameLanguage": "Xã Lê Minh Xuân",
          "keyAccentLanguage": "Xa_Le_Minh_Xuan"
        },
        {
          "code": 307,
          "type": "Commune",
          "location": {
            "lat": 10.7155493,
            "lng": 106.5525145
          },
          "viNameLanguage": "Xã Tân Nhựt",
          "keyAccentLanguage": "Xa_Tan_Nhut"
        },
        {
          "code": 308,
          "type": "Commune",
          "location": {
            "lat": 10.716207,
            "lng": 106.5848072
          },
          "viNameLanguage": "Xã Tân Kiên",
          "keyAccentLanguage": "Xa_Tan_Kien"
        },
        {
          "code": 309,
          "type": "Commune",
          "location": {
            "lat": 10.7200104,
            "lng": 106.6703963
          },
          "viNameLanguage": "Xã Bình Hưng",
          "keyAccentLanguage": "Xa_Binh_Hung"
        },
        {
          "code": 310,
          "type": "Commune",
          "location": {
            "lat": 10.6995307,
            "lng": 106.6468148
          },
          "viNameLanguage": "Xã Phong Phú",
          "keyAccentLanguage": "Xa_Phong_Phu"
        },
        {
          "code": 311,
          "type": "Commune",
          "location": {
            "lat": 10.6880126,
            "lng": 106.6085003
          },
          "viNameLanguage": "Xã An Phú Tây",
          "keyAccentLanguage": "Xa_An_Phu_Tay"
        },
        {
          "code": 312,
          "type": "Commune",
          "location": {
            "lat": 10.6681681,
            "lng": 106.6232359
          },
          "viNameLanguage": "Xã Hưng Long",
          "keyAccentLanguage": "Xa_Hung_Long"
        },
        {
          "code": 313,
          "type": "Commune",
          "location": {
            "lat": 10.666245,
            "lng": 106.6586052
          },
          "viNameLanguage": "Xã Đa Phước",
          "keyAccentLanguage": "Xa_Da_Phuoc"
        },
        {
          "code": 314,
          "type": "Commune",
          "location": {
            "lat": 10.666887,
            "lng": 106.5967126
          },
          "viNameLanguage": "Xã Tân Quý Tây",
          "keyAccentLanguage": "Xa_Tan_Quy_Tay"
        },
        {
          "code": 315,
          "type": "Commune",
          "location": {
            "lat": 10.6425712,
            "lng": 106.6438673
          },
          "viNameLanguage": "Xã Quy Đức",
          "keyAccentLanguage": "Xa_Quy_Duc"
        }
      ]
    },
    {
      "code": 316,
      "category": null,
      "type": "District",
      "viNameLanguage": "Huyện Nhà Bè",
      "location": {
        "lat": 10.6687906,
        "lng": 106.71167
      },
      "postalCode": "7000021",
      "keyAccentLanguage": "Huyen_Nha_Be",
      "wards": [
        {
          "code": 317,
          "type": "Commune",
          "location": {
            "lat": 10.6952459,
            "lng": 106.7049312
          },
          "viNameLanguage": "Xã Phước Kiển",
          "keyAccentLanguage": "Xa_Phuoc_Kien"
        },
        {
          "code": 318,
          "type": "Commune",
          "location": {
            "lat": 10.7001584,
            "lng": 106.685136
          },
          "viNameLanguage": "Xã Phước Lộc",
          "keyAccentLanguage": "Xa_Phuoc_Loc"
        },
        {
          "code": 319,
          "type": "Commune",
          "location": {
            "lat": 10.6751953,
            "lng": 106.6939803
          },
          "viNameLanguage": "Xã Nhơn Đức",
          "keyAccentLanguage": "Xa_Nhon_Duc"
        },
        {
          "code": 320,
          "type": "Commune",
          "location": {
            "lat": 10.6748507,
            "lng": 106.7500025
          },
          "viNameLanguage": "Xã Phú Xuân",
          "keyAccentLanguage": "Xa_Phu_Xuan"
        },
        {
          "code": 321,
          "type": "Commune",
          "location": {
            "lat": 10.6515117,
            "lng": 106.7293611
          },
          "viNameLanguage": "Xã Long Thới",
          "keyAccentLanguage": "Xa_Long_Thoi"
        },
        {
          "code": 322,
          "type": "Commune",
          "location": {
            "lat": 10.6009892,
            "lng": 106.7588494
          },
          "viNameLanguage": "Xã Hiệp Phước",
          "keyAccentLanguage": "Xa_Hiep_Phuoc"
        }
      ]
    },
    {
      "code": 323,
      "category": null,
      "type": "District",
      "viNameLanguage": "Huyện Cần Giờ",
      "location": {
        "lat": 10.4758048,
        "lng": 106.8650395
      },
      "postalCode": "7000022",
      "keyAccentLanguage": "Huyen_Can_Gio",
      "wards": [
        {
          "code": 324,
          "type": "Town",
          "location": {
            "lat": 10.4155124,
            "lng": 106.9731189
          },
          "viNameLanguage": "Thị trấn Cần Thạnh",
          "keyAccentLanguage": "Thi_tran_Can_Thanh"
        },
        {
          "code": 325,
          "type": "Commune",
          "location": {
            "lat": 10.6431737,
            "lng": 106.7824429
          },
          "viNameLanguage": "Xã Bình Khánh",
          "keyAccentLanguage": "Xa_Binh_Khanh"
        },
        {
          "code": 326,
          "type": "Commune",
          "location": {
            "lat": 10.6037491,
            "lng": 106.8595671
          },
          "viNameLanguage": "Xã Tam Thôn Hiệp",
          "keyAccentLanguage": "Xa_Tam_Thon_Hiep"
        },
        {
          "code": 327,
          "type": "Commune",
          "location": {
            "lat": 10.5549722,
            "lng": 106.8060388
          },
          "viNameLanguage": "Xã An Thới Đông",
          "keyAccentLanguage": "Xa_An_Thoi_Dong"
        },
        {
          "code": 328,
          "type": "Commune",
          "location": {
            "lat": 10.5459417,
            "lng": 106.9712791
          },
          "viNameLanguage": "Xã Thạnh An",
          "keyAccentLanguage": "Xa_Thanh_An"
        },
        {
          "code": 329,
          "type": "Commune",
          "location": {
            "lat": 10.4630405,
            "lng": 106.9004472
          },
          "viNameLanguage": "Xã Long Hòa",
          "keyAccentLanguage": "Xa_Long_Hoa"
        },
        {
          "code": 330,
          "type": "Commune",
          "location": {
            "lat": 10.468149,
            "lng": 106.8060388
          },
          "viNameLanguage": "Xã Lý Nhơn",
          "keyAccentLanguage": "Xa_Ly_Nhon"
        }
      ]
    }
  ]
}