{
  "type": "City",
  "location": {
    "lat": 19.1483712,
    "lng": 104.8454619
  },
  "postalCode": "43000",
  "keyAccentLanguage": "Nghe_An",
  "districtList": [
    {
      "category": null,
      "type": "Ward",
      "viNameLanguage": "Thành phố Vinh",
      "location": {
        "lat": 18.6718982,
        "lng": 105.6742463
      },
      "postalCode": "430001",
      "keyAccentLanguage": "Phuong_Quang_Trung",
      "wards": [
        {
          "type": "Ward",
          "location": {
            "lat": 18.6860752,
            "lng": 105.6590888
          },
          "viNameLanguage": "Phường Đông Vĩnh",
          "keyAccentLanguage": "Phuong_Dong_Vinh"
        },
        {
          "type": "Ward",
          "location": {
            "lat": 18.691041,
            "lng": 105.6831022
          },
          "viNameLanguage": "Phường Hà Huy Tập",
          "keyAccentLanguage": "Phuong_Ha_Huy_Tap"
        },
        {
          "type": "Ward",
          "location": {
            "lat": 18.6819227,
            "lng": 105.6691451
          },
          "viNameLanguage": "Phường Lê Lợi",
          "keyAccentLanguage": "Phuong_Le_Loi"
        },
        {
          "type": "Ward",
          "location": {
            "lat": 18.6906511,
            "lng": 105.6698428
          },
          "viNameLanguage": "Phường Quán Bàu",
          "keyAccentLanguage": "Phuong_Quan_Bau"
        },
        {
          "type": "Ward",
          "location": {
            "lat": 18.6794678,
            "lng": 105.6805273
          },
          "viNameLanguage": "Phường Hưng Bình",
          "keyAccentLanguage": "Phuong_Hung_Binh"
        },
        {
          "type": "Ward",
          "location": {
            "lat": 18.6819223,
            "lng": 105.6890025
          },
          "viNameLanguage": "Phường Hưng Phúc",
          "keyAccentLanguage": "Phuong_Hung_Phuc"
        },
        {
          "type": "Ward",
          "location": {
            "lat": 18.6791532,
            "lng": 105.7067077
          },
          "viNameLanguage": "Phường Hưng Dũng",
          "keyAccentLanguage": "Phuong_Hung_Dung"
        },
        {
          "type": "Ward",
          "location": {
            "lat": 18.6670172,
            "lng": 105.6675367
          },
          "viNameLanguage": "Phường Cửa Nam",
          "keyAccentLanguage": "Phuong_Cua_Nam"
        },
        {
          "type": "Ward",
          "location": {
            "lat": 18.6718982,
            "lng": 105.6742463
          },
          "viNameLanguage": "Phường Quang Trung",
          "keyAccentLanguage": "Phuong_Quang_Trung"
        },
        {
          "type": "Ward",
          "location": {
            "lat": 18.6726468,
            "lng": 105.6654474
          },
          "viNameLanguage": "Phường Đội Cung",
          "keyAccentLanguage": "Phuong_Doi_Cung"
        },
        {
          "type": "Ward",
          "location": {
            "lat": 18.6691715,
            "lng": 105.6808458
          },
          "viNameLanguage": "Phường Lê Mao",
          "keyAccentLanguage": "Phuong_Le_Mao"
        },
        {
          "type": "Ward",
          "location": {
            "lat": 18.6693177,
            "lng": 105.6934924
          },
          "viNameLanguage": "Phường Trường Thi",
          "keyAccentLanguage": "Phuong_Truong_Thi"
        },
        {
          "type": "Ward",
          "location": {
            "lat": 18.6637404,
            "lng": 105.6948581
          },
          "viNameLanguage": "Phường Bến Thủy",
          "keyAccentLanguage": "Phuong_Ben_Thuy"
        },
        {
          "type": "Ward",
          "location": {
            "lat": 18.6638978,
            "lng": 105.6749796
          },
          "viNameLanguage": "Phường Hồng Sơn",
          "keyAccentLanguage": "Phuong_Hong_Son"
        },
        {
          "type": "Ward",
          "location": {
            "lat": 18.6495407,
            "lng": 105.6963559
          },
          "viNameLanguage": "Phường Trung Đô",
          "keyAccentLanguage": "Phuong_Trung_Do"
        },
        {
          "type": "Commune",
          "location": {
            "lat": 18.7071727,
            "lng": 105.6796857
          },
          "viNameLanguage": "Xã Nghi Phú",
          "keyAccentLanguage": "Xa_Nghi_Phu"
        },
        {
          "type": "Commune",
          "location": {
            "lat": 18.7109031,
            "lng": 105.6533614
          },
          "viNameLanguage": "Xã Hưng Đông",
          "keyAccentLanguage": "Xa_Hung_Dong"
        },
        {
          "type": "Commune",
          "location": {
            "lat": 18.6968349,
            "lng": 105.7050472
          },
          "viNameLanguage": "Xã Hưng Lộc",
          "keyAccentLanguage": "Xa_Hung_Loc"
        },
        {
          "type": "Commune",
          "location": {
            "lat": 18.6762612,
            "lng": 105.733335
          },
          "viNameLanguage": "Xã Hưng Hòa",
          "keyAccentLanguage": "Xa_Hung_Hoa"
        },
        {
          "type": "Ward",
          "location": {
            "lat": 18.6592955,
            "lng": 105.6813235
          },
          "viNameLanguage": "Phường Vinh Tân",
          "keyAccentLanguage": "Phuong_Vinh_Tan"
        },
        {
          "type": "Commune",
          "location": {
            "lat": 18.7467587,
            "lng": 105.6570999
          },
          "viNameLanguage": "Xã Nghi Liên",
          "keyAccentLanguage": "Xa_Nghi_Lien"
        },
        {
          "type": "Commune",
          "location": {
            "lat": 18.7405082,
            "lng": 105.6855861
          },
          "viNameLanguage": "Xã Nghi Ân",
          "keyAccentLanguage": "Xa_Nghi_An"
        },
        {
          "type": "Commune",
          "location": {
            "lat": 18.7247673,
            "lng": 105.652911
          },
          "viNameLanguage": "Xã Nghi Kim",
          "keyAccentLanguage": "Xa_Nghi_Kim"
        },
        {
          "type": "Commune",
          "location": {
            "lat": 18.7140503,
            "lng": 105.6999651
          },
          "viNameLanguage": "Xã Nghi Đức",
          "keyAccentLanguage": "Xa_Nghi_Duc"
        },
        {
          "type": "Commune",
          "location": {
            "lat": 18.6659896,
            "lng": 105.6481966
          },
          "viNameLanguage": "Xã Hưng Chính",
          "keyAccentLanguage": "Xa_Hung_Chinh"
        }
      ]
    },
    {
      "category": null,
      "type": "Town",
      "viNameLanguage": "Thị xã Cửa Lò",
      "location": {
        "lat": 18.7942251,
        "lng": 105.7252402
      },
      "postalCode": "430002",
      "keyAccentLanguage": "Thi_xa_Cua_Lo",
      "wards": [
        {
          "type": "Ward",
          "location": {
            "lat": 18.8212909,
            "lng": 105.7100503
          },
          "viNameLanguage": "Phường Nghi Thuỷ",
          "keyAccentLanguage": "Phuong_Nghi_Thuy"
        },
        {
          "type": "Ward",
          "location": {
            "lat": 18.8233146,
            "lng": 105.701379
          },
          "viNameLanguage": "Phường Nghi Tân",
          "keyAccentLanguage": "Phuong_Nghi_Tan"
        },
        {
          "type": "Ward",
          "location": {
            "lat": 18.8131407,
            "lng": 105.7189807
          },
          "viNameLanguage": "Phường Thu Thuỷ",
          "keyAccentLanguage": "Phuong_Thu_Thuy"
        },
        {
          "type": "Ward",
          "location": {
            "lat": 18.7691376,
            "lng": 105.7439194
          },
          "viNameLanguage": "Phường Nghi Hòa",
          "keyAccentLanguage": "Phuong_Nghi_Hoa"
        },
        {
          "type": "Ward",
          "location": {
            "lat": 18.7589086,
            "lng": 105.7453864
          },
          "viNameLanguage": "Phường Nghi Hải",
          "keyAccentLanguage": "Phuong_Nghi_Hai"
        },
        {
          "type": "Ward",
          "location": {
            "lat": 18.7879702,
            "lng": 105.7263152
          },
          "viNameLanguage": "Phường Nghi Hương",
          "keyAccentLanguage": "Phuong_Nghi_Huong"
        },
        {
          "type": "Ward",
          "location": {
            "lat": 18.8010296,
            "lng": 105.7087128
          },
          "viNameLanguage": "Phường Nghi Thu",
          "keyAccentLanguage": "Phuong_Nghi_Thu"
        }
      ]
    },
    {
      "category": null,
      "type": "Town",
      "viNameLanguage": "Thị xã Thái Hoà",
      "location": {
        "lat": 19.3240044,
        "lng": 105.4203355
      },
      "postalCode": "430003",
      "keyAccentLanguage": "Thi_xa_Thai_Hoa",
      "wards": [
        {
          "type": "Ward",
          "location": {
            "lat": 19.3214303,
            "lng": 105.4390254
          },
          "viNameLanguage": "Phường Hoà Hiếu",
          "keyAccentLanguage": "Phuong_Hoa_Hieu"
        },
        {
          "type": "Ward",
          "location": {
            "lat": 19.3408151,
            "lng": 105.4155939
          },
          "viNameLanguage": "Phường Quang Phong",
          "keyAccentLanguage": "Phuong_Quang_Phong"
        },
        {
          "type": "Ward",
          "location": {
            "lat": 19.3276039,
            "lng": 105.4009508
          },
          "viNameLanguage": "Phường Quang Tiến",
          "keyAccentLanguage": "Phuong_Quang_Tien"
        },
        {
          "type": "Ward",
          "location": {
            "lat": 19.3098545,
            "lng": 105.4390254
          },
          "viNameLanguage": "Phường Long Sơn",
          "keyAccentLanguage": "Phuong_Long_Son"
        },
        {
          "type": "Commune",
          "location": {
            "lat": 19.2948831,
            "lng": 105.3775245
          },
          "viNameLanguage": "Xã Nghĩa Tiến",
          "keyAccentLanguage": "Xa_Nghia_Tien"
        },
        {
          "type": "Commune",
          "location": {
            "lat": 19.299405,
            "lng": 105.4595306
          },
          "viNameLanguage": "Xã Nghĩa Mỹ",
          "keyAccentLanguage": "Xa_Nghia_My"
        },
        {
          "type": "Commune",
          "location": {
            "lat": 19.2812956,
            "lng": 105.4009508
          },
          "viNameLanguage": "Xã Tây Hiếu",
          "keyAccentLanguage": "Xa_Tay_Hieu"
        },
        {
          "type": "Commune",
          "location": {
            "lat": 19.2659181,
            "lng": 105.5122694
          },
          "viNameLanguage": "Xã Nghĩa Thuận",
          "keyAccentLanguage": "Xa_Nghia_Thuan"
        },
        {
          "type": "Commune",
          "location": {
            "lat": 19.2858082,
            "lng": 105.4829681
          },
          "viNameLanguage": "Xã Đông Hiếu",
          "keyAccentLanguage": "Xa_Dong_Hieu"
        }
      ]
    },
    {
      "category": null,
      "type": "District",
      "viNameLanguage": "Huyện Quế Phong",
      "location": {
        "lat": 19.7477936,
        "lng": 104.8921668
      },
      "postalCode": "430004",
      "keyAccentLanguage": "Huyen_Que_Phong",
      "wards": [
        {
          "type": "Town",
          "location": {
            "lat": 19.6102805,
            "lng": 104.9228243
          },
          "viNameLanguage": "Thị trấn Kim Sơn",
          "keyAccentLanguage": "Thi_tran_Kim_Son"
        },
        {
          "type": "Commune",
          "location": {
            "lat": 19.8619063,
            "lng": 104.9155243
          },
          "viNameLanguage": "Xã Thông Thụ",
          "keyAccentLanguage": "Xa_Thong_Thu"
        },
        {
          "type": "Commune",
          "location": {
            "lat": 19.1169942,
            "lng": 105.1105468
          },
          "viNameLanguage": "Xã Đồng Văn",
          "keyAccentLanguage": "Xa_Dong_Van"
        },
        {
          "type": "Commune",
          "location": {
            "lat": 19.6625494,
            "lng": 104.9308546
          },
          "viNameLanguage": "Xã Hạnh Dịch",
          "keyAccentLanguage": "Xa_Hanh_Dich"
        },
        {
          "type": "Commune",
          "location": {
            "lat": 19.6378284,
            "lng": 104.9659008
          },
          "viNameLanguage": "Xã Tiền Phong",
          "keyAccentLanguage": "Xa_Tien_Phong"
        },
        {
          "type": "Commune",
          "location": {
            "lat": 19.6394727,
            "lng": 104.8257625
          },
          "viNameLanguage": "Xã Nậm Giải",
          "keyAccentLanguage": "Xa_Nam_Giai"
        },
        {
          "type": "Commune",
          "location": {
            "lat": 19.5854594,
            "lng": 104.6901228
          },
          "viNameLanguage": "Xã Tri Lễ",
          "keyAccentLanguage": "Xa_Tri_Le"
        },
        {
          "type": "Commune",
          "location": {
            "lat": 19.5746738,
            "lng": 104.8804893
          },
          "viNameLanguage": "Xã Châu Kim",
          "keyAccentLanguage": "Xa_Chau_Kim"
        },
        {
          "type": "Commune",
          "location": {
            "lat": 19.6244427,
            "lng": 104.9096846
          },
          "viNameLanguage": "Xã Mường Nọc",
          "keyAccentLanguage": "Xa_Muong_Noc"
        },
        {
          "type": "Commune",
          "location": {
            "lat": 19.5566554,
            "lng": 104.8097129
          },
          "viNameLanguage": "Xã Châu Thôn",
          "keyAccentLanguage": "Xa_Chau_Thon"
        },
        {
          "type": "Commune",
          "location": {
            "lat": 19.5327297,
            "lng": 104.730948
          },
          "viNameLanguage": "Xã Nậm Nhoóng",
          "keyAccentLanguage": "Xa_Nam_Nhoong"
        },
        {
          "type": "Commune",
          "location": {
            "lat": 19.5034219,
            "lng": 104.873921
          },
          "viNameLanguage": "Xã Quang Phong",
          "keyAccentLanguage": "Xa_Quang_Phong"
        },
        {
          "type": "Commune",
          "location": {
            "lat": 19.5180068,
            "lng": 104.8469212
          },
          "viNameLanguage": "Xã Căm Muộn",
          "keyAccentLanguage": "Xa_Cam_Muon"
        }
      ]
    },
    {
      "category": null,
      "type": "District",
      "viNameLanguage": "Huyện Quỳ Châu",
      "location": {
        "lat": 19.5463056,
        "lng": 105.0791228
      },
      "postalCode": "430005",
      "keyAccentLanguage": "Huyen_Quy_Chau",
      "wards": [
        {
          "type": "Town",
          "location": {
            "lat": 19.5523126,
            "lng": 105.0950994
          },
          "viNameLanguage": "Thị trấn Tân Lạc",
          "keyAccentLanguage": "Thi_tran_Tan_Lac"
        },
        {
          "type": "Commune",
          "location": {
            "lat": 19.5197323,
            "lng": 105.1953483
          },
          "viNameLanguage": "Xã Châu Bính",
          "keyAccentLanguage": "Xa_Chau_Binh"
        },
        {
          "type": "Commune",
          "location": {
            "lat": 19.6391254,
            "lng": 105.0871609
          },
          "viNameLanguage": "Xã Châu Thuận",
          "keyAccentLanguage": "Xa_Chau_Thuan"
        },
        {
          "type": "Commune",
          "location": {
            "lat": 19.6225464,
            "lng": 105.1792619
          },
          "viNameLanguage": "Xã Châu Hội",
          "keyAccentLanguage": "Xa_Chau_Hoi"
        },
        {
          "type": "Commune",
          "location": {
            "lat": 19.6025893,
            "lng": 105.2186124
          },
          "viNameLanguage": "Xã Châu Nga",
          "keyAccentLanguage": "Xa_Chau_Nga"
        },
        {
          "type": "Commune",
          "location": {
            "lat": 19.4207978,
            "lng": 105.1315162
          },
          "viNameLanguage": "Xã Châu Tiến",
          "keyAccentLanguage": "Xa_Chau_Tien"
        },
        {
          "type": "Commune",
          "location": {
            "lat": 19.6013007,
            "lng": 105.1142011
          },
          "viNameLanguage": "Xã Châu Hạnh",
          "keyAccentLanguage": "Xa_Chau_Hanh"
        },
        {
          "type": "Commune",
          "location": {
            "lat": 19.5856435,
            "lng": 105.0170235
          },
          "viNameLanguage": "Xã Châu Thắng",
          "keyAccentLanguage": "Xa_Chau_Thang"
        },
        {
          "type": "Commune",
          "location": {
            "lat": 19.4515251,
            "lng": 105.025789
          },
          "viNameLanguage": "Xã Châu Phong",
          "keyAccentLanguage": "Xa_Chau_Phong"
        },
        {
          "type": "Commune",
          "location": {
            "lat": 19.5197323,
            "lng": 105.1953483
          },
          "viNameLanguage": "Xã Châu Bình",
          "keyAccentLanguage": "Xa_Chau_Binh"
        },
        {
          "type": "Commune",
          "location": {
            "lat": 19.4680604,
            "lng": 104.949837
          },
          "viNameLanguage": "Xã Châu Hoàn",
          "keyAccentLanguage": "Xa_Chau_Hoan"
        },
        {
          "type": "Commune",
          "location": {
            "lat": 19.1482023,
            "lng": 105.5357139
          },
          "viNameLanguage": "Xã Diên Lãm",
          "keyAccentLanguage": "Xa_Dien_Lam"
        }
      ]
    },
    {
      "category": null,
      "type": "District",
      "viNameLanguage": "Huyện Kỳ Sơn",
      "location": {
        "lat": 19.4295912,
        "lng": 104.2395942
      },
      "postalCode": "430006",
      "keyAccentLanguage": "Huyen_Ky_Son",
      "wards": [
        {
          "type": "Town",
          "location": {
            "lat": 19.3933292,
            "lng": 104.155651
          },
          "viNameLanguage": "Thị trấn Mường Xén",
          "keyAccentLanguage": "Thi_tran_Muong_Xen"
        },
        {
          "type": "Commune",
          "location": {
            "lat": 19.6332936,
            "lng": 104.3093759
          },
          "viNameLanguage": "Xã Mỹ Lý",
          "keyAccentLanguage": "Xa_My_Ly"
        },
        {
          "type": "Commune",
          "location": {
            "lat": 19.6030864,
            "lng": 104.2512221
          },
          "viNameLanguage": "Xã Bắc Lý",
          "keyAccentLanguage": "Xa_Bac_Ly"
        },
        {
          "type": "Commune",
          "location": {
            "lat": 19.6393474,
            "lng": 104.088517
          },
          "viNameLanguage": "Xã Keng Đu",
          "keyAccentLanguage": "Xa_Keng_Du"
        },
        {
          "type": "Commune",
          "location": {
            "lat": 19.5854069,
            "lng": 104.1814686
          },
          "viNameLanguage": "Xã Đoọc Mạy",
          "keyAccentLanguage": "Xa_Dooc_May"
        },
        {
          "type": "Commune",
          "location": {
            "lat": 19.5314471,
            "lng": 104.2744808
          },
          "viNameLanguage": "Xã Huồi Tụ",
          "keyAccentLanguage": "Xa_Huoi_Tu"
        },
        {
          "type": "Commune",
          "location": {
            "lat": 19.4900287,
            "lng": 104.3559158
          },
          "viNameLanguage": "Xã Mường Lống",
          "keyAccentLanguage": "Xa_Muong_Long"
        },
        {
          "type": "Commune",
          "location": {
            "lat": 19.5218951,
            "lng": 104.1756573
          },
          "viNameLanguage": "Xã Na Loi",
          "keyAccentLanguage": "Xa_Na_Loi"
        },
        {
          "type": "Commune",
          "location": {
            "lat": 19.4486316,
            "lng": 104.115439
          },
          "viNameLanguage": "Xã Nậm Cắn",
          "keyAccentLanguage": "Xa_Nam_Can"
        },
        {
          "type": "Commune",
          "location": {
            "lat": 19.4114684,
            "lng": 104.3210095
          },
          "viNameLanguage": "Xã Bảo Nam",
          "keyAccentLanguage": "Xa_Bao_Nam"
        },
        {
          "type": "Commune",
          "location": {
            "lat": 19.4439924,
            "lng": 104.204716
          },
          "viNameLanguage": "Xã Phà Đánh",
          "keyAccentLanguage": "Xa_Pha_Danh"
        },
        {
          "type": "Commune",
          "location": {
            "lat": 19.4272328,
            "lng": 104.4141114
          },
          "viNameLanguage": "Xã Bảo Thắng",
          "keyAccentLanguage": "Xa_Bao_Thang"
        },
        {
          "type": "Commune",
          "location": {
            "lat": 19.4402912,
            "lng": 104.2512221
          },
          "viNameLanguage": "Xã Hữu Lập",
          "keyAccentLanguage": "Xa_Huu_Lap"
        },
        {
          "type": "Commune",
          "location": {
            "lat": 19.3994726,
            "lng": 104.1059408
          },
          "viNameLanguage": "Xã Tà Cạ",
          "keyAccentLanguage": "Xa_Ta_Ca"
        },
        {
          "type": "Commune",
          "location": {
            "lat": 19.3542864,
            "lng": 104.3093759
          },
          "viNameLanguage": "Xã Chiêu Lưu",
          "keyAccentLanguage": "Xa_Chieu_Luu"
        },
        {
          "type": "Commune",
          "location": {
            "lat": 19.3388988,
            "lng": 103.983095
          },
          "viNameLanguage": "Xã Mường Típ",
          "keyAccentLanguage": "Xa_Muong_Tip"
        },
        {
          "type": "Commune",
          "location": {
            "lat": 19.3509775,
            "lng": 104.204716
          },
          "viNameLanguage": "Xã Hữu Kiệm",
          "keyAccentLanguage": "Xa_Huu_Kiem"
        },
        {
          "type": "Commune",
          "location": {
            "lat": 19.3368757,
            "lng": 104.088517
          },
          "viNameLanguage": "Xã Tây Sơn",
          "keyAccentLanguage": "Xa_Tay_Son"
        },
        {
          "type": "Commune",
          "location": {
            "lat": 19.2761425,
            "lng": 103.9724141
          },
          "viNameLanguage": "Xã Mường Ải",
          "keyAccentLanguage": "Xa_Muong_Ai"
        },
        {
          "type": "Commune",
          "location": {
            "lat": 19.2723519,
            "lng": 104.1698463
          },
          "viNameLanguage": "Xã Na Ngoi",
          "keyAccentLanguage": "Xa_Na_Ngoi"
        },
        {
          "type": "Commune",
          "location": {
            "lat": 19.4486316,
            "lng": 104.115439
          },
          "viNameLanguage": "Xã Nậm Càn",
          "keyAccentLanguage": "Xa_Nam_Can"
        }
      ]
    },
    {
      "category": null,
      "type": "District",
      "viNameLanguage": "Huyện Tương Dương",
      "location": {
        "lat": 19.2640131,
        "lng": 104.5655273
      },
      "postalCode": "430007",
      "keyAccentLanguage": "Huyen_Tuong_Duong",
      "wards": [
        {
          "type": "Town",
          "location": {
            "lat": 19.2803301,
            "lng": 104.5072722
          },
          "viNameLanguage": "Thị trấn Thạch Giám",
          "keyAccentLanguage": "Thi_tran_Thach_Giam"
        },
        {
          "type": "Commune",
          "location": {
            "lat": 19.6112903,
            "lng": 104.4373961
          },
          "viNameLanguage": "Xã Mai Sơn",
          "keyAccentLanguage": "Xa_Mai_Son"
        },
        {
          "type": "Commune",
          "location": {
            "lat": 19.5785347,
            "lng": 104.5538744
          },
          "viNameLanguage": "Xã Nhôn Mai",
          "keyAccentLanguage": "Xa_Nhon_Mai"
        },
        {
          "type": "Commune",
          "location": {
            "lat": 19.501187,
            "lng": 104.6471221
          },
          "viNameLanguage": "Xã Hữu Khuông",
          "keyAccentLanguage": "Xa_Huu_Khuong"
        },
        {
          "type": "Commune",
          "location": {
            "lat": 19.3812541,
            "lng": 104.6937674
          },
          "viNameLanguage": "Xã Yên Tĩnh",
          "keyAccentLanguage": "Xa_Yen_Tinh"
        },
        {
          "type": "Commune",
          "location": {
            "lat": 19.3590703,
            "lng": 104.8221147
          },
          "viNameLanguage": "Xã Nga My",
          "keyAccentLanguage": "Xa_Nga_My"
        },
        {
          "type": "Commune",
          "location": {
            "lat": 19.2537038,
            "lng": 104.8337879
          },
          "viNameLanguage": "Xã Xiêng My",
          "keyAccentLanguage": "Xa_Xieng_My"
        },
        {
          "type": "Commune",
          "location": {
            "lat": 19.3342854,
            "lng": 104.4141114
          },
          "viNameLanguage": "Xã Lưỡng Minh",
          "keyAccentLanguage": "Xa_Luong_Minh"
        },
        {
          "type": "Commune",
          "location": {
            "lat": 19.3241748,
            "lng": 104.6821048
          },
          "viNameLanguage": "Xã Yên Hòa",
          "keyAccentLanguage": "Xa_Yen_Hoa"
        },
        {
          "type": "Commune",
          "location": {
            "lat": 19.3248968,
            "lng": 104.5305715
          },
          "viNameLanguage": "Xã Yên Na",
          "keyAccentLanguage": "Xa_Yen_Na"
        },
        {
          "type": "Commune",
          "location": {
            "lat": 19.2487793,
            "lng": 104.3210095
          },
          "viNameLanguage": "Xã Lưu Kiền",
          "keyAccentLanguage": "Xa_Luu_Kien"
        },
        {
          "type": "Commune",
          "location": {
            "lat": 19.241358,
            "lng": 104.4141114
          },
          "viNameLanguage": "Xã Xá Lượng",
          "keyAccentLanguage": "Xa_Xa_Luong"
        },
        {
          "type": "Commune",
          "location": {
            "lat": 19.2106631,
            "lng": 104.5072722
          },
          "viNameLanguage": "Xã Tam Thái",
          "keyAccentLanguage": "Xa_Tam_Thai"
        },
        {
          "type": "Commune",
          "location": {
            "lat": 19.2031444,
            "lng": 104.6004911
          },
          "viNameLanguage": "Xã Tam Đình",
          "keyAccentLanguage": "Xa_Tam_Dinh"
        },
        {
          "type": "Commune",
          "location": {
            "lat": 19.2438874,
            "lng": 104.670443
          },
          "viNameLanguage": "Xã Yên Thắng",
          "keyAccentLanguage": "Xa_Yen_Thang"
        },
        {
          "type": "Commune",
          "location": {
            "lat": 19.0569639,
            "lng": 104.5422225
          },
          "viNameLanguage": "Xã Tam Quang",
          "keyAccentLanguage": "Xa_Tam_Quang"
        },
        {
          "type": "Commune",
          "location": {
            "lat": 19.1145418,
            "lng": 104.4024704
          },
          "viNameLanguage": "Xã Tam Hợp",
          "keyAccentLanguage": "Xa_Tam_Hop"
        }
      ]
    },
    {
      "category": null,
      "type": "District",
      "viNameLanguage": "Huyện Nghĩa Đàn",
      "location": {
        "lat": 19.4003352,
        "lng": 105.4302383
      },
      "postalCode": "430008",
      "keyAccentLanguage": "Huyen_Nghia_Dan",
      "wards": [
        {
          "type": "Commune",
          "location": {
            "lat": 19.4547462,
            "lng": 105.336536
          },
          "viNameLanguage": "Xã Nghĩa Mai",
          "keyAccentLanguage": "Xa_Nghia_Mai"
        },
        {
          "type": "Commune",
          "location": {
            "lat": 19.4328276,
            "lng": 105.3892372
          },
          "viNameLanguage": "Xã Nghĩa Yên",
          "keyAccentLanguage": "Xa_Nghia_Yen"
        },
        {
          "type": "Commune",
          "location": {
            "lat": 19.4279486,
            "lng": 105.5122694
          },
          "viNameLanguage": "Xã Nghĩa Lạc",
          "keyAccentLanguage": "Xa_Nghia_Lac"
        },
        {
          "type": "Commune",
          "location": {
            "lat": 19.4141493,
            "lng": 105.471249
          },
          "viNameLanguage": "Xã Nghĩa Lâm",
          "keyAccentLanguage": "Xa_Nghia_Lam"
        },
        {
          "type": "Commune",
          "location": {
            "lat": 19.4192231,
            "lng": 105.4126652
          },
          "viNameLanguage": "Xã Nghĩa Sơn",
          "keyAccentLanguage": "Xa_Nghia_Son"
        },
        {
          "type": "Commune",
          "location": {
            "lat": 19.3753515,
            "lng": 105.5181302
          },
          "viNameLanguage": "Xã Nghĩa Lợi",
          "keyAccentLanguage": "Xa_Nghia_Loi"
        },
        {
          "type": "Commune",
          "location": {
            "lat": 19.1736204,
            "lng": 105.3826487
          },
          "viNameLanguage": "Xã Nghĩa Bình",
          "keyAccentLanguage": "Xa_Nghia_Binh"
        },
        {
          "type": "Commune",
          "location": {
            "lat": 19.3596984,
            "lng": 105.5650239
          },
          "viNameLanguage": "Xã Nghĩa Thọ",
          "keyAccentLanguage": "Xa_Nghia_Tho"
        },
        {
          "type": "Commune",
          "location": {
            "lat": 19.3755488,
            "lng": 105.4155939
          },
          "viNameLanguage": "Xã Nghĩa Minh",
          "keyAccentLanguage": "Xa_Nghia_Minh"
        },
        {
          "type": "Commune",
          "location": {
            "lat": 19.3733126,
            "lng": 105.5415755
          },
          "viNameLanguage": "Xã Nghĩa Phú",
          "keyAccentLanguage": "Xa_Nghia_Phu"
        },
        {
          "type": "Commune",
          "location": {
            "lat": 19.3594421,
            "lng": 105.3336087
          },
          "viNameLanguage": "Xã Nghĩa Hưng",
          "keyAccentLanguage": "Xa_Nghia_Hung"
        },
        {
          "type": "Commune",
          "location": {
            "lat": 19.3633473,
            "lng": 105.3892372
          },
          "viNameLanguage": "Xã Nghĩa Hồng",
          "keyAccentLanguage": "Xa_Nghia_Hong"
        },
        {
          "type": "Commune",
          "location": {
            "lat": 19.3663689,
            "lng": 105.3541013
          },
          "viNameLanguage": "Xã Nghĩa Thịnh",
          "keyAccentLanguage": "Xa_Nghia_Thinh"
        },
        {
          "type": "Commune",
          "location": {
            "lat": 19.33413,
            "lng": 105.4595306
          },
          "viNameLanguage": "Xã Nghĩa Trung",
          "keyAccentLanguage": "Xa_Nghia_Trung"
        },
        {
          "type": "Commune",
          "location": {
            "lat": 19.3164682,
            "lng": 105.5298525
          },
          "viNameLanguage": "Xã Nghĩa Hội",
          "keyAccentLanguage": "Xa_Nghia_Hoi"
        },
        {
          "type": "Commune",
          "location": {
            "lat": 19.1483712,
            "lng": 104.8454619
          },
          "viNameLanguage": "Xã Nghĩa Thành",
          "keyAccentLanguage": "Xa_Nghia_Thanh"
        },
        {
          "type": "Commune",
          "location": {
            "lat": 19.2873152,
            "lng": 105.3306814
          },
          "viNameLanguage": "Xã Nghĩa Hiếu",
          "keyAccentLanguage": "Xa_Nghia_Hieu"
        },
        {
          "type": "Commune",
          "location": {
            "lat": 19.2357099,
            "lng": 105.3248269
          },
          "viNameLanguage": "Xã Nghĩa Đức",
          "keyAccentLanguage": "Xa_Nghia_Duc"
        },
        {
          "type": "Commune",
          "location": {
            "lat": 19.2591477,
            "lng": 105.3892372
          },
          "viNameLanguage": "Xã Nghĩa An",
          "keyAccentLanguage": "Xa_Nghia_An"
        },
        {
          "type": "Commune",
          "location": {
            "lat": 19.2425444,
            "lng": 105.4478131
          },
          "viNameLanguage": "Xã Nghĩa Long",
          "keyAccentLanguage": "Xa_Nghia_Long"
        },
        {
          "type": "Commune",
          "location": {
            "lat": 19.2025422,
            "lng": 105.4419546
          },
          "viNameLanguage": "Xã Nghĩa Lộc",
          "keyAccentLanguage": "Xa_Nghia_Loc"
        },
        {
          "type": "Commune",
          "location": {
            "lat": 19.2244203,
            "lng": 105.3892372
          },
          "viNameLanguage": "Xã Nghĩa Khánh",
          "keyAccentLanguage": "Xa_Nghia_Khanh"
        }
      ]
    },
    {
      "category": null,
      "type": "District",
      "viNameLanguage": "Huyện Quỳ Hợp",
      "location": {
        "lat": 19.3528917,
        "lng": 105.1726816
      },
      "postalCode": "430009",
      "keyAccentLanguage": "Huyen_Quy_Hop",
      "wards": [
        {
          "type": "Commune",
          "location": {
            "lat": 19.4476564,
            "lng": 105.2758035
          },
          "viNameLanguage": "Xã Yên Hợp",
          "keyAccentLanguage": "Xa_Yen_Hop"
        },
        {
          "type": "Commune",
          "location": {
            "lat": 19.4207978,
            "lng": 105.1315162
          },
          "viNameLanguage": "Xã Châu Tiến",
          "keyAccentLanguage": "Xa_Chau_Tien"
        },
        {
          "type": "Commune",
          "location": {
            "lat": 19.4159989,
            "lng": 105.1032383
          },
          "viNameLanguage": "Xã Châu Hồng",
          "keyAccentLanguage": "Xa_Chau_Hong"
        },
        {
          "type": "Commune",
          "location": {
            "lat": 19.407929,
            "lng": 105.2831195
          },
          "viNameLanguage": "Xã Đồng Hợp",
          "keyAccentLanguage": "Xa_Dong_Hop"
        },
        {
          "type": "Commune",
          "location": {
            "lat": 19.3918269,
            "lng": 105.0462437
          },
          "viNameLanguage": "Xã Châu Thành",
          "keyAccentLanguage": "Xa_Chau_Thanh"
        },
        {
          "type": "Commune",
          "location": {
            "lat": 19.404253,
            "lng": 105.1734127
          },
          "viNameLanguage": "Xã Liên Hợp",
          "keyAccentLanguage": "Xa_Lien_Hop"
        },
        {
          "type": "Commune",
          "location": {
            "lat": 19.3648875,
            "lng": 105.2275257
          },
          "viNameLanguage": "Xã Châu Lộc",
          "keyAccentLanguage": "Xa_Chau_Loc"
        },
        {
          "type": "Commune",
          "location": {
            "lat": 19.1145418,
            "lng": 104.4024704
          },
          "viNameLanguage": "Xã Tam Hợp",
          "keyAccentLanguage": "Xa_Tam_Hop"
        },
        {
          "type": "Commune",
          "location": {
            "lat": 19.3512595,
            "lng": 105.114932
          },
          "viNameLanguage": "Xã Châu Cường",
          "keyAccentLanguage": "Xa_Chau_Cuong"
        },
        {
          "type": "Commune",
          "location": {
            "lat": 19.3369963,
            "lng": 105.1551352
          },
          "viNameLanguage": "Xã Châu Quang",
          "keyAccentLanguage": "Xa_Chau_Quang"
        },
        {
          "type": "Commune",
          "location": {
            "lat": 19.3393178,
            "lng": 105.2216748
          },
          "viNameLanguage": "Xã Thọ Hợp",
          "keyAccentLanguage": "Xa_Tho_Hop"
        },
        {
          "type": "Commune",
          "location": {
            "lat": 19.3038909,
            "lng": 105.2721456
          },
          "viNameLanguage": "Xã Minh Hợp",
          "keyAccentLanguage": "Xa_Minh_Hop"
        },
        {
          "type": "Commune",
          "location": {
            "lat": 19.3230569,
            "lng": 105.3189726
          },
          "viNameLanguage": "Xã Nghĩa Xuân",
          "keyAccentLanguage": "Xa_Nghia_Xuan"
        },
        {
          "type": "Commune",
          "location": {
            "lat": 19.3143939,
            "lng": 105.1397837
          },
          "viNameLanguage": "Xã Châu Thái",
          "keyAccentLanguage": "Xa_Chau_Thai"
        },
        {
          "type": "Commune",
          "location": {
            "lat": 19.2886695,
            "lng": 105.1785307
          },
          "viNameLanguage": "Xã Châu Đình",
          "keyAccentLanguage": "Xa_Chau_Dinh"
        },
        {
          "type": "Commune",
          "location": {
            "lat": 19.2849112,
            "lng": 105.2143615
          },
          "viNameLanguage": "Xã Văn Lợi",
          "keyAccentLanguage": "Xa_Van_Loi"
        },
        {
          "type": "Commune",
          "location": {
            "lat": 18.9077085,
            "lng": 105.2597094
          },
          "viNameLanguage": "Xã Nam Sơn",
          "keyAccentLanguage": "Xa_Nam_Son"
        },
        {
          "type": "Commune",
          "location": {
            "lat": 19.2481374,
            "lng": 105.1353979
          },
          "viNameLanguage": "Xã Châu Lý",
          "keyAccentLanguage": "Xa_Chau_Ly"
        },
        {
          "type": "Commune",
          "location": {
            "lat": 19.2526384,
            "lng": 105.2875093
          },
          "viNameLanguage": "Xã Hạ Sơn",
          "keyAccentLanguage": "Xa_Ha_Son"
        },
        {
          "type": "Commune",
          "location": {
            "lat": 18.9187169,
            "lng": 105.2750719
          },
          "viNameLanguage": "Xã Bắc Sơn",
          "keyAccentLanguage": "Xa_Bac_Son"
        }
      ]
    },
    {
      "category": null,
      "type": "District",
      "viNameLanguage": "Huyện Quỳnh Lưu",
      "location": {
        "lat": 19.1989348,
        "lng": 105.6177942
      },
      "postalCode": "4300010",
      "keyAccentLanguage": "Huyen_Quynh_Luu",
      "wards": [
        {
          "type": "Town",
          "location": {
            "lat": 19.1416697,
            "lng": 105.6280569
          },
          "viNameLanguage": "Thị trấn Cầu Giát",
          "keyAccentLanguage": "Thi_tran_Cau_Giat"
        },
        {
          "type": "Commune",
          "location": {
            "lat": 19.2598232,
            "lng": 105.5826123
          },
          "viNameLanguage": "Xã Quỳnh Thắng",
          "keyAccentLanguage": "Xa_Quynh_Thang"
        },
        {
          "type": "Commune",
          "location": {
            "lat": 19.2263185,
            "lng": 105.6353878
          },
          "viNameLanguage": "Xã Quỳnh Tân",
          "keyAccentLanguage": "Xa_Quynh_Tan"
        },
        {
          "type": "Commune",
          "location": {
            "lat": 19.2155833,
            "lng": 105.5591615
          },
          "viNameLanguage": "Xã Quỳnh Châu",
          "keyAccentLanguage": "Xa_Quynh_Chau"
        },
        {
          "type": "Commune",
          "location": {
            "lat": 19.1858142,
            "lng": 105.4683193
          },
          "viNameLanguage": "Xã Tân Sơn",
          "keyAccentLanguage": "Xa_Tan_Son"
        },
        {
          "type": "Commune",
          "location": {
            "lat": 19.2011478,
            "lng": 105.6588485
          },
          "viNameLanguage": "Xã Quỳnh Văn",
          "keyAccentLanguage": "Xa_Quynh_Van"
        },
        {
          "type": "Commune",
          "location": {
            "lat": 18.7501225,
            "lng": 105.3892372
          },
          "viNameLanguage": "Xã Ngọc Sơn",
          "keyAccentLanguage": "Xa_Ngoc_Son"
        },
        {
          "type": "Commune",
          "location": {
            "lat": 19.1796463,
            "lng": 105.5064087
          },
          "viNameLanguage": "Xã Quỳnh Tam",
          "keyAccentLanguage": "Xa_Quynh_Tam"
        },
        {
          "type": "Commune",
          "location": {
            "lat": 19.1800604,
            "lng": 105.6353878
          },
          "viNameLanguage": "Xã Quỳnh Hoa",
          "keyAccentLanguage": "Xa_Quynh_Hoa"
        },
        {
          "type": "Commune",
          "location": {
            "lat": 19.1753303,
            "lng": 105.6756683
          },
          "viNameLanguage": "Xã Quỳnh Thạch",
          "keyAccentLanguage": "Xa_Quynh_Thach"
        },
        {
          "type": "Commune",
          "location": {
            "lat": 19.1729097,
            "lng": 105.7175138
          },
          "viNameLanguage": "Xã Quỳnh Bảng",
          "keyAccentLanguage": "Xa_Quynh_Bang"
        },
        {
          "type": "Commune",
          "location": {
            "lat": 19.1673861,
            "lng": 105.6148621
          },
          "viNameLanguage": "Xã Quỳnh Mỹ",
          "keyAccentLanguage": "Xa_Quynh_My"
        },
        {
          "type": "Commune",
          "location": {
            "lat": 19.1644176,
            "lng": 105.6823124
          },
          "viNameLanguage": "Xã Quỳnh Thanh",
          "keyAccentLanguage": "Xa_Quynh_Thanh"
        },
        {
          "type": "Commune",
          "location": {
            "lat": 19.1643327,
            "lng": 105.6500504
          },
          "viNameLanguage": "Xã Quỳnh Hậu",
          "keyAccentLanguage": "Xa_Quynh_Hau"
        },
        {
          "type": "Commune",
          "location": {
            "lat": 19.1484179,
            "lng": 105.6002024
          },
          "viNameLanguage": "Xã Quỳnh Lâm",
          "keyAccentLanguage": "Xa_Quynh_Lam"
        },
        {
          "type": "Commune",
          "location": {
            "lat": 19.1507314,
            "lng": 105.6735131
          },
          "viNameLanguage": "Xã Quỳnh Đôi",
          "keyAccentLanguage": "Xa_Quynh_Doi"
        },
        {
          "type": "Commune",
          "location": {
            "lat": 19.1524239,
            "lng": 105.7204476
          },
          "viNameLanguage": "Xã Quỳnh Lương",
          "keyAccentLanguage": "Xa_Quynh_Luong"
        },
        {
          "type": "Commune",
          "location": {
            "lat": 19.1501137,
            "lng": 105.6412976
          },
          "viNameLanguage": "Xã Quỳnh Hồng",
          "keyAccentLanguage": "Xa_Quynh_Hong"
        },
        {
          "type": "Commune",
          "location": {
            "lat": 19.1381501,
            "lng": 105.6852455
          },
          "viNameLanguage": "Xã Quỳnh Yên",
          "keyAccentLanguage": "Xa_Quynh_Yen"
        },
        {
          "type": "Commune",
          "location": {
            "lat": 19.1349178,
            "lng": 105.6559158
          },
          "viNameLanguage": "Xã Quỳnh Bá",
          "keyAccentLanguage": "Xa_Quynh_Ba"
        },
        {
          "type": "Commune",
          "location": {
            "lat": 19.1413761,
            "lng": 105.7145801
          },
          "viNameLanguage": "Xã Quỳnh Minh",
          "keyAccentLanguage": "Xa_Quynh_Minh"
        },
        {
          "type": "Commune",
          "location": {
            "lat": 19.1143353,
            "lng": 105.6265908
          },
          "viNameLanguage": "Xã Quỳnh Diễn",
          "keyAccentLanguage": "Xa_Quynh_Dien"
        },
        {
          "type": "Commune",
          "location": {
            "lat": 19.1185926,
            "lng": 105.6441852
          },
          "viNameLanguage": "Xã Quỳnh Hưng",
          "keyAccentLanguage": "Xa_Quynh_Hung"
        },
        {
          "type": "Commune",
          "location": {
            "lat": 19.1279273,
            "lng": 105.6031342
          },
          "viNameLanguage": "Xã Quỳnh Giang",
          "keyAccentLanguage": "Xa_Quynh_Giang"
        },
        {
          "type": "Commune",
          "location": {
            "lat": 19.1170669,
            "lng": 105.6617813
          },
          "viNameLanguage": "Xã Quỳnh Ngọc",
          "keyAccentLanguage": "Xa_Quynh_Ngoc"
        },
        {
          "type": "Commune",
          "location": {
            "lat": 19.1266715,
            "lng": 105.7175138
          },
          "viNameLanguage": "Xã Quỳnh Nghĩa",
          "keyAccentLanguage": "Xa_Quynh_Nghia"
        },
        {
          "type": "Commune",
          "location": {
            "lat": 19.1181745,
            "lng": 105.6823124
          },
          "viNameLanguage": "Xã An Hòa",
          "keyAccentLanguage": "Xa_An_Hoa"
        },
        {
          "type": "Commune",
          "location": {
            "lat": 19.1061886,
            "lng": 105.7204476
          },
          "viNameLanguage": "Xã Tiến Thủy",
          "keyAccentLanguage": "Xa_Tien_Thuy"
        },
        {
          "type": "Commune",
          "location": {
            "lat": 19.1039793,
            "lng": 105.6793792
          },
          "viNameLanguage": "Xã Sơn Hải",
          "keyAccentLanguage": "Xa_Son_Hai"
        },
        {
          "type": "Commune",
          "location": {
            "lat": 19.1002343,
            "lng": 105.6559158
          },
          "viNameLanguage": "Xã Quỳnh Thọ",
          "keyAccentLanguage": "Xa_Quynh_Tho"
        },
        {
          "type": "Commune",
          "location": {
            "lat": 19.1024507,
            "lng": 105.6969788
          },
          "viNameLanguage": "Xã Quỳnh Thuận",
          "keyAccentLanguage": "Xa_Quynh_Thuan"
        },
        {
          "type": "Commune",
          "location": {
            "lat": 19.0856219,
            "lng": 105.6911121
          },
          "viNameLanguage": "Xã Quỳnh Long",
          "keyAccentLanguage": "Xa_Quynh_Long"
        },
        {
          "type": "Commune",
          "location": {
            "lat": 19.3271943,
            "lng": 105.6060661
          },
          "viNameLanguage": "Xã Tân Thắng",
          "keyAccentLanguage": "Xa_Tan_Thang"
        }
      ]
    },
    {
      "category": null,
      "type": "District",
      "viNameLanguage": "Huyện Con Cuông",
      "location": {
        "lat": 19.0130593,
        "lng": 104.798771
      },
      "postalCode": "4300011",
      "keyAccentLanguage": "Huyen_Con_Cuong",
      "wards": [
        {
          "type": "Commune",
          "location": {
            "lat": 19.2459778,
            "lng": 104.9272044
          },
          "viNameLanguage": "Xã Bình Chuẩn",
          "keyAccentLanguage": "Xa_Binh_Chuan"
        },
        {
          "type": "Commune",
          "location": {
            "lat": 19.1221707,
            "lng": 104.7404269
          },
          "viNameLanguage": "Xã Lạng Khê",
          "keyAccentLanguage": "Xa_Lang_Khe"
        },
        {
          "type": "Commune",
          "location": {
            "lat": 19.1860355,
            "lng": 104.8104424
          },
          "viNameLanguage": "Xã Cam Lâm",
          "keyAccentLanguage": "Xa_Cam_Lam"
        },
        {
          "type": "Commune",
          "location": {
            "lat": 19.0669734,
            "lng": 104.96298
          },
          "viNameLanguage": "Xã Thạch Ngàn",
          "keyAccentLanguage": "Xa_Thach_Ngan"
        },
        {
          "type": "Commune",
          "location": {
            "lat": 19.1570848,
            "lng": 104.8804893
          },
          "viNameLanguage": "Xã Đôn Phục",
          "keyAccentLanguage": "Xa_Don_Phuc"
        },
        {
          "type": "Commune",
          "location": {
            "lat": 19.1087901,
            "lng": 104.9038451
          },
          "viNameLanguage": "Xã Mậu Đức",
          "keyAccentLanguage": "Xa_Mau_Duc"
        },
        {
          "type": "Commune",
          "location": {
            "lat": 18.9993206,
            "lng": 104.6821048
          },
          "viNameLanguage": "Xã Châu Khê",
          "keyAccentLanguage": "Xa_Chau_Khe"
        },
        {
          "type": "Commune",
          "location": {
            "lat": 19.0700761,
            "lng": 104.8104424
          },
          "viNameLanguage": "Xã Chi Khê",
          "keyAccentLanguage": "Xa_Chi_Khe"
        },
        {
          "type": "Commune",
          "location": {
            "lat": 19.0696601,
            "lng": 104.8863279
          },
          "viNameLanguage": "Xã Bồng Khê",
          "keyAccentLanguage": "Xa_Bong_Khe"
        },
        {
          "type": "Commune",
          "location": {
            "lat": 19.0196164,
            "lng": 104.8870577
          },
          "viNameLanguage": "Xã Yên Khê",
          "keyAccentLanguage": "Xa_Yen_Khe"
        },
        {
          "type": "Commune",
          "location": {
            "lat": 18.9503524,
            "lng": 104.8571368
          },
          "viNameLanguage": "Xã Lục Dạ",
          "keyAccentLanguage": "Xa_Luc_Da"
        },
        {
          "type": "Commune",
          "location": {
            "lat": 18.9422912,
            "lng": 104.9469165
          },
          "viNameLanguage": "Xã Môn Sơn",
          "keyAccentLanguage": "Xa_Mon_Son"
        }
      ]
    },
    {
      "category": null,
      "type": "District",
      "viNameLanguage": "Huyện Tân Kỳ",
      "location": {
        "lat": 19.0748796,
        "lng": 105.1726816
      },
      "postalCode": "4300012",
      "keyAccentLanguage": "Huyen_Tan_Ky",
      "wards": [
        {
          "type": "Commune",
          "location": {
            "lat": 19.2130301,
            "lng": 105.1653704
          },
          "viNameLanguage": "Xã Tân Hợp",
          "keyAccentLanguage": "Xa_Tan_Hop"
        },
        {
          "type": "Commune",
          "location": {
            "lat": 19.1621567,
            "lng": 105.2962891
          },
          "viNameLanguage": "Xã Tân Phú",
          "keyAccentLanguage": "Xa_Tan_Phu"
        },
        {
          "type": "Commune",
          "location": {
            "lat": 19.1927058,
            "lng": 105.3284859
          },
          "viNameLanguage": "Xã Tân Xuân",
          "keyAccentLanguage": "Xa_Tan_Xuan"
        },
        {
          "type": "Commune",
          "location": {
            "lat": 19.1567649,
            "lng": 105.2231375
          },
          "viNameLanguage": "Xã Giai Xuân",
          "keyAccentLanguage": "Xa_Giai_Xuan"
        },
        {
          "type": "Commune",
          "location": {
            "lat": 19.1736204,
            "lng": 105.3826487
          },
          "viNameLanguage": "Xã Nghĩa Bình",
          "keyAccentLanguage": "Xa_Nghia_Binh"
        },
        {
          "type": "Commune",
          "location": {
            "lat": 19.1695435,
            "lng": 105.3541013
          },
          "viNameLanguage": "Xã Nghĩa Đồng",
          "keyAccentLanguage": "Xa_Nghia_Dong"
        },
        {
          "type": "Commune",
          "location": {
            "lat": 19.1169942,
            "lng": 105.1105468
          },
          "viNameLanguage": "Xã Đồng Văn",
          "keyAccentLanguage": "Xa_Dong_Van"
        },
        {
          "type": "Commune",
          "location": {
            "lat": 19.1583097,
            "lng": 105.3160455
          },
          "viNameLanguage": "Xã Nghĩa Thái",
          "keyAccentLanguage": "Xa_Nghia_Thai"
        },
        {
          "type": "Commune",
          "location": {
            "lat": 19.1442079,
            "lng": 105.3372679
          },
          "viNameLanguage": "Xã Nghĩa Hợp",
          "keyAccentLanguage": "Xa_Nghia_Hop"
        },
        {
          "type": "Commune",
          "location": {
            "lat": 19.1381328,
            "lng": 105.2809247
          },
          "viNameLanguage": "Xã Nghĩa Hoàn",
          "keyAccentLanguage": "Xa_Nghia_Hoan"
        },
        {
          "type": "Commune",
          "location": {
            "lat": 19.1119706,
            "lng": 105.2136302
          },
          "viNameLanguage": "Xã Nghĩa Phúc",
          "keyAccentLanguage": "Xa_Nghia_Phuc"
        },
        {
          "type": "Commune",
          "location": {
            "lat": 19.0952492,
            "lng": 105.0674317
          },
          "viNameLanguage": "Xã Tiên Kỳ",
          "keyAccentLanguage": "Xa_Tien_Ky"
        },
        {
          "type": "Commune",
          "location": {
            "lat": 19.0751507,
            "lng": 105.1953483
          },
          "viNameLanguage": "Xã Tân An",
          "keyAccentLanguage": "Xa_Tan_An"
        },
        {
          "type": "Commune",
          "location": {
            "lat": 19.1165125,
            "lng": 105.3226315
          },
          "viNameLanguage": "Xã Nghĩa Dũng",
          "keyAccentLanguage": "Xa_Nghia_Dung"
        },
        {
          "type": "Commune",
          "location": {
            "lat": 19.1070382,
            "lng": 105.2721456
          },
          "viNameLanguage": "Xã Tân Long",
          "keyAccentLanguage": "Xa_Tan_Long"
        },
        {
          "type": "Commune",
          "location": {
            "lat": 19.0405367,
            "lng": 105.2370339
          },
          "viNameLanguage": "Xã Kỳ Sơn",
          "keyAccentLanguage": "Xa_Ky_Son"
        },
        {
          "type": "Commune",
          "location": {
            "lat": 19.0529736,
            "lng": 105.1836489
          },
          "viNameLanguage": "Xã Hương Sơn",
          "keyAccentLanguage": "Xa_Huong_Son"
        },
        {
          "type": "Commune",
          "location": {
            "lat": 19.0465114,
            "lng": 105.2692193
          },
          "viNameLanguage": "Xã Kỳ Tân",
          "keyAccentLanguage": "Xa_Ky_Tan"
        },
        {
          "type": "Commune",
          "location": {
            "lat": 19.0450228,
            "lng": 105.1142011
          },
          "viNameLanguage": "Xã Phú Sơn",
          "keyAccentLanguage": "Xa_Phu_Son"
        },
        {
          "type": "Commune",
          "location": {
            "lat": 19.0319046,
            "lng": 105.2019295
          },
          "viNameLanguage": "Xã Tân Hương",
          "keyAccentLanguage": "Xa_Tan_Huong"
        },
        {
          "type": "Commune",
          "location": {
            "lat": 19.0064169,
            "lng": 105.1865737
          },
          "viNameLanguage": "Xã Nghĩa Hành",
          "keyAccentLanguage": "Xa_Nghia_Hanh"
        }
      ]
    },
    {
      "category": null,
      "type": "District",
      "viNameLanguage": "Huyện Anh Sơn",
      "location": {
        "lat": 18.9688054,
        "lng": 105.0557415
      },
      "postalCode": "4300013",
      "keyAccentLanguage": "Huyen_Anh_Son",
      "wards": [
        {
          "type": "Commune",
          "location": {
            "lat": 19.1163851,
            "lng": 105.0396687
          },
          "viNameLanguage": "Xã Thọ Sơn",
          "keyAccentLanguage": "Xa_Tho_Son"
        },
        {
          "type": "Commune",
          "location": {
            "lat": 19.0570776,
            "lng": 104.9951118
          },
          "viNameLanguage": "Xã Thành Sơn",
          "keyAccentLanguage": "Xa_Thanh_Son"
        },
        {
          "type": "Commune",
          "location": {
            "lat": 19.0516379,
            "lng": 105.0433215
          },
          "viNameLanguage": "Xã Bình Sơn",
          "keyAccentLanguage": "Xa_Binh_Son"
        },
        {
          "type": "Commune",
          "location": {
            "lat": 19.0431858,
            "lng": 104.935235
          },
          "viNameLanguage": "Xã Tam Sơn",
          "keyAccentLanguage": "Xa_Tam_Son"
        },
        {
          "type": "Commune",
          "location": {
            "lat": 19.0217689,
            "lng": 104.9578687
          },
          "viNameLanguage": "Xã Đỉnh Sơn",
          "keyAccentLanguage": "Xa_Dinh_Son"
        },
        {
          "type": "Commune",
          "location": {
            "lat": 18.997824,
            "lng": 105.0111801
          },
          "viNameLanguage": "Xã Hùng Sơn",
          "keyAccentLanguage": "Xa_Hung_Son"
        },
        {
          "type": "Commune",
          "location": {
            "lat": 18.9841254,
            "lng": 104.9929208
          },
          "viNameLanguage": "Xã Cẩm Sơn",
          "keyAccentLanguage": "Xa_Cam_Son"
        },
        {
          "type": "Commune",
          "location": {
            "lat": 18.9847259,
            "lng": 105.0732771
          },
          "viNameLanguage": "Xã Đức Sơn",
          "keyAccentLanguage": "Xa_Duc_Son"
        },
        {
          "type": "Commune",
          "location": {
            "lat": 18.964885,
            "lng": 105.0243281
          },
          "viNameLanguage": "Xã Tường Sơn",
          "keyAccentLanguage": "Xa_Tuong_Son"
        },
        {
          "type": "Commune",
          "location": {
            "lat": 18.9024187,
            "lng": 105.3658125
          },
          "viNameLanguage": "Xã Hoa Sơn",
          "keyAccentLanguage": "Xa_Hoa_Son"
        },
        {
          "type": "Commune",
          "location": {
            "lat": 18.9604909,
            "lng": 105.2253316
          },
          "viNameLanguage": "Xã Tào Sơn",
          "keyAccentLanguage": "Xa_Tao_Son"
        },
        {
          "type": "Commune",
          "location": {
            "lat": 18.9567162,
            "lng": 105.1317431
          },
          "viNameLanguage": "Xã Vĩnh Sơn",
          "keyAccentLanguage": "Xa_Vinh_Son"
        },
        {
          "type": "Commune",
          "location": {
            "lat": 18.9518477,
            "lng": 105.1902297
          },
          "viNameLanguage": "Xã Lạng Sơn",
          "keyAccentLanguage": "Xa_Lang_Son"
        },
        {
          "type": "Commune",
          "location": {
            "lat": 18.9249554,
            "lng": 105.0520884
          },
          "viNameLanguage": "Xã Hội Sơn",
          "keyAccentLanguage": "Xa_Hoi_Son"
        },
        {
          "type": "Commune",
          "location": {
            "lat": 18.9422006,
            "lng": 105.0886224
          },
          "viNameLanguage": "Xã Thạch Sơn",
          "keyAccentLanguage": "Xa_Thach_Son"
        },
        {
          "type": "Commune",
          "location": {
            "lat": 18.8375139,
            "lng": 104.9622498
          },
          "viNameLanguage": "Xã Phúc Sơn",
          "keyAccentLanguage": "Xa_Phuc_Son"
        },
        {
          "type": "Commune",
          "location": {
            "lat": 18.9104074,
            "lng": 105.1317431
          },
          "viNameLanguage": "Xã Long Sơn",
          "keyAccentLanguage": "Xa_Long_Son"
        },
        {
          "type": "Commune",
          "location": {
            "lat": 18.9396376,
            "lng": 105.1544042
          },
          "viNameLanguage": "Xã Khai Sơn",
          "keyAccentLanguage": "Xa_Khai_Son"
        },
        {
          "type": "Commune",
          "location": {
            "lat": 18.9141969,
            "lng": 105.2253316
          },
          "viNameLanguage": "Xã Lĩnh Sơn",
          "keyAccentLanguage": "Xa_Linh_Son"
        },
        {
          "type": "Commune",
          "location": {
            "lat": 18.9002487,
            "lng": 105.1843801
          },
          "viNameLanguage": "Xã Cao Sơn",
          "keyAccentLanguage": "Xa_Cao_Son"
        }
      ]
    },
    {
      "category": null,
      "type": "District",
      "viNameLanguage": "Huyện Diễn Châu",
      "location": {
        "lat": 19.0179688,
        "lng": 105.5708865
      },
      "postalCode": "4300014",
      "keyAccentLanguage": "Huyen_Dien_Chau",
      "wards": [
        {
          "type": "Commune",
          "location": {
            "lat": 19.1482023,
            "lng": 105.5357139
          },
          "viNameLanguage": "Xã Diễn Lâm",
          "keyAccentLanguage": "Xa_Dien_Lam"
        },
        {
          "type": "Commune",
          "location": {
            "lat": 19.1157507,
            "lng": 105.5767493
          },
          "viNameLanguage": "Xã Diễn Đoài",
          "keyAccentLanguage": "Xa_Dien_Doai"
        },
        {
          "type": "Commune",
          "location": {
            "lat": 19.0990191,
            "lng": 105.6031342
          },
          "viNameLanguage": "Xã Diễn Trường",
          "keyAccentLanguage": "Xa_Dien_Truong"
        },
        {
          "type": "Commune",
          "location": {
            "lat": 19.0800486,
            "lng": 105.5884754
          },
          "viNameLanguage": "Xã Diễn Yên",
          "keyAccentLanguage": "Xa_Dien_Yen"
        },
        {
          "type": "Commune",
          "location": {
            "lat": 19.0907042,
            "lng": 105.6324554
          },
          "viNameLanguage": "Xã Diễn Hoàng",
          "keyAccentLanguage": "Xa_Dien_Hoang"
        },
        {
          "type": "Commune",
          "location": {
            "lat": 19.0781287,
            "lng": 105.6441852
          },
          "viNameLanguage": "Xã Diễn Hùng",
          "keyAccentLanguage": "Xa_Dien_Hung"
        },
        {
          "type": "Commune",
          "location": {
            "lat": 19.0633206,
            "lng": 105.6148621
          },
          "viNameLanguage": "Xã Diễn Mỹ",
          "keyAccentLanguage": "Xa_Dien_My"
        },
        {
          "type": "Commune",
          "location": {
            "lat": 19.0490087,
            "lng": 105.5796808
          },
          "viNameLanguage": "Xã Diễn Hồng",
          "keyAccentLanguage": "Xa_Dien_Hong"
        },
        {
          "type": "Commune",
          "location": {
            "lat": 19.0532756,
            "lng": 105.5972706
          },
          "viNameLanguage": "Xã Diễn Phong",
          "keyAccentLanguage": "Xa_Dien_Phong"
        },
        {
          "type": "Commune",
          "location": {
            "lat": 19.0507478,
            "lng": 105.6265908
          },
          "viNameLanguage": "Xã Diễn Hải",
          "keyAccentLanguage": "Xa_Dien_Hai"
        },
        {
          "type": "Commune",
          "location": {
            "lat": 19.0384543,
            "lng": 105.5679552
          },
          "viNameLanguage": "Xã Diễn Tháp",
          "keyAccentLanguage": "Xa_Dien_Thap"
        },
        {
          "type": "Commune",
          "location": {
            "lat": 19.036822,
            "lng": 105.5532993
          },
          "viNameLanguage": "Xã Diễn Liên",
          "keyAccentLanguage": "Xa_Dien_Lien"
        },
        {
          "type": "Commune",
          "location": {
            "lat": 19.0296483,
            "lng": 105.6031342
          },
          "viNameLanguage": "Xã Diễn Vạn",
          "keyAccentLanguage": "Xa_Dien_Van"
        },
        {
          "type": "Commune",
          "location": {
            "lat": 19.0228583,
            "lng": 105.6148621
          },
          "viNameLanguage": "Xã Diễn Kim",
          "keyAccentLanguage": "Xa_Dien_Kim"
        },
        {
          "type": "Commune",
          "location": {
            "lat": 19.0222385,
            "lng": 105.5884754
          },
          "viNameLanguage": "Xã Diễn Kỷ",
          "keyAccentLanguage": "Xa_Dien_Ky"
        },
        {
          "type": "Commune",
          "location": {
            "lat": 19.015833,
            "lng": 105.5620927
          },
          "viNameLanguage": "Xã Diễn Xuân",
          "keyAccentLanguage": "Xa_Dien_Xuan"
        },
        {
          "type": "Commune",
          "location": {
            "lat": 19.0073661,
            "lng": 105.5244547
          },
          "viNameLanguage": "Xã Diễn Thái",
          "keyAccentLanguage": "Xa_Dien_Thai"
        },
        {
          "type": "Commune",
          "location": {
            "lat": 19.0092351,
            "lng": 105.5547648
          },
          "viNameLanguage": "Xã Diễn Đồng",
          "keyAccentLanguage": "Xa_Dien_Dong"
        },
        {
          "type": "Commune",
          "location": {
            "lat": 19.0123075,
            "lng": 105.6031342
          },
          "viNameLanguage": "Xã Diễn Bích",
          "keyAccentLanguage": "Xa_Dien_Bich"
        },
        {
          "type": "Commune",
          "location": {
            "lat": 18.9979877,
            "lng": 105.5679552
          },
          "viNameLanguage": "Xã Diễn Hạnh",
          "keyAccentLanguage": "Xa_Dien_Hanh"
        },
        {
          "type": "Commune",
          "location": {
            "lat": 19.0012514,
            "lng": 105.5972706
          },
          "viNameLanguage": "Xã Diễn Ngọc",
          "keyAccentLanguage": "Xa_Dien_Ngoc"
        },
        {
          "type": "Commune",
          "location": {
            "lat": 18.9874312,
            "lng": 105.5562304
          },
          "viNameLanguage": "Xã Diễn Quảng",
          "keyAccentLanguage": "Xa_Dien_Quang"
        },
        {
          "type": "Commune",
          "location": {
            "lat": 18.9831554,
            "lng": 105.5386447
          },
          "viNameLanguage": "Xã Diễn Nguyên",
          "keyAccentLanguage": "Xa_Dien_Nguyen"
        },
        {
          "type": "Commune",
          "location": {
            "lat": 18.9906983,
            "lng": 105.5855438
          },
          "viNameLanguage": "Xã Diễn Hoa",
          "keyAccentLanguage": "Xa_Dien_Hoa"
        },
        {
          "type": "Commune",
          "location": {
            "lat": 18.9739831,
            "lng": 105.6119301
          },
          "viNameLanguage": "Xã Diễn Thành",
          "keyAccentLanguage": "Xa_Dien_Thanh"
        },
        {
          "type": "Commune",
          "location": {
            "lat": 18.9675784,
            "lng": 105.5855438
          },
          "viNameLanguage": "Xã Diễn Phúc",
          "keyAccentLanguage": "Xa_Dien_Phuc"
        },
        {
          "type": "Commune",
          "location": {
            "lat": 18.9585287,
            "lng": 105.5562304
          },
          "viNameLanguage": "Xã Diễn Cát",
          "keyAccentLanguage": "Xa_Dien_Cat"
        },
        {
          "type": "Commune",
          "location": {
            "lat": 18.9508665,
            "lng": 105.6119301
          },
          "viNameLanguage": "Xã Diễn Thịnh",
          "keyAccentLanguage": "Xa_Dien_Thinh"
        },
        {
          "type": "Commune",
          "location": {
            "lat": 18.9502395,
            "lng": 105.5855438
          },
          "viNameLanguage": "Xã Diễn Tân",
          "keyAccentLanguage": "Xa_Dien_Tan"
        },
        {
          "type": "Commune",
          "location": {
            "lat": 19.1483712,
            "lng": 104.8454619
          },
          "viNameLanguage": "Xã Minh Châu",
          "keyAccentLanguage": "Xa_Minh_Chau"
        },
        {
          "type": "Commune",
          "location": {
            "lat": 18.9339047,
            "lng": 105.5738179
          },
          "viNameLanguage": "Xã Diễn Thọ",
          "keyAccentLanguage": "Xa_Dien_Tho"
        },
        {
          "type": "Commune",
          "location": {
            "lat": 18.9222097,
            "lng": 105.5415755
          },
          "viNameLanguage": "Xã Diễn Lợi",
          "keyAccentLanguage": "Xa_Dien_Loi"
        },
        {
          "type": "Commune",
          "location": {
            "lat": 18.9381784,
            "lng": 105.5914071
          },
          "viNameLanguage": "Xã Diễn Lộc",
          "keyAccentLanguage": "Xa_Dien_Loc"
        },
        {
          "type": "Commune",
          "location": {
            "lat": 18.9036325,
            "lng": 105.6236585
          },
          "viNameLanguage": "Xã Diễn Trung",
          "keyAccentLanguage": "Xa_Dien_Trung"
        },
        {
          "type": "Commune",
          "location": {
            "lat": 18.9025014,
            "lng": 105.6031342
          },
          "viNameLanguage": "Xã Diễn An",
          "keyAccentLanguage": "Xa_Dien_An"
        },
        {
          "type": "Commune",
          "location": {
            "lat": 18.8960894,
            "lng": 105.5767493
          },
          "viNameLanguage": "Xã Diễn Phú",
          "keyAccentLanguage": "Xa_Dien_Phu"
        }
      ]
    },
    {
      "category": null,
      "type": "District",
      "viNameLanguage": "Huyện Yên Thành",
      "location": {
        "lat": 19.0511285,
        "lng": 105.4536718
      },
      "postalCode": "4300015",
      "keyAccentLanguage": "Huyen_Yen_Thanh",
      "wards": [
        {
          "type": "Commune",
          "location": {
            "lat": 19.0881079,
            "lng": 105.494688
          },
          "viNameLanguage": "Xã Mã Thành",
          "keyAccentLanguage": "Xa_Ma_Thanh"
        },
        {
          "type": "Commune",
          "location": {
            "lat": 19.1383969,
            "lng": 105.4478131
          },
          "viNameLanguage": "Xã Tiến Thành",
          "keyAccentLanguage": "Xa_Tien_Thanh"
        },
        {
          "type": "Commune",
          "location": {
            "lat": 19.1056881,
            "lng": 105.4243804
          },
          "viNameLanguage": "Xã Lăng Thành",
          "keyAccentLanguage": "Xa_Lang_Thanh"
        },
        {
          "type": "Commune",
          "location": {
            "lat": 19.1218044,
            "lng": 105.5064087
          },
          "viNameLanguage": "Xã Tân Thành",
          "keyAccentLanguage": "Xa_Tan_Thanh"
        },
        {
          "type": "Commune",
          "location": {
            "lat": 19.09565,
            "lng": 105.5415755
          },
          "viNameLanguage": "Xã Đức Thành",
          "keyAccentLanguage": "Xa_Duc_Thanh"
        },
        {
          "type": "Commune",
          "location": {
            "lat": 19.0614027,
            "lng": 105.4009508
          },
          "viNameLanguage": "Xã Kim Thành",
          "keyAccentLanguage": "Xa_Kim_Thanh"
        },
        {
          "type": "Commune",
          "location": {
            "lat": 19.0428442,
            "lng": 105.4829681
          },
          "viNameLanguage": "Xã Hậu Thành",
          "keyAccentLanguage": "Xa_Hau_Thanh"
        },
        {
          "type": "Commune",
          "location": {
            "lat": 18.586144,
            "lng": 105.6559158
          },
          "viNameLanguage": "Xã Hùng Thành",
          "keyAccentLanguage": "Xa_Hung_Thanh"
        },
        {
          "type": "Commune",
          "location": {
            "lat": 19.0705046,
            "lng": 105.5650239
          },
          "viNameLanguage": "Xã Đô Thành",
          "keyAccentLanguage": "Xa_Do_Thanh"
        },
        {
          "type": "Commune",
          "location": {
            "lat": 19.0609556,
            "lng": 105.5415755
          },
          "viNameLanguage": "Xã Thọ Thành",
          "keyAccentLanguage": "Xa_Tho_Thanh"
        },
        {
          "type": "Commune",
          "location": {
            "lat": 19.0412445,
            "lng": 105.3658125
          },
          "viNameLanguage": "Xã Quang Thành",
          "keyAccentLanguage": "Xa_Quang_Thanh"
        },
        {
          "type": "Commune",
          "location": {
            "lat": 19.0326462,
            "lng": 105.3306814
          },
          "viNameLanguage": "Xã Tây Thành",
          "keyAccentLanguage": "Xa_Tay_Thanh"
        },
        {
          "type": "Commune",
          "location": {
            "lat": 19.0342767,
            "lng": 105.4478131
          },
          "viNameLanguage": "Xã Phúc Thành",
          "keyAccentLanguage": "Xa_Phuc_Thanh"
        },
        {
          "type": "Commune",
          "location": {
            "lat": 19.042477,
            "lng": 105.5210607
          },
          "viNameLanguage": "Xã Hồng Thành",
          "keyAccentLanguage": "Xa_Hong_Thanh"
        },
        {
          "type": "Commune",
          "location": {
            "lat": 18.7976495,
            "lng": 105.3394635
          },
          "viNameLanguage": "Xã Đồng Thành",
          "keyAccentLanguage": "Xa_Dong_Thanh"
        },
        {
          "type": "Commune",
          "location": {
            "lat": 19.025632,
            "lng": 105.5151997
          },
          "viNameLanguage": "Xã Phú Thành",
          "keyAccentLanguage": "Xa_Phu_Thanh"
        },
        {
          "type": "Commune",
          "location": {
            "lat": 18.9987238,
            "lng": 105.491758
          },
          "viNameLanguage": "Xã Hoa Thành",
          "keyAccentLanguage": "Xa_Hoa_Thanh"
        },
        {
          "type": "Commune",
          "location": {
            "lat": 19.0080017,
            "lng": 105.4507424
          },
          "viNameLanguage": "Xã Tăng Thành",
          "keyAccentLanguage": "Xa_Tang_Thanh"
        },
        {
          "type": "Commune",
          "location": {
            "lat": 19.0180707,
            "lng": 105.4683193
          },
          "viNameLanguage": "Xã Văn Thành",
          "keyAccentLanguage": "Xa_Van_Thanh"
        },
        {
          "type": "Commune",
          "location": {
            "lat": 18.9969429,
            "lng": 105.3423909
          },
          "viNameLanguage": "Xã Thịnh Thành",
          "keyAccentLanguage": "Xa_Thinh_Thanh"
        },
        {
          "type": "Commune",
          "location": {
            "lat": 19.0061463,
            "lng": 105.5064087
          },
          "viNameLanguage": "Xã Hợp Thành",
          "keyAccentLanguage": "Xa_Hop_Thanh"
        },
        {
          "type": "Commune",
          "location": {
            "lat": 19.001568,
            "lng": 105.4243804
          },
          "viNameLanguage": "Xã Xuân Thành",
          "keyAccentLanguage": "Xa_Xuan_Thanh"
        },
        {
          "type": "Commune",
          "location": {
            "lat": 18.9774396,
            "lng": 105.4360963
          },
          "viNameLanguage": "Xã Bắc Thành",
          "keyAccentLanguage": "Xa_Bac_Thanh"
        },
        {
          "type": "Commune",
          "location": {
            "lat": 18.9830188,
            "lng": 105.5064087
          },
          "viNameLanguage": "Xã Nhân Thành",
          "keyAccentLanguage": "Xa_Nhan_Thanh"
        },
        {
          "type": "Commune",
          "location": {
            "lat": 18.9705042,
            "lng": 105.4155939
          },
          "viNameLanguage": "Xã Trung Thành",
          "keyAccentLanguage": "Xa_Trung_Thanh"
        },
        {
          "type": "Commune",
          "location": {
            "lat": 18.96503,
            "lng": 105.4800382
          },
          "viNameLanguage": "Xã Long Thành",
          "keyAccentLanguage": "Xa_Long_Thanh"
        },
        {
          "type": "Commune",
          "location": {
            "lat": 18.9592672,
            "lng": 105.3775245
          },
          "viNameLanguage": "Xã Minh Thành",
          "keyAccentLanguage": "Xa_Minh_Thanh"
        },
        {
          "type": "Commune",
          "location": {
            "lat": 18.7402689,
            "lng": 105.5064087
          },
          "viNameLanguage": "Xã Nam Thành",
          "keyAccentLanguage": "Xa_Nam_Thanh"
        },
        {
          "type": "Commune",
          "location": {
            "lat": 18.9483303,
            "lng": 105.5064087
          },
          "viNameLanguage": "Xã Vĩnh Thành",
          "keyAccentLanguage": "Xa_Vinh_Thanh"
        },
        {
          "type": "Commune",
          "location": {
            "lat": 18.9562942,
            "lng": 105.4126652
          },
          "viNameLanguage": "Xã Lý Thành",
          "keyAccentLanguage": "Xa_Ly_Thanh"
        },
        {
          "type": "Commune",
          "location": {
            "lat": 18.9376149,
            "lng": 105.4624601
          },
          "viNameLanguage": "Xã Khánh Thành",
          "keyAccentLanguage": "Xa_Khanh_Thanh"
        },
        {
          "type": "Commune",
          "location": {
            "lat": 18.9293435,
            "lng": 105.491758
          },
          "viNameLanguage": "Xã Viên Thành",
          "keyAccentLanguage": "Xa_Vien_Thanh"
        },
        {
          "type": "Commune",
          "location": {
            "lat": 18.9267151,
            "lng": 105.386309
          },
          "viNameLanguage": "Xã Đại Thành",
          "keyAccentLanguage": "Xa_Dai_Thanh"
        },
        {
          "type": "Commune",
          "location": {
            "lat": 18.808111,
            "lng": 105.248737
          },
          "viNameLanguage": "Xã Liên Thành",
          "keyAccentLanguage": "Xa_Lien_Thanh"
        },
        {
          "type": "Commune",
          "location": {
            "lat": 18.9082096,
            "lng": 105.4683193
          },
          "viNameLanguage": "Xã Bảo Thành",
          "keyAccentLanguage": "Xa_Bao_Thanh"
        },
        {
          "type": "Commune",
          "location": {
            "lat": 18.9028239,
            "lng": 105.4246842
          },
          "viNameLanguage": "Xã Mỹ Thành",
          "keyAccentLanguage": "Xa_My_Thanh"
        },
        {
          "type": "Commune",
          "location": {
            "lat": 18.9196136,
            "lng": 105.4360963
          },
          "viNameLanguage": "Xã Công Thành",
          "keyAccentLanguage": "Xa_Cong_Thanh"
        },
        {
          "type": "Commune",
          "location": {
            "lat": 18.9030803,
            "lng": 105.494688
          },
          "viNameLanguage": "Xã Sơn Thành",
          "keyAccentLanguage": "Xa_Son_Thanh"
        }
      ]
    },
    {
      "category": null,
      "type": "District",
      "viNameLanguage": "Huyện Đô Lương",
      "location": {
        "lat": 18.8990982,
        "lng": 105.336536
      },
      "postalCode": "4300016",
      "keyAccentLanguage": "Huyen_Do_Luong",
      "wards": [
        {
          "type": "Commune",
          "location": {
            "lat": 19.0240378,
            "lng": 105.2955575
          },
          "viNameLanguage": "Xã Giang Sơn Đông",
          "keyAccentLanguage": "Xa_Giang_Son_Dong"
        },
        {
          "type": "Commune",
          "location": {
            "lat": 18.992271,
            "lng": 105.2604409
          },
          "viNameLanguage": "Xã Giang Sơn Tây",
          "keyAccentLanguage": "Xa_Giang_Son_Tay"
        },
        {
          "type": "Commune",
          "location": {
            "lat": 18.9650781,
            "lng": 105.2655616
          },
          "viNameLanguage": "Xã Lam Sơn",
          "keyAccentLanguage": "Xa_Lam_Son"
        },
        {
          "type": "Commune",
          "location": {
            "lat": 18.942644,
            "lng": 105.2743403
          },
          "viNameLanguage": "Xã Bồi Sơn",
          "keyAccentLanguage": "Xa_Boi_Son"
        },
        {
          "type": "Commune",
          "location": {
            "lat": 18.962867,
            "lng": 105.2918992
          },
          "viNameLanguage": "Xã Hồng Sơn",
          "keyAccentLanguage": "Xa_Hong_Son"
        },
        {
          "type": "Commune",
          "location": {
            "lat": 18.9506635,
            "lng": 105.3423909
          },
          "viNameLanguage": "Xã Bài Sơn",
          "keyAccentLanguage": "Xa_Bai_Son"
        },
        {
          "type": "Commune",
          "location": {
            "lat": 18.7501225,
            "lng": 105.3892372
          },
          "viNameLanguage": "Xã Ngọc Sơn",
          "keyAccentLanguage": "Xa_Ngoc_Son"
        },
        {
          "type": "Commune",
          "location": {
            "lat": 18.9187169,
            "lng": 105.2750719
          },
          "viNameLanguage": "Xã Bắc Sơn",
          "keyAccentLanguage": "Xa_Bac_Son"
        },
        {
          "type": "Commune",
          "location": {
            "lat": 18.927833,
            "lng": 105.3043378
          },
          "viNameLanguage": "Xã Tràng Sơn",
          "keyAccentLanguage": "Xa_Trang_Son"
        },
        {
          "type": "Commune",
          "location": {
            "lat": 18.8743491,
            "lng": 105.4243804
          },
          "viNameLanguage": "Xã Thượng Sơn",
          "keyAccentLanguage": "Xa_Thuong_Son"
        },
        {
          "type": "Commune",
          "location": {
            "lat": 18.9024187,
            "lng": 105.3658125
          },
          "viNameLanguage": "Xã Hòa Sơn",
          "keyAccentLanguage": "Xa_Hoa_Son"
        },
        {
          "type": "Commune",
          "location": {
            "lat": 18.9061658,
            "lng": 105.2867776
          },
          "viNameLanguage": "Xã Đặng Sơn",
          "keyAccentLanguage": "Xa_Dang_Son"
        },
        {
          "type": "Commune",
          "location": {
            "lat": 18.9410655,
            "lng": 105.3189726
          },
          "viNameLanguage": "Xã Đông Sơn",
          "keyAccentLanguage": "Xa_Dong_Son"
        },
        {
          "type": "Commune",
          "location": {
            "lat": 18.9077085,
            "lng": 105.2597094
          },
          "viNameLanguage": "Xã Nam Sơn",
          "keyAccentLanguage": "Xa_Nam_Son"
        },
        {
          "type": "Commune",
          "location": {
            "lat": 18.895086,
            "lng": 105.2809247
          },
          "viNameLanguage": "Xã Lưu Sơn",
          "keyAccentLanguage": "Xa_Luu_Son"
        },
        {
          "type": "Commune",
          "location": {
            "lat": 18.897927,
            "lng": 105.3160455
          },
          "viNameLanguage": "Xã Yên Sơn",
          "keyAccentLanguage": "Xa_Yen_Son"
        },
        {
          "type": "Commune",
          "location": {
            "lat": 18.896944,
            "lng": 105.3277541
          },
          "viNameLanguage": "Xã Văn Sơn",
          "keyAccentLanguage": "Xa_Van_Son"
        },
        {
          "type": "Commune",
          "location": {
            "lat": 18.8815559,
            "lng": 105.3043378
          },
          "viNameLanguage": "Xã Đà Sơn",
          "keyAccentLanguage": "Xa_Da_Son"
        },
        {
          "type": "Commune",
          "location": {
            "lat": 18.8738086,
            "lng": 105.3277541
          },
          "viNameLanguage": "Xã Lạc Sơn",
          "keyAccentLanguage": "Xa_Lac_Son"
        },
        {
          "type": "Commune",
          "location": {
            "lat": 19.1858142,
            "lng": 105.4683193
          },
          "viNameLanguage": "Xã Tân Sơn",
          "keyAccentLanguage": "Xa_Tan_Son"
        },
        {
          "type": "Commune",
          "location": {
            "lat": 18.8635955,
            "lng": 105.3799348
          },
          "viNameLanguage": "Xã Thái Sơn",
          "keyAccentLanguage": "Xa_Thai_Son"
        },
        {
          "type": "Commune",
          "location": {
            "lat": 18.8736821,
            "lng": 105.3980224
          },
          "viNameLanguage": "Xã Quang Sơn",
          "keyAccentLanguage": "Xa_Quang_Son"
        },
        {
          "type": "Commune",
          "location": {
            "lat": 18.8928223,
            "lng": 105.3423909
          },
          "viNameLanguage": "Xã Thịnh Sơn",
          "keyAccentLanguage": "Xa_Thinh_Son"
        },
        {
          "type": "Commune",
          "location": {
            "lat": 18.8610665,
            "lng": 105.3072646
          },
          "viNameLanguage": "Xã Trung Sơn",
          "keyAccentLanguage": "Xa_Trung_Son"
        },
        {
          "type": "Commune",
          "location": {
            "lat": 18.8475378,
            "lng": 105.3306814
          },
          "viNameLanguage": "Xã Xuân Sơn",
          "keyAccentLanguage": "Xa_Xuan_Son"
        },
        {
          "type": "Commune",
          "location": {
            "lat": 18.856155,
            "lng": 105.3658125
          },
          "viNameLanguage": "Xã Minh Sơn",
          "keyAccentLanguage": "Xa_Minh_Son"
        },
        {
          "type": "Commune",
          "location": {
            "lat": 18.8465575,
            "lng": 105.2992159
          },
          "viNameLanguage": "Xã Thuận Sơn",
          "keyAccentLanguage": "Xa_Thuan_Son"
        },
        {
          "type": "Commune",
          "location": {
            "lat": 18.8310571,
            "lng": 105.3892372
          },
          "viNameLanguage": "Xã Nhân Sơn",
          "keyAccentLanguage": "Xa_Nhan_Son"
        },
        {
          "type": "Commune",
          "location": {
            "lat": 18.8512231,
            "lng": 105.4243804
          },
          "viNameLanguage": "Xã Hiến Sơn",
          "keyAccentLanguage": "Xa_Hien_Son"
        },
        {
          "type": "Commune",
          "location": {
            "lat": 18.8069467,
            "lng": 105.4009508
          },
          "viNameLanguage": "Xã Mỹ Sơn",
          "keyAccentLanguage": "Xa_My_Son"
        },
        {
          "type": "Commune",
          "location": {
            "lat": 18.8155497,
            "lng": 105.4360963
          },
          "viNameLanguage": "Xã Trù Sơn",
          "keyAccentLanguage": "Xa_Tru_Son"
        },
        {
          "type": "Commune",
          "location": {
            "lat": 18.8598155,
            "lng": 105.4595306
          },
          "viNameLanguage": "Xã Đại Sơn",
          "keyAccentLanguage": "Xa_Dai_Son"
        }
      ]
    },
    {
      "category": null,
      "type": "District",
      "viNameLanguage": "Huyện Thanh Chương",
      "location": {
        "lat": 18.6967739,
        "lng": 105.2662931
      },
      "postalCode": "4300017",
      "keyAccentLanguage": "Huyen_Thanh_Chuong",
      "wards": [
        {
          "type": "Commune",
          "location": {
            "lat": 18.8755732,
            "lng": 105.2721456
          },
          "viNameLanguage": "Xã Cát Văn",
          "keyAccentLanguage": "Xa_Cat_Van"
        },
        {
          "type": "Commune",
          "location": {
            "lat": 18.8688829,
            "lng": 105.2136302
          },
          "viNameLanguage": "Xã Thanh Nho",
          "keyAccentLanguage": "Xa_Thanh_Nho"
        },
        {
          "type": "Commune",
          "location": {
            "lat": 18.7797094,
            "lng": 105.1025075
          },
          "viNameLanguage": "Xã Hạnh Lâm",
          "keyAccentLanguage": "Xa_Hanh_Lam"
        },
        {
          "type": "Commune",
          "location": {
            "lat": 19.0570776,
            "lng": 104.9951118
          },
          "viNameLanguage": "Xã Thanh Sơn",
          "keyAccentLanguage": "Xa_Thanh_Son"
        },
        {
          "type": "Commune",
          "location": {
            "lat": 19.585223,
            "lng": 105.3014109
          },
          "viNameLanguage": "Xã Thanh Hòa",
          "keyAccentLanguage": "Xa_Thanh_Hoa"
        },
        {
          "type": "Commune",
          "location": {
            "lat": 18.8418423,
            "lng": 105.2604409
          },
          "viNameLanguage": "Xã Phong Thịnh",
          "keyAccentLanguage": "Xa_Phong_Thinh"
        },
        {
          "type": "Commune",
          "location": {
            "lat": 19.6514965,
            "lng": 105.2721456
          },
          "viNameLanguage": "Xã Thanh Phong",
          "keyAccentLanguage": "Xa_Thanh_Phong"
        },
        {
          "type": "Commune",
          "location": {
            "lat": 18.7994586,
            "lng": 105.2136302
          },
          "viNameLanguage": "Xã Thanh Mỹ",
          "keyAccentLanguage": "Xa_Thanh_My"
        },
        {
          "type": "Commune",
          "location": {
            "lat": 18.8051863,
            "lng": 105.2838511
          },
          "viNameLanguage": "Xã Thanh Tiên",
          "keyAccentLanguage": "Xa_Thanh_Tien"
        },
        {
          "type": "Commune",
          "location": {
            "lat": 18.818705,
            "lng": 105.2604409
          },
          "viNameLanguage": "Xã Thanh Liên",
          "keyAccentLanguage": "Xa_Thanh_Lien"
        },
        {
          "type": "Commune",
          "location": {
            "lat": 19.1483712,
            "lng": 104.8454619
          },
          "viNameLanguage": "Xã Đại Đồng",
          "keyAccentLanguage": "Xa_Dai_Dong"
        },
        {
          "type": "Commune",
          "location": {
            "lat": 18.7976495,
            "lng": 105.3394635
          },
          "viNameLanguage": "Xã Thanh Đồng",
          "keyAccentLanguage": "Xa_Thanh_Dong"
        },
        {
          "type": "Commune",
          "location": {
            "lat": 18.7920612,
            "lng": 105.3716684
          },
          "viNameLanguage": "Xã Thanh Ngọc",
          "keyAccentLanguage": "Xa_Thanh_Ngoc"
        },
        {
          "type": "Commune",
          "location": {
            "lat": 18.7382489,
            "lng": 105.1843801
          },
          "viNameLanguage": "Xã Thanh Hương",
          "keyAccentLanguage": "Xa_Thanh_Huong"
        },
        {
          "type": "Commune",
          "location": {
            "lat": 18.7474676,
            "lng": 105.2084735
          },
          "viNameLanguage": "Xã Ngọc Lâm",
          "keyAccentLanguage": "Xa_Ngoc_Lam"
        },
        {
          "type": "Commune",
          "location": {
            "lat": 18.7832369,
            "lng": 105.3043378
          },
          "viNameLanguage": "Xã Thanh Lĩnh",
          "keyAccentLanguage": "Xa_Thanh_Linh"
        },
        {
          "type": "Commune",
          "location": {
            "lat": 19.1169942,
            "lng": 105.1105468
          },
          "viNameLanguage": "Xã Đồng Văn",
          "keyAccentLanguage": "Xa_Dong_Van"
        },
        {
          "type": "Commune",
          "location": {
            "lat": 18.7501225,
            "lng": 105.3892372
          },
          "viNameLanguage": "Xã Ngọc Sơn",
          "keyAccentLanguage": "Xa_Ngoc_Son"
        },
        {
          "type": "Commune",
          "location": {
            "lat": 18.7069141,
            "lng": 105.2136302
          },
          "viNameLanguage": "Xã Thanh Thịnh",
          "keyAccentLanguage": "Xa_Thanh_Thinh"
        },
        {
          "type": "Commune",
          "location": {
            "lat": 18.7155757,
            "lng": 105.248737
          },
          "viNameLanguage": "Xã Thanh An",
          "keyAccentLanguage": "Xa_Thanh_An"
        },
        {
          "type": "Commune",
          "location": {
            "lat": 18.7392445,
            "lng": 105.3440557
          },
          "viNameLanguage": "Xã Thanh Chi",
          "keyAccentLanguage": "Xa_Thanh_Chi"
        },
        {
          "type": "Commune",
          "location": {
            "lat": 18.7238667,
            "lng": 105.3921656
          },
          "viNameLanguage": "Xã Xuân Tường",
          "keyAccentLanguage": "Xa_Xuan_Tuong"
        },
        {
          "type": "Commune",
          "location": {
            "lat": 18.7134808,
            "lng": 105.4126652
          },
          "viNameLanguage": "Xã Thanh Dương",
          "keyAccentLanguage": "Xa_Thanh_Duong"
        },
        {
          "type": "Commune",
          "location": {
            "lat": 18.709364,
            "lng": 105.4273093
          },
          "viNameLanguage": "Xã Thanh Lương",
          "keyAccentLanguage": "Xa_Thanh_Luong"
        },
        {
          "type": "Commune",
          "location": {
            "lat": 18.7213061,
            "lng": 105.3189726
          },
          "viNameLanguage": "Xã Thanh Khê",
          "keyAccentLanguage": "Xa_Thanh_Khe"
        },
        {
          "type": "Commune",
          "location": {
            "lat": 18.6962321,
            "lng": 105.3423909
          },
          "viNameLanguage": "Xã Võ Liệt",
          "keyAccentLanguage": "Xa_Vo_Liet"
        },
        {
          "type": "Commune",
          "location": {
            "lat": 18.7085372,
            "lng": 105.3824338
          },
          "viNameLanguage": "Xã Thanh Long",
          "keyAccentLanguage": "Xa_Thanh_Long"
        },
        {
          "type": "Commune",
          "location": {
            "lat": 18.6630517,
            "lng": 105.2545888
          },
          "viNameLanguage": "Xã Thanh Thủy",
          "keyAccentLanguage": "Xa_Thanh_Thuy"
        },
        {
          "type": "Commune",
          "location": {
            "lat": 18.7016195,
            "lng": 105.4507424
          },
          "viNameLanguage": "Xã Thanh Khai",
          "keyAccentLanguage": "Xa_Thanh_Khai"
        },
        {
          "type": "Commune",
          "location": {
            "lat": 18.6862491,
            "lng": 105.4273093
          },
          "viNameLanguage": "Xã Thanh Yên",
          "keyAccentLanguage": "Xa_Thanh_Yen"
        },
        {
          "type": "Commune",
          "location": {
            "lat": 18.6341113,
            "lng": 105.3248269
          },
          "viNameLanguage": "Xã Thanh Hà",
          "keyAccentLanguage": "Xa_Thanh_Ha"
        },
        {
          "type": "Commune",
          "location": {
            "lat": 18.6788069,
            "lng": 105.4126652
          },
          "viNameLanguage": "Xã Thanh Giang",
          "keyAccentLanguage": "Xa_Thanh_Giang"
        },
        {
          "type": "Commune",
          "location": {
            "lat": 18.6596016,
            "lng": 105.3658125
          },
          "viNameLanguage": "Xã Thanh Tùng",
          "keyAccentLanguage": "Xa_Thanh_Tung"
        },
        {
          "type": "Commune",
          "location": {
            "lat": 18.6455031,
            "lng": 105.4653897
          },
          "viNameLanguage": "Xã Thanh Lâm",
          "keyAccentLanguage": "Xa_Thanh_Lam"
        },
        {
          "type": "Commune",
          "location": {
            "lat": 18.6249274,
            "lng": 105.3658125
          },
          "viNameLanguage": "Xã Thanh Mai",
          "keyAccentLanguage": "Xa_Thanh_Mai"
        },
        {
          "type": "Commune",
          "location": {
            "lat": 18.6032039,
            "lng": 105.4185227
          },
          "viNameLanguage": "Xã Thanh Xuân",
          "keyAccentLanguage": "Xa_Thanh_Xuan"
        },
        {
          "type": "Commune",
          "location": {
            "lat": 18.8192379,
            "lng": 105.044052
          },
          "viNameLanguage": "Xã Thanh Đức",
          "keyAccentLanguage": "Xa_Thanh_Duc"
        }
      ]
    },
    {
      "category": null,
      "type": "District",
      "viNameLanguage": "Huyện Nghi Lộc",
      "location": {
        "lat": 18.8290272,
        "lng": 105.6177942
      },
      "postalCode": "4300018",
      "keyAccentLanguage": "Huyen_Nghi_Loc",
      "wards": [
        {
          "type": "Town",
          "location": {
            "lat": 18.7853365,
            "lng": 105.6418428
          },
          "viNameLanguage": "Thị trấn Quán Hành",
          "keyAccentLanguage": "Thi_tran_Quan_Hanh"
        },
        {
          "type": "Commune",
          "location": {
            "lat": 18.7524371,
            "lng": 105.6353878
          },
          "viNameLanguage": "Xã Nghi Văn",
          "keyAccentLanguage": "Xa_Nghi_Van"
        },
        {
          "type": "Commune",
          "location": {
            "lat": 18.867962,
            "lng": 105.6353878
          },
          "viNameLanguage": "Xã Nghi Yên",
          "keyAccentLanguage": "Xa_Nghi_Yen"
        },
        {
          "type": "Commune",
          "location": {
            "lat": 18.8639373,
            "lng": 105.6823124
          },
          "viNameLanguage": "Xã Nghi Tiến",
          "keyAccentLanguage": "Xa_Nghi_Tien"
        },
        {
          "type": "Commune",
          "location": {
            "lat": 18.8468595,
            "lng": 105.6119301
          },
          "viNameLanguage": "Xã Nghi Hưng",
          "keyAccentLanguage": "Xa_Nghi_Hung"
        },
        {
          "type": "Commune",
          "location": {
            "lat": 18.8178337,
            "lng": 105.5796808
          },
          "viNameLanguage": "Xã Nghi Đồng",
          "keyAccentLanguage": "Xa_Nghi_Dong"
        },
        {
          "type": "Commune",
          "location": {
            "lat": 18.841958,
            "lng": 105.7028457
          },
          "viNameLanguage": "Xã Nghi Thiết",
          "keyAccentLanguage": "Xa_Nghi_Thiet"
        },
        {
          "type": "Commune",
          "location": {
            "lat": 18.830737,
            "lng": 105.5298525
          },
          "viNameLanguage": "Xã Nghi Lâm",
          "keyAccentLanguage": "Xa_Nghi_Lam"
        },
        {
          "type": "Commune",
          "location": {
            "lat": 18.8387003,
            "lng": 105.6735131
          },
          "viNameLanguage": "Xã Nghi Quang",
          "keyAccentLanguage": "Xa_Nghi_Quang"
        },
        {
          "type": "Commune",
          "location": {
            "lat": 18.8053178,
            "lng": 105.488828
          },
          "viNameLanguage": "Xã Nghi Kiều",
          "keyAccentLanguage": "Xa_Nghi_Kieu"
        },
        {
          "type": "Commune",
          "location": {
            "lat": 18.8135523,
            "lng": 105.5620927
          },
          "viNameLanguage": "Xã Nghi Mỹ",
          "keyAccentLanguage": "Xa_Nghi_My"
        },
        {
          "type": "Commune",
          "location": {
            "lat": 18.8247513,
            "lng": 105.6002024
          },
          "viNameLanguage": "Xã Nghi Phương",
          "keyAccentLanguage": "Xa_Nghi_Phuong"
        },
        {
          "type": "Commune",
          "location": {
            "lat": 18.8101949,
            "lng": 105.6353878
          },
          "viNameLanguage": "Xã Nghi Thuận",
          "keyAccentLanguage": "Xa_Nghi_Thuan"
        },
        {
          "type": "Commune",
          "location": {
            "lat": 18.8048167,
            "lng": 105.6575865
          },
          "viNameLanguage": "Xã Nghi Long",
          "keyAccentLanguage": "Xa_Nghi_Long"
        },
        {
          "type": "Commune",
          "location": {
            "lat": 18.8218755,
            "lng": 105.6676471
          },
          "viNameLanguage": "Xã Nghi Xá",
          "keyAccentLanguage": "Xa_Nghi_Xa"
        },
        {
          "type": "Commune",
          "location": {
            "lat": 18.7960048,
            "lng": 105.6324554
          },
          "viNameLanguage": "Xã Nghi Hoa",
          "keyAccentLanguage": "Xa_Nghi_Hoa"
        },
        {
          "type": "Commune",
          "location": {
            "lat": 18.8140891,
            "lng": 105.6911121
          },
          "viNameLanguage": "Xã Khánh Hợp",
          "keyAccentLanguage": "Xa_Khanh_Hop"
        },
        {
          "type": "Commune",
          "location": {
            "lat": 18.791994,
            "lng": 105.6793792
          },
          "viNameLanguage": "Xã Nghi Thịnh",
          "keyAccentLanguage": "Xa_Nghi_Thinh"
        },
        {
          "type": "Commune",
          "location": {
            "lat": 18.7924315,
            "lng": 105.5386447
          },
          "viNameLanguage": "Xã Nghi Công Bắc",
          "keyAccentLanguage": "Xa_Nghi_Cong_Bac"
        },
        {
          "type": "Commune",
          "location": {
            "lat": 18.7719608,
            "lng": 105.5415755
          },
          "viNameLanguage": "Xã Nghi Công Nam",
          "keyAccentLanguage": "Xa_Nghi_Cong_Nam"
        },
        {
          "type": "Commune",
          "location": {
            "lat": 18.772158,
            "lng": 105.7087128
          },
          "viNameLanguage": "Xã Nghi Thạch",
          "keyAccentLanguage": "Xa_Nghi_Thach"
        },
        {
          "type": "Commune",
          "location": {
            "lat": 18.7920341,
            "lng": 105.6570715
          },