{
  "code": 0,
  "type": "City",
  "location": {
    "lat": 21.3269024,
    "lng": 103.9143869
  },
  "postalCode": "34000",
  "keyAccentLanguage": "Son_La",
  "districtList": [
    {
      "code": 1,
      "category": null,
      "type": "City",
      "viNameLanguage": "Thành phố Sơn La",
      "location": {
        "lat": 21.3269024,
        "lng": 103.9143869
      },
      "postalCode": "340001",
      "keyAccentLanguage": "Thanh_pho_Son_La",
      "wards": [
        {
          "code": 2,
          "type": "Ward",
          "location": {
            "lat": 21.3413965,
            "lng": 103.9056989
          },
          "viNameLanguage": "Phường Chiềng Lề",
          "keyAccentLanguage": "Phuong_Chieng_Le"
        },
        {
          "code": 3,
          "type": "Ward",
          "location": {
            "lat": 21.3305785,
            "lng": 103.912949
          },
          "viNameLanguage": "Phường Tô Hiệu",
          "keyAccentLanguage": "Phuong_To_Hieu"
        },
        {
          "code": 4,
          "type": "Ward",
          "location": {
            "lat": 21.3277804,
            "lng": 103.9289005
          },
          "viNameLanguage": "Phường Quyết Thắng",
          "keyAccentLanguage": "Phuong_Quyet_Thang"
        },
        {
          "code": 5,
          "type": "Ward",
          "location": {
            "lat": 21.3057825,
            "lng": 103.9303507
          },
          "viNameLanguage": "Phường Quyết Tâm",
          "keyAccentLanguage": "Phuong_Quyet_Tam"
        },
        {
          "code": 6,
          "type": "Commune",
          "location": {
            "lat": 21.3134333,
            "lng": 103.8564085
          },
          "viNameLanguage": "Xã Chiềng Cọ",
          "keyAccentLanguage": "Xa_Chieng_Co"
        },
        {
          "code": 7,
          "type": "Commune",
          "location": {
            "lat": 21.4067946,
            "lng": 103.8564085
          },
          "viNameLanguage": "Xã Chiềng Đen",
          "keyAccentLanguage": "Xa_Chieng_Den"
        },
        {
          "code": 8,
          "type": "Commune",
          "location": {
            "lat": 21.3776113,
            "lng": 103.9260001
          },
          "viNameLanguage": "Xã Chiềng Xôm",
          "keyAccentLanguage": "Xa_Chieng_Xom"
        },
        {
          "code": 9,
          "type": "Ward",
          "location": {
            "lat": 21.3518505,
            "lng": 103.8854007
          },
          "viNameLanguage": "Phường Chiềng An",
          "keyAccentLanguage": "Phuong_Chieng_An"
        },
        {
          "code": 10,
          "type": "Ward",
          "location": {
            "lat": 21.3117397,
            "lng": 103.9114989
          },
          "viNameLanguage": "Phường Chiềng Cơi",
          "keyAccentLanguage": "Phuong_Chieng_Coi"
        },
        {
          "code": 11,
          "type": "Commune",
          "location": {
            "lat": 21.3270349,
            "lng": 103.9724141
          },
          "viNameLanguage": "Xã Chiềng Ngần",
          "keyAccentLanguage": "Xa_Chieng_Ngan"
        },
        {
          "code": 12,
          "type": "Commune",
          "location": {
            "lat": 21.2862158,
            "lng": 103.902799
          },
          "viNameLanguage": "Xã Hua La",
          "keyAccentLanguage": "Xa_Hua_La"
        },
        {
          "code": 13,
          "type": "Ward",
          "location": {
            "lat": 21.2866935,
            "lng": 103.9666115
          },
          "viNameLanguage": "Phường Chiềng Sinh",
          "keyAccentLanguage": "Phuong_Chieng_Sinh"
        }
      ]
    },
    {
      "code": 14,
      "category": null,
      "type": "District",
      "viNameLanguage": "Huyện Quỳnh Nhai",
      "location": {
        "lat": 21.7132038,
        "lng": 103.682586
      },
      "postalCode": "340002",
      "keyAccentLanguage": "Huyen_Quynh_Nhai",
      "wards": [
        {
          "code": 15,
          "type": "Commune",
          "location": {
            "lat": 21.8484504,
            "lng": 103.6015463
          },
          "viNameLanguage": "Xã Mường Chiên",
          "keyAccentLanguage": "Xa_Muong_Chien"
        },
        {
          "code": 16,
          "type": "Commune",
          "location": {
            "lat": 21.9331202,
            "lng": 103.5668302
          },
          "viNameLanguage": "Xã Cà Nàng",
          "keyAccentLanguage": "Xa_Ca_Nang"
        },
        {
          "code": 17,
          "type": "Commune",
          "location": {
            "lat": 21.9126985,
            "lng": 103.6710059
          },
          "viNameLanguage": "Xã Chiềng Khay",
          "keyAccentLanguage": "Xa_Chieng_Khay"
        },
        {
          "code": 18,
          "type": "Commune",
          "location": {
            "lat": 21.7813244,
            "lng": 103.7057493
          },
          "viNameLanguage": "Xã Mường Giôn",
          "keyAccentLanguage": "Xa_Muong_Gion"
        },
        {
          "code": 19,
          "type": "Commune",
          "location": {
            "lat": 21.7927409,
            "lng": 103.5854312
          },
          "viNameLanguage": "Xã Pá Ma Pha Khinh",
          "keyAccentLanguage": "Xa_Pa_Ma_Pha_Khinh"
        },
        {
          "code": 20,
          "type": "Commune",
          "location": {
            "lat": 20.9828912,
            "lng": 104.1814686
          },
          "viNameLanguage": "Xã Chiềng Ơn",
          "keyAccentLanguage": "Xa_Chieng_On"
        },
        {
          "code": 21,
          "type": "Commune",
          "location": {
            "lat": 21.6382021,
            "lng": 103.6015463
          },
          "viNameLanguage": "Xã Mường Giàng",
          "keyAccentLanguage": "Xa_Muong_Giang"
        },
        {
          "code": 22,
          "type": "Commune",
          "location": {
            "lat": 21.6504266,
            "lng": 103.6652162
          },
          "viNameLanguage": "Xã Chiềng Bằng",
          "keyAccentLanguage": "Xa_Chieng_Bang"
        },
        {
          "code": 23,
          "type": "Commune",
          "location": {
            "lat": 20.975165,
            "lng": 103.9956269
          },
          "viNameLanguage": "Xã Mường Sại",
          "keyAccentLanguage": "Xa_Muong_Sai"
        },
        {
          "code": 24,
          "type": "Commune",
          "location": {
            "lat": 21.5760357,
            "lng": 103.7868526
          },
          "viNameLanguage": "Xã Nậm ét",
          "keyAccentLanguage": "Xa_Nam_et"
        },
        {
          "code": 25,
          "type": "Commune",
          "location": {
            "lat": 21.5623606,
            "lng": 103.6710059
          },
          "viNameLanguage": "Xã Chiềng Khoang",
          "keyAccentLanguage": "Xa_Chieng_Khoang"
        }
      ]
    },
    {
      "code": 26,
      "category": null,
      "type": "District",
      "viNameLanguage": "Huyện Thuận Châu",
      "location": {
        "lat": 21.43295,
        "lng": 103.682586
      },
      "postalCode": "340003",
      "keyAccentLanguage": "Huyen_Thuan_Chau",
      "wards": [
        {
          "code": 27,
          "type": "Commune",
          "location": {
            "lat": 21.5681206,
            "lng": 103.6015463
          },
          "viNameLanguage": "Xã Phổng Lái",
          "keyAccentLanguage": "Xa_Phong_Lai"
        },
        {
          "code": 28,
          "type": "Commune",
          "location": {
            "lat": 21.503753,
            "lng": 103.5321234
          },
          "viNameLanguage": "Xã Mường é",
          "keyAccentLanguage": "Xa_Muong_e"
        },
        {
          "code": 29,
          "type": "Commune",
          "location": {
            "lat": 21.5122107,
            "lng": 103.6420599
          },
          "viNameLanguage": "Xã Chiềng Pha",
          "keyAccentLanguage": "Xa_Chieng_Pha"
        },
        {
          "code": 30,
          "type": "Commune",
          "location": {
            "lat": 21.5083692,
            "lng": 103.6883765
          },
          "viNameLanguage": "Xã Chiềng La",
          "keyAccentLanguage": "Xa_Chieng_La"
        },
        {
          "code": 31,
          "type": "Commune",
          "location": {
            "lat": 21.5079333,
            "lng": 103.7636752
          },
          "viNameLanguage": "Xã Chiềng Ngàm",
          "keyAccentLanguage": "Xa_Chieng_Ngam"
        },
        {
          "code": 32,
          "type": "Commune",
          "location": {
            "lat": 21.5195888,
            "lng": 103.902799
          },
          "viNameLanguage": "Xã Liệp Tè",
          "keyAccentLanguage": "Xa_Liep_Te"
        },
        {
          "code": 33,
          "type": "Commune",
          "location": {
            "lat": 21.4608076,
            "lng": 103.485862
          },
          "viNameLanguage": "Xã é Tòng",
          "keyAccentLanguage": "Xa_e_Tong"
        },
        {
          "code": 34,
          "type": "Commune",
          "location": {
            "lat": 21.4746804,
            "lng": 103.6015463
          },
          "viNameLanguage": "Xã Phổng Lập",
          "keyAccentLanguage": "Xa_Phong_Lap"
        },
        {
          "code": 35,
          "type": "Commune",
          "location": {
            "lat": 21.4631513,
            "lng": 103.664991
          },
          "viNameLanguage": "Xã Phổng Lăng",
          "keyAccentLanguage": "Xa_Phong_Lang"
        },
        {
          "code": 36,
          "type": "Commune",
          "location": {
            "lat": 21.4723774,
            "lng": 103.6999581
          },
          "viNameLanguage": "Xã Chiềng Ly",
          "keyAccentLanguage": "Xa_Chieng_Ly"
        },
        {
          "code": 37,
          "type": "Commune",
          "location": {
            "lat": 21.4928382,
            "lng": 103.7347091
          },
          "viNameLanguage": "Xã Noong Lay",
          "keyAccentLanguage": "Xa_Noong_Lay"
        },
        {
          "code": 38,
          "type": "Commune",
          "location": {
            "lat": 21.4918832,
            "lng": 103.8854007
          },
          "viNameLanguage": "Xã Mường Khiêng",
          "keyAccentLanguage": "Xa_Muong_Khieng"
        },
        {
          "code": 39,
          "type": "Commune",
          "location": {
            "lat": 21.3982103,
            "lng": 103.393389
          },
          "viNameLanguage": "Xã Mường Bám",
          "keyAccentLanguage": "Xa_Muong_Bam"
        },
        {
          "code": 40,
          "type": "Commune",
          "location": {
            "lat": 21.4121853,
            "lng": 103.5089907
          },
          "viNameLanguage": "Xã Long Hẹ",
          "keyAccentLanguage": "Xa_Long_He"
        },
        {
          "code": 41,
          "type": "Commune",
          "location": {
            "lat": 21.4026972,
            "lng": 103.6246954
          },
          "viNameLanguage": "Xã Chiềng Bôm",
          "keyAccentLanguage": "Xa_Chieng_Bom"
        },
        {
          "code": 42,
          "type": "Commune",
          "location": {
            "lat": 21.4130362,
            "lng": 103.7115408
          },
          "viNameLanguage": "Xã Thôm Mòn",
          "keyAccentLanguage": "Xa_Thom_Mon"
        },
        {
          "code": 43,
          "type": "Commune",
          "location": {
            "lat": 21.434463,
            "lng": 103.7347091
          },
          "viNameLanguage": "Xã Tông Lạnh",
          "keyAccentLanguage": "Xa_Tong_Lanh"
        },
        {
          "code": 44,
          "type": "Commune",
          "location": {
            "lat": 21.4306031,
            "lng": 103.7810579
          },
          "viNameLanguage": "Xã Tông Cọ",
          "keyAccentLanguage": "Xa_Tong_Co"
        },
        {
          "code": 45,
          "type": "Commune",
          "location": {
            "lat": 21.455422,
            "lng": 103.8332193
          },
          "viNameLanguage": "Xã Bó Mười",
          "keyAccentLanguage": "Xa_Bo_Muoi"
        },
        {
          "code": 46,
          "type": "Commune",
          "location": {
            "lat": 21.3402032,
            "lng": 103.5321234
          },
          "viNameLanguage": "Xã Co Mạ",
          "keyAccentLanguage": "Xa_Co_Ma"
        },
        {
          "code": 47,
          "type": "Commune",
          "location": {
            "lat": 21.3916027,
            "lng": 103.6883765
          },
          "viNameLanguage": "Xã Púng Tra",
          "keyAccentLanguage": "Xa_Pung_Tra"
        },
        {
          "code": 48,
          "type": "Commune",
          "location": {
            "lat": 21.3975129,
            "lng": 103.7578815
          },
          "viNameLanguage": "Xã Chiềng Pấc",
          "keyAccentLanguage": "Xa_Chieng_Pac"
        },
        {
          "code": 49,
          "type": "Commune",
          "location": {
            "lat": 21.3142734,
            "lng": 103.7057493
          },
          "viNameLanguage": "Xã Nậm Lầu",
          "keyAccentLanguage": "Xa_Nam_Lau"
        },
        {
          "code": 50,
          "type": "Commune",
          "location": {
            "lat": 21.3659188,
            "lng": 103.7868526
          },
          "viNameLanguage": "Xã Bon Phặng",
          "keyAccentLanguage": "Xa_Bon_Phang"
        },
        {
          "code": 51,
          "type": "Commune",
          "location": {
            "lat": 21.2953588,
            "lng": 103.5089907
          },
          "viNameLanguage": "Xã Co Tòng",
          "keyAccentLanguage": "Xa_Co_Tong"
        },
        {
          "code": 52,
          "type": "Commune",
          "location": {
            "lat": 21.3173002,
            "lng": 103.8100339
          },
          "viNameLanguage": "Xã Muổi Nọi",
          "keyAccentLanguage": "Xa_Muoi_Noi"
        },
        {
          "code": 53,
          "type": "Commune",
          "location": {
            "lat": 21.2521214,
            "lng": 103.5379072
          },
          "viNameLanguage": "Xã Pá Lông",
          "keyAccentLanguage": "Xa_Pa_Long"
        },
        {
          "code": 54,
          "type": "Commune",
          "location": {
            "lat": 21.2491946,
            "lng": 103.7868526
          },
          "viNameLanguage": "Xã Bản Lầm",
          "keyAccentLanguage": "Xa_Ban_Lam"
        }
      ]
    },
    {
      "code": 55,
      "category": null,
      "type": "District",
      "viNameLanguage": "Huyện Mường La",
      "location": {
        "lat": 21.495112,
        "lng": 104.053676
      },
      "postalCode": "340004",
      "keyAccentLanguage": "Huyen_Muong_La",
      "wards": [
        {
          "code": 56,
          "type": "Town",
          "location": {
            "lat": 21.5034191,
            "lng": 104.0246484
          },
          "viNameLanguage": "Thị trấn Ít Ong",
          "keyAccentLanguage": "Thi_tran_It_Ong"
        },
        {
          "code": 57,
          "type": "Commune",
          "location": {
            "lat": 21.5954821,
            "lng": 103.8332193
          },
          "viNameLanguage": "Xã Nậm Giôn",
          "keyAccentLanguage": "Xa_Nam_Gion"
        },
        {
          "code": 58,
          "type": "Commune",
          "location": {
            "lat": 21.6255955,
            "lng": 103.8911999
          },
          "viNameLanguage": "Xã Chiềng Lao",
          "keyAccentLanguage": "Xa_Chieng_Lao"
        },
        {
          "code": 59,
          "type": "Commune",
          "location": {
            "lat": 21.626396,
            "lng": 104.0188436
          },
          "viNameLanguage": "Xã Hua Trai",
          "keyAccentLanguage": "Xa_Hua_Trai"
        },
        {
          "code": 60,
          "type": "Commune",
          "location": {
            "lat": 21.6502803,
            "lng": 104.265738
          },
          "viNameLanguage": "Xã Ngọc Chiến",
          "keyAccentLanguage": "Xa_Ngoc_Chien"
        },
        {
          "code": 61,
          "type": "Commune",
          "location": {
            "lat": 21.5643008,
            "lng": 103.9260001
          },
          "viNameLanguage": "Xã Mường Trai",
          "keyAccentLanguage": "Xa_Muong_Trai"
        },
        {
          "code": 62,
          "type": "Commune",
          "location": {
            "lat": 21.5757629,
            "lng": 104.0652887
          },
          "viNameLanguage": "Xã Nậm Păm",
          "keyAccentLanguage": "Xa_Nam_Pam"
        },
        {
          "code": 63,
          "type": "Commune",
          "location": {
            "lat": 21.5231343,
            "lng": 104.1349852
          },
          "viNameLanguage": "Xã Chiềng Muôn",
          "keyAccentLanguage": "Xa_Chieng_Muon"
        },
        {
          "code": 64,
          "type": "Commune",
          "location": {
            "lat": 21.5171263,
            "lng": 104.204716
          },
          "viNameLanguage": "Xã Chiềng Ân",
          "keyAccentLanguage": "Xa_Chieng_An"
        },
        {
          "code": 65,
          "type": "Commune",
          "location": {
            "lat": 21.5350531,
            "lng": 103.9956269
          },
          "viNameLanguage": "Xã Pi Toong",
          "keyAccentLanguage": "Xa_Pi_Toong"
        },
        {
          "code": 66,
          "type": "Commune",
          "location": {
            "lat": 21.4578347,
            "lng": 104.2163411
          },
          "viNameLanguage": "Xã Chiềng Công",
          "keyAccentLanguage": "Xa_Chieng_Cong"
        },
        {
          "code": 67,
          "type": "Commune",
          "location": {
            "lat": 21.4630869,
            "lng": 104.0188436
          },
          "viNameLanguage": "Xã Tạ Bú",
          "keyAccentLanguage": "Xa_Ta_Bu"
        },
        {
          "code": 68,
          "type": "Commune",
          "location": {
            "lat": 21.475138,
            "lng": 104.0827096
          },
          "viNameLanguage": "Xã Chiềng San",
          "keyAccentLanguage": "Xa_Chieng_San"
        },
        {
          "code": 69,
          "type": "Commune",
          "location": {
            "lat": 21.4183975,
            "lng": 103.9956269
          },
          "viNameLanguage": "Xã Mường Bú",
          "keyAccentLanguage": "Xa_Muong_Bu"
        },
        {
          "code": 70,
          "type": "Commune",
          "location": {
            "lat": 21.4065307,
            "lng": 104.1349852
          },
          "viNameLanguage": "Xã Chiềng Hoa",
          "keyAccentLanguage": "Xa_Chieng_Hoa"
        },
        {
          "code": 71,
          "type": "Commune",
          "location": {
            "lat": 21.3385525,
            "lng": 104.1117492
          },
          "viNameLanguage": "Xã Mường Chùm",
          "keyAccentLanguage": "Xa_Muong_Chum"
        }
      ]
    },
    {
      "code": 72,
      "category": null,
      "type": "District",
      "viNameLanguage": "Huyện Bắc Yên",
      "location": {
        "lat": 21.2765545,
        "lng": 104.4257533
      },
      "postalCode": "340005",
      "keyAccentLanguage": "Huyen_Bac_Yen",
      "wards": [
        {
          "code": 73,
          "type": "Commune",
          "location": {
            "lat": 21.232241,
            "lng": 104.4665072
          },
          "viNameLanguage": "Xã Phiêng Ban",
          "keyAccentLanguage": "Xa_Phieng_Ban"
        },
        {
          "code": 74,
          "type": "Commune",
          "location": {
            "lat": 21.3565554,
            "lng": 104.3093759
          },
          "viNameLanguage": "Xã Hang Chú",
          "keyAccentLanguage": "Xa_Hang_Chu"
        },
        {
          "code": 75,
          "type": "Commune",
          "location": {
            "lat": 21.3378385,
            "lng": 104.3908304
          },
          "viNameLanguage": "Xã Xím Vàng",
          "keyAccentLanguage": "Xa_Xim_Vang"
        },
        {
          "code": 76,
          "type": "Commune",
          "location": {
            "lat": 21.2788282,
            "lng": 104.4665072
          },
          "viNameLanguage": "Xã Tà Xùa",
          "keyAccentLanguage": "Xa_Ta_Xua"
        },
        {
          "code": 77,
          "type": "Commune",
          "location": {
            "lat": 21.3276716,
            "lng": 104.5072722
          },
          "viNameLanguage": "Xã Háng Đồng",
          "keyAccentLanguage": "Xa_Hang_Dong"
        },
        {
          "code": 78,
          "type": "Commune",
          "location": {
            "lat": 21.330605,
            "lng": 104.204716
          },
          "viNameLanguage": "Xã Pắc Ngà",
          "keyAccentLanguage": "Xa_Pac_Nga"
        },
        {
          "code": 79,
          "type": "Commune",
          "location": {
            "lat": 21.2932574,
            "lng": 104.367553
          },
          "viNameLanguage": "Xã Làng Chếu",
          "keyAccentLanguage": "Xa_Lang_Cheu"
        },
        {
          "code": 80,
          "type": "Commune",
          "location": {
            "lat": 21.2506751,
            "lng": 104.3210095
          },
          "viNameLanguage": "Xã Chim Vàn",
          "keyAccentLanguage": "Xa_Chim_Van"
        },
        {
          "code": 81,
          "type": "Commune",
          "location": {
            "lat": 21.2060677,
            "lng": 104.2977433
          },
          "viNameLanguage": "Xã Mường Khoa",
          "keyAccentLanguage": "Xa_Muong_Khoa"
        },
        {
          "code": 82,
          "type": "Commune",
          "location": {
            "lat": 21.170712,
            "lng": 104.4373961
          },
          "viNameLanguage": "Xã Song Pe",
          "keyAccentLanguage": "Xa_Song_Pe"
        },
        {
          "code": 83,
          "type": "Commune",
          "location": {
            "lat": 21.1899581,
            "lng": 104.4839765
          },
          "viNameLanguage": "Xã Hồng Ngài",
          "keyAccentLanguage": "Xa_Hong_Ngai"
        },
        {
          "code": 84,
          "type": "Commune",
          "location": {
            "lat": 21.1514448,
            "lng": 104.3908304
          },
          "viNameLanguage": "Xã Tạ Khoa",
          "keyAccentLanguage": "Xa_Ta_Khoa"
        },
        {
          "code": 85,
          "type": "Commune",
          "location": {
            "lat": 21.1404811,
            "lng": 104.3151926
          },
          "viNameLanguage": "Xã Hua Nhàn",
          "keyAccentLanguage": "Xa_Hua_Nhan"
        },
        {
          "code": 86,
          "type": "Commune",
          "location": {
            "lat": 21.0775359,
            "lng": 104.4373961
          },
          "viNameLanguage": "Xã Phiêng Côn",
          "keyAccentLanguage": "Xa_Phieng_Con"
        },
        {
          "code": 87,
          "type": "Commune",
          "location": {
            "lat": 21.0481969,
            "lng": 104.5072722
          },
          "viNameLanguage": "Xã Chiềng Sại",
          "keyAccentLanguage": "Xa_Chieng_Sai"
        }
      ]
    },
    {
      "code": 88,
      "category": null,
      "type": "District",
      "viNameLanguage": "Huyện Phù Yên",
      "location": {
        "lat": 21.1588947,
        "lng": 104.705431
      },
      "postalCode": "340006",
      "keyAccentLanguage": "Huyen_Phu_Yen",
      "wards": [
        {
          "code": 89,
          "type": "Commune",
          "location": {
            "lat": 21.3194735,
            "lng": 104.6004911
          },
          "viNameLanguage": "Xã Suối Tọ",
          "keyAccentLanguage": "Xa_Suoi_To"
        },
        {
          "code": 90,
          "type": "Commune",
          "location": {
            "lat": 21.3577723,
            "lng": 104.6937674
          },
          "viNameLanguage": "Xã Mường Thải",
          "keyAccentLanguage": "Xa_Muong_Thai"
        },
        {
          "code": 91,
          "type": "Commune",
          "location": {
            "lat": 21.3070688,
            "lng": 104.7404269
          },
          "viNameLanguage": "Xã Mường Cơi",
          "keyAccentLanguage": "Xa_Muong_Coi"
        },
        {
          "code": 92,
          "type": "Commune",
          "location": {
            "lat": 21.315353,
            "lng": 104.6471221
          },
          "viNameLanguage": "Xã Quang Huy",
          "keyAccentLanguage": "Xa_Quang_Huy"
        },
        {
          "code": 93,
          "type": "Commune",
          "location": {
            "lat": 21.2549302,
            "lng": 104.6063192
          },
          "viNameLanguage": "Xã Huy Bắc",
          "keyAccentLanguage": "Xa_Huy_Bac"
        },
        {
          "code": 94,
          "type": "Commune",
          "location": {
            "lat": 21.2710009,
            "lng": 104.687936
          },
          "viNameLanguage": "Xã Huy Thượng",
          "keyAccentLanguage": "Xa_Huy_Thuong"
        },
        {
          "code": 95,
          "type": "Commune",
          "location": {
            "lat": 21.2775505,
            "lng": 104.8104424
          },
          "viNameLanguage": "Xã Tân Lang",
          "keyAccentLanguage": "Xa_Tan_Lang"
        },
        {
          "code": 96,
          "type": "Commune",
          "location": {
            "lat": 21.2104121,
            "lng": 104.5830082
          },
          "viNameLanguage": "Xã Gia Phù",
          "keyAccentLanguage": "Xa_Gia_Phu"
        },
        {
          "code": 97,
          "type": "Commune",
          "location": {
            "lat": 21.2189807,
            "lng": 104.6179761
          },
          "viNameLanguage": "Xã Tường Phù",
          "keyAccentLanguage": "Xa_Tuong_Phu"
        },
        {
          "code": 98,
          "type": "Commune",
          "location": {
            "lat": 21.2275387,
            "lng": 104.652952
          },
          "viNameLanguage": "Xã Huy Hạ",
          "keyAccentLanguage": "Xa_Huy_Ha"
        },
        {
          "code": 99,
          "type": "Commune",
          "location": {
            "lat": 21.2477242,
            "lng": 104.687936
          },
          "viNameLanguage": "Xã Huy Tân",
          "keyAccentLanguage": "Xa_Huy_Tan"
        },
        {
          "code": 100,
          "type": "Commune",
          "location": {
            "lat": 21.233098,
            "lng": 104.7871004
          },
          "viNameLanguage": "Xã Mường Lang",
          "keyAccentLanguage": "Xa_Muong_Lang"
        },
        {
          "code": 101,
          "type": "Commune",
          "location": {
            "lat": 21.1912081,
            "lng": 104.5363969
          },
          "viNameLanguage": "Xã Suối Bau",
          "keyAccentLanguage": "Xa_Suoi_Bau"
        },
        {
          "code": 102,
          "type": "Commune",
          "location": {
            "lat": 21.1905636,
            "lng": 104.6762738
          },
          "viNameLanguage": "Xã Huy Tường",
          "keyAccentLanguage": "Xa_Huy_Tuong"
        },
        {
          "code": 103,
          "type": "Commune",
          "location": {
            "lat": 21.1865613,
            "lng": 104.7871004
          },
          "viNameLanguage": "Xã Mường Do",
          "keyAccentLanguage": "Xa_Muong_Do"
        },
        {
          "code": 104,
          "type": "Commune",
          "location": {
            "lat": 21.1562773,
            "lng": 104.5363969
          },
          "viNameLanguage": "Xã Sập Xa",
          "keyAccentLanguage": "Xa_Sap_Xa"
        },
        {
          "code": 105,
          "type": "Commune",
          "location": {
            "lat": 21.1724183,
            "lng": 104.6179761
          },
          "viNameLanguage": "Xã Tường Thượng",
          "keyAccentLanguage": "Xa_Tuong_Thuong"
        },
        {
          "code": 106,
          "type": "Commune",
          "location": {
            "lat": 21.144011,
            "lng": 104.6762738
          },
          "viNameLanguage": "Xã Tường Tiến",
          "keyAccentLanguage": "Xa_Tuong_Tien"
        },
        {
          "code": 107,
          "type": "Commune",
          "location": {
            "lat": 21.1303171,
            "lng": 104.6995991
          },
          "viNameLanguage": "Xã Tường Phong",
          "keyAccentLanguage": "Xa_Tuong_Phong"
        },
        {
          "code": 108,
          "type": "Commune",
          "location": {
            "lat": 21.1523966,
            "lng": 104.6471221
          },
          "viNameLanguage": "Xã Tường Hạ",
          "keyAccentLanguage": "Xa_Tuong_Ha"
        },
        {
          "code": 109,
          "type": "Commune",
          "location": {
            "lat": 21.1099283,
            "lng": 104.6004911
          },
          "viNameLanguage": "Xã Kim Bon",
          "keyAccentLanguage": "Xa_Kim_Bon"
        },
        {
          "code": 110,
          "type": "Commune",
          "location": {
            "lat": 21.1146865,
            "lng": 104.8104424
          },
          "viNameLanguage": "Xã Mường Bang",
          "keyAccentLanguage": "Xa_Muong_Bang"
        },
        {
          "code": 111,
          "type": "Commune",
          "location": {
            "lat": 21.0960301,
            "lng": 104.5597007
          },
          "viNameLanguage": "Xã Đá Đỏ",
          "keyAccentLanguage": "Xa_Da_Do"
        },
        {
          "code": 112,
          "type": "Commune",
          "location": {
            "lat": 21.0933498,
            "lng": 104.7229279
          },
          "viNameLanguage": "Xã Tân Phong",
          "keyAccentLanguage": "Xa_Tan_Phong"
        },
        {
          "code": 113,
          "type": "Commune",
          "location": {
            "lat": 21.0702257,
            "lng": 104.7871004
          },
          "viNameLanguage": "Xã Nam Phong",
          "keyAccentLanguage": "Xa_Nam_Phong"
        },
        {
          "code": 114,
          "type": "Commune",
          "location": {
            "lat": 21.059286,
            "lng": 104.6471221
          },
          "viNameLanguage": "Xã Bắc Phong",
          "keyAccentLanguage": "Xa_Bac_Phong"
        }
      ]
    },
    {
      "code": 115,
      "category": null,
      "type": "District",
      "viNameLanguage": "Huyện Mộc Châu",
      "location": {
        "lat": 20.887762,
        "lng": 104.6121475
      },
      "postalCode": "340007",
      "keyAccentLanguage": "Huyen_Moc_Chau",
      "wards": [
        {
          "code": 116,
          "type": "Town",
          "location": {
            "lat": 20.8292475,
            "lng": 104.7153416
          },
          "viNameLanguage": "Thị trấn NT Mộc Châu",
          "keyAccentLanguage": "Thi_tran_NT_Moc_Chau"
        },
        {
          "code": 117,
          "type": "Commune",
          "location": {
            "lat": 20.7354692,
            "lng": 104.6238048
          },
          "viNameLanguage": "Xã Chiềng Sơn",
          "keyAccentLanguage": "Xa_Chieng_Son"
        },
        {
          "code": 118,
          "type": "Commune",
          "location": {
            "lat": 21.0147713,
            "lng": 104.6238048
          },
          "viNameLanguage": "Xã Tân Hợp",
          "keyAccentLanguage": "Xa_Tan_Hop"
        },
        {
          "code": 119,
          "type": "Commune",
          "location": {
            "lat": 21.0278133,
            "lng": 104.7404269
          },
          "viNameLanguage": "Xã Qui Hướng",
          "keyAccentLanguage": "Xa_Qui_Huong"
        },
        {
          "code": 120,
          "type": "Commune",
          "location": {
            "lat": 20.9469687,
            "lng": 104.6004911
          },
          "viNameLanguage": "Xã Tân Lập",
          "keyAccentLanguage": "Xa_Tan_Lap"
        },
        {
          "code": 121,
          "type": "Commune",
          "location": {
            "lat": 20.9537275,
            "lng": 104.7229279
          },
          "viNameLanguage": "Xã Nà Mường",
          "keyAccentLanguage": "Xa_Na_Muong"
        },
        {
          "code": 122,
          "type": "Commune",
          "location": {
            "lat": 20.9641435,
            "lng": 104.670443
          },
          "viNameLanguage": "Xã Tà Lai",
          "keyAccentLanguage": "Xa_Ta_Lai"
        },
        {
          "code": 123,
          "type": "Commune",
          "location": {
            "lat": 20.9171022,
            "lng": 104.5422225
          },
          "viNameLanguage": "Xã Chiềng Hắc",
          "keyAccentLanguage": "Xa_Chieng_Hac"
        },
        {
          "code": 124,
          "type": "Commune",
          "location": {
            "lat": 20.8967668,
            "lng": 104.7754307
          },
          "viNameLanguage": "Xã Hua Păng",
          "keyAccentLanguage": "Xa_Hua_Pang"
        },
        {
          "code": 125,
          "type": "Commune",
          "location": {
            "lat": 20.8426285,
            "lng": 104.4606845
          },
          "viNameLanguage": "Xã Chiềng Khừa",
          "keyAccentLanguage": "Xa_Chieng_Khua"
        },
        {
          "code": 126,
          "type": "Commune",
          "location": {
            "lat": 20.8325986,
            "lng": 104.577181
          },
          "viNameLanguage": "Xã Mường Sang",
          "keyAccentLanguage": "Xa_Muong_Sang"
        },
        {
          "code": 127,
          "type": "Commune",
          "location": {
            "lat": 20.7969425,
            "lng": 104.652952
          },
          "viNameLanguage": "Xã Đông Sang",
          "keyAccentLanguage": "Xa_Dong_Sang"
        },
        {
          "code": 128,
          "type": "Commune",
          "location": {
            "lat": 20.82506,
            "lng": 104.7491547
          },
          "viNameLanguage": "Xã Phiêng Luông",
          "keyAccentLanguage": "Xa_Phieng_Luong"
        },
        {
          "code": 129,
          "type": "Commune",
          "location": {
            "lat": 20.7667785,
            "lng": 104.5305715
          },
          "viNameLanguage": "Xã Lóng Sập",
          "keyAccentLanguage": "Xa_Long_Sap"
        }
      ]
    },
    {
      "code": 130,
      "category": null,
      "type": "District",
      "viNameLanguage": "Huyện Yên Châu",
      "location": {
        "lat": 21.0050006,
        "lng": 104.332644
      },
      "postalCode": "340008",
      "keyAccentLanguage": "Huyen_Yen_Chau",
      "wards": [
        {
          "code": 131,
          "type": "Commune",
          "location": {
            "lat": 21.1401329,
            "lng": 104.2512221
          },
          "viNameLanguage": "Xã Chiềng Đông",
          "keyAccentLanguage": "Xa_Chieng_Dong"
        },
        {
          "code": 132,
          "type": "Commune",
          "location": {
            "lat": 21.0855548,
            "lng": 104.3442794
          },
          "viNameLanguage": "Xã Sập Vạt",
          "keyAccentLanguage": "Xa_Sap_Vat"
        },
        {
          "code": 133,
          "type": "Commune",
          "location": {
            "lat": 21.0775218,
            "lng": 104.2337805
          },
          "viNameLanguage": "Xã Chiềng Sàng",
          "keyAccentLanguage": "Xa_Chieng_Sang"
        },
        {
          "code": 134,
          "type": "Commune",
          "location": {
            "lat": 21.0628957,
            "lng": 104.2686658
          },
          "viNameLanguage": "Xã Chiềng Pằn",
          "keyAccentLanguage": "Xa_Chieng_Pan"
        },
        {
          "code": 135,
          "type": "Commune",
          "location": {
            "lat": 21.0609101,
            "lng": 104.2919273
          },
          "viNameLanguage": "Xã Viêng Lán",
          "keyAccentLanguage": "Xa_Vieng_Lan"
        },
        {
          "code": 136,
          "type": "Commune",
          "location": {
            "lat": 20.9171022,
            "lng": 104.5422225
          },
          "viNameLanguage": "Xã Chiềng Hặc",
          "keyAccentLanguage": "Xa_Chieng_Hac"
        },
        {
          "code": 137,
          "type": "Commune",
          "location": {
            "lat": 21.003638,
            "lng": 104.4839765
          },
          "viNameLanguage": "Xã Mường Lựm",
          "keyAccentLanguage": "Xa_Muong_Lum"
        },
        {
          "code": 138,
          "type": "Commune",
          "location": {
            "lat": 20.9828912,
            "lng": 104.1814686
          },
          "viNameLanguage": "Xã Chiềng On",
          "keyAccentLanguage": "Xa_Chieng_On"
        },
        {
          "code": 139,
          "type": "Commune",
          "location": {
            "lat": 21.050855,
            "lng": 104.204716
          },
          "viNameLanguage": "Xã Yên Sơn",
          "keyAccentLanguage": "Xa_Yen_Son"
        },
        {
          "code": 140,
          "type": "Commune",
          "location": {
            "lat": 21.0176455,
            "lng": 104.3210095
          },
          "viNameLanguage": "Xã Chiềng Khoi",
          "keyAccentLanguage": "Xa_Chieng_Khoi"
        },
        {
          "code": 141,
          "type": "Commune",
          "location": {
            "lat": 20.9610745,
            "lng": 104.4373961
          },
          "viNameLanguage": "Xã Tú Nang",
          "keyAccentLanguage": "Xa_Tu_Nang"
        },
        {
          "code": 142,
          "type": "Commune",
          "location": {
            "lat": 20.9204743,
            "lng": 104.367553
          },
          "viNameLanguage": "Xã Lóng Phiêng",
          "keyAccentLanguage": "Xa_Long_Phieng"
        },
        {
          "code": 143,
          "type": "Commune",
          "location": {
            "lat": 20.9517036,
            "lng": 104.2744808
          },
          "viNameLanguage": "Xã Phiêng Khoài",
          "keyAccentLanguage": "Xa_Phieng_Khoai"
        },
        {
          "code": 144,
          "type": "Commune",
          "location": {
            "lat": 20.8486042,
            "lng": 104.3908304
          },
          "viNameLanguage": "Xã Chiềng Tương",
          "keyAccentLanguage": "Xa_Chieng_Tuong"
        }
      ]
    },
    {
      "code": 145,
      "category": null,
      "type": "District",
      "viNameLanguage": "Huyện Mai Sơn",
      "location": {
        "lat": 21.1219095,
        "lng": 104.053676
      },
      "postalCode": "340009",
      "keyAccentLanguage": "Huyen_Mai_Son",
      "wards": [
        {
          "code": 146,
          "type": "Town",
          "location": {
            "lat": 21.2059357,
            "lng": 104.0943247
          },
          "viNameLanguage": "Thị trấn Hát Lót",
          "keyAccentLanguage": "Thi_tran_Hat_Lot"
        },
        {
          "code": 147,
          "type": "Commune",
          "location": {
            "lat": 21.3245183,
            "lng": 104.0710954
          },
          "viNameLanguage": "Xã Chiềng Sung",
          "keyAccentLanguage": "Xa_Chieng_Sung"
        },
        {
          "code": 148,
          "type": "Commune",
          "location": {
            "lat": 21.1146865,
            "lng": 104.8104424
          },
          "viNameLanguage": "Xã Mường Bằng",
          "keyAccentLanguage": "Xa_Muong_Bang"
        },
        {
          "code": 149,
          "type": "Commune",
          "location": {
            "lat": 21.3112682,
            "lng": 104.158225
          },
          "viNameLanguage": "Xã Chiềng Chăn",
          "keyAccentLanguage": "Xa_Chieng_Chan"
        },
        {
          "code": 150,
          "type": "Commune",
          "location": {
            "lat": 21.2453451,
            "lng": 103.8332193
          },
          "viNameLanguage": "Xã Mương Chanh",
          "keyAccentLanguage": "Xa_Muong_Chanh"
        },
        {
          "code": 151,
          "type": "Commune",
          "location": {
            "lat": 21.2429509,
            "lng": 103.931801
          },
          "viNameLanguage": "Xã Chiềng Ban",
          "keyAccentLanguage": "Xa_Chieng_Ban"
        },
        {
          "code": 152,
          "type": "Commune",
          "location": {
            "lat": 21.2371034,
            "lng": 104.0014307
          },
          "viNameLanguage": "Xã Chiềng Mung",
          "keyAccentLanguage": "Xa_Chieng_Mung"
        },
        {
          "code": 153,
          "type": "Commune",
          "location": {
            "lat": 21.2472403,
            "lng": 104.088517
          },
          "viNameLanguage": "Xã Mường Bon",
          "keyAccentLanguage": "Xa_Muong_Bon"
        },
        {
          "code": 154,
          "type": "Commune",
          "location": {
            "lat": 21.2055088,
            "lng": 103.8911999
          },
          "viNameLanguage": "Xã Chiềng Chung",
          "keyAccentLanguage": "Xa_Chieng_Chung"
        },
        {
          "code": 155,
          "type": "Commune",
          "location": {
            "lat": 21.2030868,
            "lng": 103.9898233
          },
          "viNameLanguage": "Xã Chiềng Mai",
          "keyAccentLanguage": "Xa_Chieng_Mai"
        },
        {
          "code": 156,
          "type": "Commune",
          "location": {
            "lat": 21.1792379,
            "lng": 104.0652887
          },
          "viNameLanguage": "Xã Hát Lót",
          "keyAccentLanguage": "Xa_Hat_Lot"
        },
        {
          "code": 157,
          "type": "Commune",
          "location": {
            "lat": 21.2180002,
            "lng": 104.158225
          },
          "viNameLanguage": "Xã Nà Pó",
          "keyAccentLanguage": "Xa_Na_Po"
        },
        {
          "code": 158,
          "type": "Commune",
          "location": {
            "lat": 21.1480524,
            "lng": 104.158225
          },
          "viNameLanguage": "Xã Cò Nòi",
          "keyAccentLanguage": "Xa_Co_Noi"
        },
        {
          "code": 159,
          "type": "Commune",
          "location": {
            "lat": 21.1665338,
            "lng": 103.7984428
          },
          "viNameLanguage": "Xã Chiềng Nơi",
          "keyAccentLanguage": "Xa_Chieng_Noi"
        },
        {
          "code": 160,
          "type": "Commune",
          "location": {
            "lat": 21.1121674,
            "lng": 103.8911999
          },
          "viNameLanguage": "Xã Phiêng Cằm",
          "keyAccentLanguage": "Xa_Phieng_Cam"
        },
        {
          "code": 161,
          "type": "Commune",
          "location": {
            "lat": 21.1401329,
            "lng": 104.2512221
          },
          "viNameLanguage": "Xã Chiềng Dong",
          "keyAccentLanguage": "Xa_Chieng_Dong"
        },
        {
          "code": 162,
          "type": "Commune",
          "location": {
            "lat": 21.1457384,
            "lng": 103.9782169
          },
          "viNameLanguage": "Xã Chiềng Kheo",
          "keyAccentLanguage": "Xa_Chieng_Kheo"
        },
        {
          "code": 163,
          "type": "Commune",
          "location": {
            "lat": 21.134548,
            "lng": 104.0420642
          },
          "viNameLanguage": "Xã Chiềng Ve",
          "keyAccentLanguage": "Xa_Chieng_Ve"
        },
        {
          "code": 164,
          "type": "Commune",
          "location": {
            "lat": 21.0927135,
            "lng": 104.1233667
          },
          "viNameLanguage": "Xã Chiềng Lương",
          "keyAccentLanguage": "Xa_Chieng_Luong"
        },
        {
          "code": 165,
          "type": "Commune",
          "location": {
            "lat": 21.0033527,
            "lng": 104.0769024
          },
          "viNameLanguage": "Xã Phiêng Pằn",
          "keyAccentLanguage": "Xa_Phieng_Pan"
        },
        {
          "code": 166,
          "type": "Commune",
          "location": {
            "lat": 21.0704063,
            "lng": 103.9724141
          },
          "viNameLanguage": "Xã Nà Ơt",
          "keyAccentLanguage": "Xa_Na_Ot"
        },
        {
          "code": 167,
          "type": "Commune",
          "location": {
            "lat": 21.2606633,
            "lng": 104.204716
          },
          "viNameLanguage": "Xã Tà Hộc",
          "keyAccentLanguage": "Xa_Ta_Hoc"
        }
      ]
    },
    {
      "code": 168,
      "category": null,
      "type": "District",
      "viNameLanguage": "Huyện Sông Mã",
      "location": {
        "lat": 21.0593251,
        "lng": 103.682586
      },
      "postalCode": "3400010",
      "keyAccentLanguage": "Huyen_Song_Ma",
      "wards": [
        {
          "code": 169,
          "type": "Commune",
          "location": {
            "lat": 21.2505052,
            "lng": 103.485862
          },
          "viNameLanguage": "Xã Bó Sinh",
          "keyAccentLanguage": "Xa_Bo_Sinh"
        },
        {
          "code": 170,
          "type": "Commune",
          "location": {
            "lat": 21.2596206,
            "lng": 103.4453969
          },
          "viNameLanguage": "Xã Pú Pẩu",
          "keyAccentLanguage": "Xa_Pu_Pau"
        },
        {
          "code": 171,
          "type": "Commune",
          "location": {
            "lat": 21.264451,
            "lng": 103.6015463
          },
          "viNameLanguage": "Xã Chiềng Phung",
          "keyAccentLanguage": "Xa_Chieng_Phung"
        },
        {
          "code": 172,
          "type": "Commune",
          "location": {
            "lat": 21.2019022,
            "lng": 103.5089907
          },
          "viNameLanguage": "Xã Chiềng En",
          "keyAccentLanguage": "Xa_Chieng_En"
        },
        {
          "code": 173,
          "type": "Commune",
          "location": {
            "lat": 21.1962652,
            "lng": 103.5784012
          },
          "viNameLanguage": "Xã Mường Lầm",
          "keyAccentLanguage": "Xa_Muong_Lam"
        },
        {
          "code": 174,
          "type": "Commune",
          "location": {
            "lat": 21.2120517,
            "lng": 103.6710059
          },
          "viNameLanguage": "Xã Nậm Ty",
          "keyAccentLanguage": "Xa_Nam_Ty"
        },
        {
          "code": 175,
          "type": "Commune",
          "location": {
            "lat": 21.1121774,
            "lng": 103.4627375
          },
          "viNameLanguage": "Xã Đứa Mòn",
          "keyAccentLanguage": "Xa_Dua_Mon"
        },
        {
          "code": 176,
          "type": "Commune",
          "location": {
            "lat": 21.1280685,
            "lng": 103.5552603
          },
          "viNameLanguage": "Xã Yên Hưng",
          "keyAccentLanguage": "Xa_Yen_Hung"
        },
        {
          "code": 177,
          "type": "Commune",
          "location": {
            "lat": 21.1205375,
            "lng": 103.6478486
          },
          "viNameLanguage": "Xã Chiềng Sơ",
          "keyAccentLanguage": "Xa_Chieng_So"
        },
        {
          "code": 178,
          "type": "Commune",
          "location": {
            "lat": 21.0896046,
            "lng": 103.7405019
          },
          "viNameLanguage": "Xã Nà Nghịu",
          "keyAccentLanguage": "Xa_Na_Nghiu"
        },
        {
          "code": 179,
          "type": "Commune",
          "location": {
            "lat": 21.05612,
            "lng": 103.5784012
          },
          "viNameLanguage": "Xã Nậm Mằn",
          "keyAccentLanguage": "Xa_Nam_Man"
        },
        {
          "code": 180,
          "type": "Commune",
          "location": {
            "lat": 21.020497,
            "lng": 103.8005091
          },
          "viNameLanguage": "Xã Chiềng Khoong",
          "keyAccentLanguage": "Xa_Chieng_Khoong"
        },
        {
          "code": 181,
          "type": "Commune",
          "location": {
            "lat": 21.0188317,
            "lng": 103.8911999
          },
          "viNameLanguage": "Xã Chiềng Cang",
          "keyAccentLanguage": "Xa_Chieng_Cang"
        },
        {
          "code": 182,
          "type": "Commune",
          "location": {
            "lat": 21.0252457,
            "lng": 103.6710059
          },
          "viNameLanguage": "Xã Huổi Một",
          "keyAccentLanguage": "Xa_Huoi_Mot"
        },
        {
          "code": 183,
          "type": "Commune",
          "location": {
            "lat": 20.975165,
            "lng": 103.9956269
          },
          "viNameLanguage": "Xã Mường Sai",
          "keyAccentLanguage": "Xa_Muong_Sai"
        },
        {
          "code": 184,
          "type": "Commune",
          "location": {
            "lat": 20.9369223,
            "lng": 103.752088
          },
          "viNameLanguage": "Xã Mường Cai",
          "keyAccentLanguage": "Xa_Muong_Cai"
        },
        {
          "code": 185,
          "type": "Commune",
          "location": {
            "lat": 20.9186082,
            "lng": 103.8332193
          },
          "viNameLanguage": "Xã Mường Hung",
          "keyAccentLanguage": "Xa_Muong_Hung"
        },
        {
          "code": 186,
          "type": "Commune",
          "location": {
            "lat": 20.9304452,
            "lng": 103.9724141
          },
          "viNameLanguage": "Xã Chiềng Khương",
          "keyAccentLanguage": "Xa_Chieng_Khuong"
        }
      ]
    },
    {
      "code": 187,
      "category": null,
      "type": "District",
      "viNameLanguage": "Huyện Sốp Cộp",
      "location": {
        "lat": 20.8874516,
        "lng": 103.4974258
      },
      "postalCode": "3400011",
      "keyAccentLanguage": "Huyen_Sop_Cop",
      "wards": [
        {
          "code": 188,
          "type": "Commune",
          "location": {
            "lat": 21.0513131,
            "lng": 103.3471775
          },
          "viNameLanguage": "Xã Sam Kha",
          "keyAccentLanguage": "Xa_Sam_Kha"
        },
        {
          "code": 189,
          "type": "Commune",
          "location": {
            "lat": 21.0061092,
            "lng": 103.4742993
          },
          "viNameLanguage": "Xã Púng Bánh",
          "keyAccentLanguage": "Xa_Pung_Banh"
        },
        {
          "code": 190,
          "type": "Commune",
          "location": {
            "lat": 20.9652619,
            "lng": 103.6189078
          },
          "viNameLanguage": "Xã Sốp Cộp",
          "keyAccentLanguage": "Xa_Sop_Cop"
        },
        {
          "code": 191,
          "type": "Commune",
          "location": {
            "lat": 20.9412065,
            "lng": 103.5552603
          },
          "viNameLanguage": "Xã Dồm Cang",
          "keyAccentLanguage": "Xa_Dom_Cang"
        },
        {
          "code": 192,
          "type": "Commune",
          "location": {
            "lat": 20.8622433,
            "lng": 103.5205565
          },
          "viNameLanguage": "Xã Nậm Lạnh",
          "keyAccentLanguage": "Xa_Nam_Lanh"
        },
        {
          "code": 193,
          "type": "Commune",
          "location": {
            "lat": 20.8769403,
            "lng": 103.3356272
          },
          "viNameLanguage": "Xã Mường Lèo",
          "keyAccentLanguage": "Xa_Muong_Leo"
        },
        {
          "code": 194,
          "type": "Commune",
          "location": {
            "lat": 20.8548112,
            "lng": 103.6131203
          },
          "viNameLanguage": "Xã Mường Và",
          "keyAccentLanguage": "Xa_Muong_Va"
        },
        {
          "code": 195,
          "type": "Commune",
          "location": {
            "lat": 20.7539537,
            "lng": 103.7057493
          },
          "viNameLanguage": "Xã Mường Lạn",
          "keyAccentLanguage": "Xa_Muong_Lan"
        }
      ]
    },
    {
      "code": 196,
      "category": null,
      "type": "District",
      "viNameLanguage": "Huyện Vân Hồ",
      "location": {
        "lat": 20.7931051,
        "lng": 104.7637619
      },
      "postalCode": "3400012",
      "keyAccentLanguage": "Huyen_Van_Ho",
      "wards": [
        {
          "code": 197,
          "type": "Commune",
          "location": {
            "lat": 20.9983657,
            "lng": 104.8104424
          },
          "viNameLanguage": "Xã Suối Bàng",
          "keyAccentLanguage": "Xa_Suoi_Bang"
        },
        {
          "code": 198,
          "type": "Commune",
          "location": {
            "lat": 20.9435674,
            "lng": 104.9038451
          },
          "viNameLanguage": "Xã Song Khủa",
          "keyAccentLanguage": "Xa_Song_Khua"
        },
        {
          "code": 199,
          "type": "Commune",
          "location": {
            "lat": 20.9868594,
            "lng": 104.8746508
          },
          "viNameLanguage": "Xã Liên Hoà",
          "keyAccentLanguage": "Xa_Lien_Hoa"
        },
        {
          "code": 200,
          "type": "Commune",
          "location": {
            "lat": 20.8799982,
            "lng": 104.8337879
          },
          "viNameLanguage": "Xã Tô Múa",
          "keyAccentLanguage": "Xa_To_Mua"
        },
        {
          "code": 201,
          "type": "Commune",
          "location": {
            "lat": 20.8970587,
            "lng": 104.9038451
          },
          "viNameLanguage": "Xã Mường Tè",
          "keyAccentLanguage": "Xa_Muong_Te"
        },
        {
          "code": 202,
          "type": "Commune",
          "location": {
            "lat": 20.8334812,
            "lng": 104.8337879
          },
          "viNameLanguage": "Xã Chiềng Khoa",
          "keyAccentLanguage": "Xa_Chieng_Khoa"
        },
        {
          "code": 203,
          "type": "Commune",
          "location": {
            "lat": 20.8272993,
            "lng": 104.9038451
          },
          "viNameLanguage": "Xã Mường Men",
          "keyAccentLanguage": "Xa_Muong_Men"
        },
        {
          "code": 204,
          "type": "Commune",
          "location": {
            "lat": 20.8675802,
            "lng": 104.9739333
          },
          "viNameLanguage": "Xã Quang Minh",
          "keyAccentLanguage": "Xa_Quang_Minh"
        },
        {
          "code": 205,
          "type": "Commune",
          "location": {
            "lat": 20.7931051,
            "lng": 104.7637619
          },
          "viNameLanguage": "Xã Vân Hồ",
          "keyAccentLanguage": "Xa_Van_Ho"
        },
        {
          "code": 206,
          "type": "Commune",
          "location": {
            "lat": 20.7849129,
            "lng": 104.8571368
          },
          "viNameLanguage": "Xã Lóng Luông",
          "keyAccentLanguage": "Xa_Long_Luong"
        },
        {
          "code": 207,
          "type": "Commune",
          "location": {
            "lat": 20.7766643,
            "lng": 104.9505671
          },
          "viNameLanguage": "Xã Chiềng Yên",
          "keyAccentLanguage": "Xa_Chieng_Yen"
        },
        {
          "code": 208,
          "type": "Commune",
          "location": {
            "lat": 20.7187886,
            "lng": 104.6821048
          },
          "viNameLanguage": "Xã Chiềng Xuân",
          "keyAccentLanguage": "Xa_Chieng_Xuan"
        },
        {
          "code": 209,
          "type": "Commune",
          "location": {
            "lat": 20.7212825,
            "lng": 104.7871004
          },
          "viNameLanguage": "Xã Xuân Nha",
          "keyAccentLanguage": "Xa_Xuan_Nha"
        },
        {
          "code": 210,
          "type": "Commune",
          "location": {
            "lat": 20.6323066,
            "lng": 104.7404269
          },
          "viNameLanguage": "Xã Tân Xuân",
          "keyAccentLanguage": "Xa_Tan_Xuan"
        }
      ]
    }
  ]
}