[
  {
    "code": 0,
    "type": "State",
    "location": {
      "lat": 35.0182505,
      "lng": 137.2923893
    },
    "districtList": [
      {
        "code": 0,
        "type": "City",
        "enNameLanguage": "Jimokuji",
        "location": {
          "lat": 35.1929431,
          "lng": 136.8228622
        },
        "keyAccentLanguage": "jimokuji"
      },
      {
        "code": 0,
        "type": "City",
        "enNameLanguage": "Inazawa-shi",
        "location": {
          "lat": 35.2481406,
          "lng": 136.7802427
        },
        "keyAccentLanguage": "inazawa-shi"
      },
      {
        "code": 0,
        "type": "City",
        "enNameLanguage": "Fukishimamachi",
        "location": {
          "lat": 35.0175534,
          "lng": 136.9179938
        },
        "keyAccentLanguage": "fukishimamachi"
      },
      {
        "code": 0,
        "type": "City",
        "enNameLanguage": "Iwasakicho",
        "location": {
          "lat": 35.1455462,
          "lng": 137.0476974
        },
        "keyAccentLanguage": "iwasakicho"
      },
      {
        "code": 0,
        "type": "City",
        "enNameLanguage": "Chikusa-ku",
        "location": {
          "lat": 35.1659708,
          "lng": 136.9574136
        },
        "keyAccentLanguage": "chikusa-ku"
      },
      {
        "code": 0,
        "type": "City",
        "enNameLanguage": "Aisai-shi",
        "location": {
          "lat": 35.1528943,
          "lng": 136.7283544
        },
        "keyAccentLanguage": "aisai-shi"
      },
      {
        "code": 0,
        "type": "City",
        "enNameLanguage": "Ama-shi",
        "location": {
          "lat": 35.1852506,
          "lng": 136.7867646
        },
        "keyAccentLanguage": "ama-shi"
      },
      {
        "code": 0,
        "type": "City",
        "enNameLanguage": "Inuyama-shi",
        "location": {
          "lat": 35.3786468,
          "lng": 136.9444802
        },
        "keyAccentLanguage": "inuyama-shi"
      },
      {
        "code": 0,
        "type": "City",
        "enNameLanguage": "Chita-shi",
        "location": {
          "lat": 34.9966379,
          "lng": 136.8643747
        },
        "keyAccentLanguage": "chita-shi"
      },
      {
        "code": 0,
        "type": "City",
        "enNameLanguage": "Araomachi",
        "location": {
          "lat": 35.03665960000001,
          "lng": 136.9158189
        },
        "keyAccentLanguage": "araomachi"
      },
      {
        "code": 0,
        "type": "City",
        "enNameLanguage": "Ishihama",
        "location": {
          "lat": 34.9648783,
          "lng": 136.9639615
        },
        "keyAccentLanguage": "ishihama"
      },
      {
        "code": 0,
        "type": "City",
        "enNameLanguage": "Hara",
        "location": {
          "lat": 35.0182505,
          "lng": 137.2923893
        },
        "keyAccentLanguage": "hara"
      },
      {
        "code": 0,
        "type": "City",
        "enNameLanguage": "Hitotsugicho",
        "location": {
          "lat": 35.0129387,
          "lng": 137.0266848
        },
        "keyAccentLanguage": "hitotsugicho"
      },
      {
        "code": 0,
        "type": "City",
        "enNameLanguage": "Fujiyamadai",
        "location": {
          "lat": 35.2841867,
          "lng": 137.037627
        },
        "keyAccentLanguage": "fujiyamadai"
      },
      {
        "code": 0,
        "type": "City",
        "enNameLanguage": "Higashiura-cho",
        "location": {
          "lat": 34.9771086,
          "lng": 136.9655438
        },
        "keyAccentLanguage": "higashiura-cho"
      },
      {
        "code": 0,
        "type": "City",
        "enNameLanguage": "Imaisecho Umayose",
        "location": {
          "lat": 35.3258257,
          "lng": 136.7889715
        },
        "keyAccentLanguage": "imaisecho_umayose"
      },
      {
        "code": 0,
        "type": "City",
        "enNameLanguage": "Anjo-shi",
        "location": {
          "lat": 34.9586216,
          "lng": 137.0803649
        },
        "keyAccentLanguage": "anjo-shi"
      },
      {
        "code": 0,
        "type": "City",
        "enNameLanguage": "Inacho",
        "location": {
          "lat": 34.8004728,
          "lng": 137.3537205
        },
        "keyAccentLanguage": "inacho"
      },
      {
        "code": 0,
        "type": "City",
        "enNameLanguage": "Fuso-cho",
        "location": {
          "lat": 35.3590988,
          "lng": 136.9132145
        },
        "keyAccentLanguage": "fuso-cho"
      },
      {
        "code": 0,
        "type": "City",
        "enNameLanguage": "Gamagori-shi",
        "location": {
          "lat": 34.8259551,
          "lng": 137.2197862
        },
        "keyAccentLanguage": "gamagori-shi"
      },
      {
        "code": 0,
        "type": "City",
        "enNameLanguage": "Chiryu-shi",
        "location": {
          "lat": 35.0013027,
          "lng": 137.0507689
        },
        "keyAccentLanguage": "chiryu-shi"
      },
      {
        "code": 0,
        "type": "City",
        "enNameLanguage": "Okucho",
        "location": {
          "lat": 35.3265661,
          "lng": 136.7502673
        },
        "keyAccentLanguage": "okucho"
      },
      {
        "code": 0,
        "type": "City",
        "enNameLanguage": "Inuyama",
        "location": {
          "lat": 35.3786468,
          "lng": 136.9444802
        },
        "keyAccentLanguage": "inuyama"
      },
      {
        "code": 0,
        "type": "City",
        "enNameLanguage": "Handa-shi",
        "location": {
          "lat": 34.8917477,
          "lng": 136.9379123
        },
        "keyAccentLanguage": "handa-shi"
      },
      {
        "code": 0,
        "type": "City",
        "enNameLanguage": "Meito-ku",
        "location": {
          "lat": 35.1752621,
          "lng": 137.0029684
        },
        "keyAccentLanguage": "meito-ku"
      },
      {
        "code": 0,
        "type": "City",
        "enNameLanguage": "Haruki",
        "location": {
          "lat": 35.08135499999999,
          "lng": 137.0455625
        },
        "keyAccentLanguage": "haruki"
      },
      {
        "code": 0,
        "type": "City",
        "enNameLanguage": "Sakaecho",
        "location": {
          "lat": 35.0476765,
          "lng": 136.9931363
        },
        "keyAccentLanguage": "sakaecho"
      },
      {
        "code": 0,
        "type": "City",
        "enNameLanguage": "Obu-shi",
        "location": {
          "lat": 35.0117491,
          "lng": 136.9639005
        },
        "keyAccentLanguage": "obu-shi"
      },
      {
        "code": 0,
        "type": "City",
        "enNameLanguage": "Agui-cho",
        "location": {
          "lat": 34.9328576,
          "lng": 136.9150744
        },
        "keyAccentLanguage": "agui-cho"
      },
      {
        "code": 0,
        "type": "City",
        "enNameLanguage": "Kanie-cho",
        "location": {
          "lat": 35.142045,
          "lng": 136.7777134
        },
        "keyAccentLanguage": "kanie-cho"
      },
      {
        "code": 0,
        "type": "City",
        "enNameLanguage": "Nodacho",
        "location": {
          "lat": 34.6521492,
          "lng": 137.2093614
        },
        "keyAccentLanguage": "nodacho"
      },
      {
        "code": 0,
        "type": "City",
        "enNameLanguage": "Ooiwa-cho",
        "location": {
          "lat": 34.7253012,
          "lng": 137.4450732
        },
        "keyAccentLanguage": "ooiwa-cho"
      },
      {
        "code": 0,
        "type": "City",
        "enNameLanguage": "Chiyoda",
        "location": {
          "lat": 35.157272,
          "lng": 136.914966
        },
        "keyAccentLanguage": "chiyoda"
      },
      {
        "code": 0,
        "type": "City",
        "enNameLanguage": "Hekinan-shi",
        "location": {
          "lat": 34.8850248,
          "lng": 136.9935611
        },
        "keyAccentLanguage": "hekinan-shi"
      },
      {
        "code": 0,
        "type": "City",
        "enNameLanguage": "Kagiyamachi",
        "location": {
          "lat": 34.9886415,
          "lng": 136.9083424
        },
        "keyAccentLanguage": "kagiyamachi"
      },
      {
        "code": 0,
        "type": "City",
        "enNameLanguage": "Atsuta-ku",
        "location": {
          "lat": 35.12403949999999,
          "lng": 136.9027529
        },
        "keyAccentLanguage": "atsuta-ku"
      },
      {
        "code": 0,
        "type": "City",
        "enNameLanguage": "Kita-ku",
        "location": {
          "lat": 35.2112549,
          "lng": 136.9145796
        },
        "keyAccentLanguage": "kita-ku"
      },
      {
        "code": 0,
        "type": "City",
        "enNameLanguage": "Minami-ku",
        "location": {
          "lat": 35.09267579999999,
          "lng": 136.9240234
        },
        "keyAccentLanguage": "minami-ku"
      },
      {
        "code": 0,
        "type": "City",
        "enNameLanguage": "Komaki-shi",
        "location": {
          "lat": 35.2903378,
          "lng": 136.9108701
        },
        "keyAccentLanguage": "komaki-shi"
      },
      {
        "code": 0,
        "type": "City",
        "enNameLanguage": "Higashi-ku",
        "location": {
          "lat": 35.17418079999999,
          "lng": 136.9195049
        },
        "keyAccentLanguage": "higashi-ku"
      },
      {
        "code": 0,
        "type": "City",
        "enNameLanguage": "Kasugai-shi",
        "location": {
          "lat": 35.2476967,
          "lng": 136.9721897
        },
        "keyAccentLanguage": "kasugai-shi"
      },
      {
        "code": 0,
        "type": "City",
        "enNameLanguage": "Midori-ku",
        "location": {
          "lat": 35.0817593,
          "lng": 136.9600742
        },
        "keyAccentLanguage": "midori-ku"
      },
      {
        "code": 0,
        "type": "City",
        "enNameLanguage": "Kiyosu-shi",
        "location": {
          "lat": 35.2058036,
          "lng": 136.8577685
        },
        "keyAccentLanguage": "kiyosu-shi"
      },
      {
        "code": 0,
        "type": "City",
        "enNameLanguage": "Miyoshicho",
        "location": {
          "lat": 35.0883108,
          "lng": 137.0730055
        },
        "keyAccentLanguage": "miyoshicho"
      },
      {
        "code": 0,
        "type": "City",
        "enNameLanguage": "Naka-ku",
        "location": {
          "lat": 35.1581326,
          "lng": 136.8983916
        },
        "keyAccentLanguage": "naka-ku"
      },
      {
        "code": 0,
        "type": "City",
        "enNameLanguage": "Minato-ku",
        "location": {
          "lat": 35.093996,
          "lng": 136.8470409
        },
        "keyAccentLanguage": "minato-ku"
      },
      {
        "code": 0,
        "type": "City",
        "enNameLanguage": "Yatomi-shi",
        "location": {
          "lat": 35.1116473,
          "lng": 136.7257424
        },
        "keyAccentLanguage": "yatomi-shi"
      },
      {
        "code": 0,
        "type": "City",
        "enNameLanguage": "Ichinomiya-shi",
        "location": {
          "lat": 35.3039172,
          "lng": 136.8029671
        },
        "keyAccentLanguage": "ichinomiya-shi"
      },
      {
        "code": 0,
        "type": "City",
        "enNameLanguage": "Miyacho",
        "location": {
          "lat": 34.814148,
          "lng": 137.2480037
        },
        "keyAccentLanguage": "miyacho"
      },
      {
        "code": 0,
        "type": "City",
        "enNameLanguage": "Kota-cho",
        "location": {
          "lat": 34.8644762,
          "lng": 137.1656831
        },
        "keyAccentLanguage": "kota-cho"
      },
      {
        "code": 0,
        "type": "City",
        "enNameLanguage": "Jojocho",
        "location": {
          "lat": 35.2370602,
          "lng": 136.9865835
        },
        "keyAccentLanguage": "jojocho"
      },
      {
        "code": 0,
        "type": "City",
        "enNameLanguage": "Nisshin-shi",
        "location": {
          "lat": 35.1320356,
          "lng": 137.0394989
        },
        "keyAccentLanguage": "nisshin-shi"
      },
      {
        "code": 0,
        "type": "City",
        "enNameLanguage": "Kaimei",
        "location": {
          "lat": 35.3202777,
          "lng": 136.7716369
        },
        "keyAccentLanguage": "kaimei"
      },
      {
        "code": 0,
        "type": "City",
        "enNameLanguage": "Moriyama-ku",
        "location": {
          "lat": 35.1974248,
          "lng": 136.9816105
        },
        "keyAccentLanguage": "moriyama-ku"
      },
      {
        "code": 0,
        "type": "City",
        "enNameLanguage": "Owariasahi-shi",
        "location": {
          "lat": 35.2145832,
          "lng": 137.0382573
        },
        "keyAccentLanguage": "owariasahi-shi"
      },
      {
        "code": 0,
        "type": "City",
        "enNameLanguage": "Shikata",
        "location": {
          "lat": 35.2478816,
          "lng": 136.876165
        },
        "keyAccentLanguage": "shikata"
      },
      {
        "code": 0,
        "type": "City",
        "enNameLanguage": "Kisogawacho Kuroda",
        "location": {
          "lat": 35.3440649,
          "lng": 136.7868181
        },
        "keyAccentLanguage": "kisogawacho_kuroda"
      },
      {
        "code": 0,
        "type": "City",
        "enNameLanguage": "Miaicho",
        "location": {
          "lat": 34.9252052,
          "lng": 137.1886094
        },
        "keyAccentLanguage": "miaicho"
      },
      {
        "code": 0,
        "type": "City",
        "enNameLanguage": "Nawamachi",
        "location": {
          "lat": 35.0550539,
          "lng": 136.916296
        },
        "keyAccentLanguage": "nawamachi"
      },
      {
        "code": 0,
        "type": "City",
        "enNameLanguage": "Kitanagoya-shi",
        "location": {
          "lat": 35.2112549,
          "lng": 136.9145796
        },
        "keyAccentLanguage": "kitanagoya-shi"
      },
      {
        "code": 0,
        "type": "City",
        "enNameLanguage": "Ooaza Nagakute",
        "location": {
          "lat": 35.1840825,
          "lng": 137.0487221
        },
        "keyAccentLanguage": "ooaza_nagakute"
      },
      {
        "code": 0,
        "type": "City",
        "enNameLanguage": "Nishio-shi",
        "location": {
          "lat": 34.8619053,
          "lng": 137.0618775
        },
        "keyAccentLanguage": "nishio-shi"
      },
      {
        "code": 0,
        "type": "City",
        "enNameLanguage": "Toyoake-shi",
        "location": {
          "lat": 35.0545485,
          "lng": 137.0131269
        },
        "keyAccentLanguage": "toyoake-shi"
      },
      {
        "code": 0,
        "type": "City",
        "enNameLanguage": "Toyohashi-shi",
        "location": {
          "lat": 34.7688528,
          "lng": 137.3916837
        },
        "keyAccentLanguage": "toyohashi-shi"
      },
      {
        "code": 0,
        "type": "City",
        "enNameLanguage": "Oguchi-cho",
        "location": {
          "lat": 35.3324692,
          "lng": 136.907715
        },
        "keyAccentLanguage": "oguchi-cho"
      },
      {
        "code": 0,
        "type": "City",
        "enNameLanguage": "Ogakiecho",
        "location": {
          "lat": 34.9670874,
          "lng": 136.9994872
        },
        "keyAccentLanguage": "ogakiecho"
      },
      {
        "code": 0,
        "type": "City",
        "enNameLanguage": "Odakacho",
        "location": {
          "lat": 35.0669074,
          "lng": 136.923755
        },
        "keyAccentLanguage": "odakacho"
      },
      {
        "code": 0,
        "type": "City",
        "enNameLanguage": "Nakamura-ku",
        "location": {
          "lat": 35.1684075,
          "lng": 136.8549219
        },
        "keyAccentLanguage": "nakamura-ku"
      },
      {
        "code": 0,
        "type": "City",
        "enNameLanguage": "Nagakute-shi",
        "location": {
          "lat": 35.1840825,
          "lng": 137.0487221
        },
        "keyAccentLanguage": "nagakute-shi"
      },
      {
        "code": 0,
        "type": "City",
        "enNameLanguage": "Tahara-shi",
        "location": {
          "lat": 34.6686831,
          "lng": 137.2642743
        },
        "keyAccentLanguage": "tahara-shi"
      },
      {
        "code": 0,
        "type": "City",
        "enNameLanguage": "Shinshiro-shi",
        "location": {
          "lat": 34.8988996,
          "lng": 137.4977958
        },
        "keyAccentLanguage": "shinshiro-shi"
      },
      {
        "code": 0,
        "type": "City",
        "enNameLanguage": "Toyokawa-shi",
        "location": {
          "lat": 34.8267523,
          "lng": 137.3757774
        },
        "keyAccentLanguage": "toyokawa-shi"
      },
      {
        "code": 0,
        "type": "City",
        "enNameLanguage": "Minamichita-cho",
        "location": {
          "lat": 34.7152126,
          "lng": 136.9299921
        },
        "keyAccentLanguage": "minamichita-cho"
      },
      {
        "code": 0,
        "type": "City",
        "enNameLanguage": "Togo-cho",
        "location": {
          "lat": 35.0966618,
          "lng": 137.0524813
        },
        "keyAccentLanguage": "togo-cho"
      },
      {
        "code": 0,
        "type": "City",
        "enNameLanguage": "Tokai-shi",
        "location": {
          "lat": 35.0226458,
          "lng": 136.9021486
        },
        "keyAccentLanguage": "tokai-shi"
      },
      {
        "code": 0,
        "type": "City",
        "enNameLanguage": "Takahama-shi",
        "location": {
          "lat": 34.9279386,
          "lng": 136.9882089
        },
        "keyAccentLanguage": "takahama-shi"
      },
      {
        "code": 0,
        "type": "City",
        "enNameLanguage": "Tempaku-ku",
        "location": {
          "lat": 35.1299862,
          "lng": 136.9814326
        },
        "keyAccentLanguage": "tempaku-ku"
      },
      {
        "code": 0,
        "type": "City",
        "enNameLanguage": "Showa-ku",
        "location": {
          "lat": 35.1495594,
          "lng": 136.938444
        },
        "keyAccentLanguage": "showa-ku"
      },
      {
        "code": 0,
        "type": "City",
        "enNameLanguage": "Toyota-shi",
        "location": {
          "lat": 35.0825559,
          "lng": 137.1561276
        },
        "keyAccentLanguage": "toyota-shi"
      },
      {
        "code": 0,
        "type": "City",
        "enNameLanguage": "Mizuho-ku",
        "location": {
          "lat": 35.1244727,
          "lng": 136.9355903
        },
        "keyAccentLanguage": "mizuho-ku"
      },
      {
        "code": 0,
        "type": "City",
        "enNameLanguage": "Tsushima-shi",
        "location": {
          "lat": 35.1770154,
          "lng": 136.7411678
        },
        "keyAccentLanguage": "tsushima-shi"
      },
      {
        "code": 0,
        "type": "City",
        "enNameLanguage": "Tokoname-shi",
        "location": {
          "lat": 34.88664139999999,
          "lng": 136.8323482
        },
        "keyAccentLanguage": "tokoname-shi"
      },
      {
        "code": 0,
        "type": "City",
        "enNameLanguage": "Taketoyo-cho",
        "location": {
          "lat": 34.854456,
          "lng": 136.914692
        },
        "keyAccentLanguage": "taketoyo-cho"
      },
      {
        "code": 0,
        "type": "City",
        "enNameLanguage": "Nishi-ku",
        "location": {
          "lat": 35.1969484,
          "lng": 136.882979
        },
        "keyAccentLanguage": "nishi-ku"
      },
      {
        "code": 0,
        "type": "City",
        "enNameLanguage": "Narumicho",
        "location": {
          "lat": 35.0840006,
          "lng": 136.9525654
        },
        "keyAccentLanguage": "narumicho"
      },
      {
        "code": 0,
        "type": "City",
        "enNameLanguage": "Kariya-shi",
        "location": {
          "lat": 34.9890881,
          "lng": 137.0023012
        },
        "keyAccentLanguage": "kariya-shi"
      },
      {
        "code": 0,
        "type": "City",
        "enNameLanguage": "Okazaki-shi",
        "location": {
          "lat": 34.9548536,
          "lng": 137.1730774
        },
        "keyAccentLanguage": "okazaki-shi"
      },
      {
        "code": 0,
        "type": "City",
        "enNameLanguage": "Nakaotai",
        "location": {
          "lat": 35.2159981,
          "lng": 136.8725289
        },
        "keyAccentLanguage": "nakaotai"
      },
      {
        "code": 0,
        "type": "City",
        "enNameLanguage": "Konan-shi",
        "location": {
          "lat": 35.331753,
          "lng": 136.8697682
        },
        "keyAccentLanguage": "konan-shi"
      },
      {
        "code": 0,
        "type": "City",
        "enNameLanguage": "Iwakura-shi",
        "location": {
          "lat": 35.2795222,
          "lng": 136.8713067
        },
        "keyAccentLanguage": "iwakura-shi"
      },
      {
        "code": 0,
        "type": "City",
        "enNameLanguage": "Kataharacho",
        "location": {
          "lat": 34.8011722,
          "lng": 137.1879481
        },
        "keyAccentLanguage": "kataharacho"
      },
      {
        "code": 0,
        "type": "City",
        "enNameLanguage": "Seto-shi",
        "location": {
          "lat": 35.2239326,
          "lng": 137.0841304
        },
        "keyAccentLanguage": "seto-shi"
      },
      {
        "code": 0,
        "type": "City",
        "enNameLanguage": "Nakagawa-ku",
        "location": {
          "lat": 35.1327489,
          "lng": 136.8447601
        },
        "keyAccentLanguage": "nakagawa-ku"
      },
      {
        "code": 0,
        "type": "City",
        "enNameLanguage": "Mihama-cho",
        "location": {
          "lat": 34.7788811,
          "lng": 136.9081955
        },
        "keyAccentLanguage": "mihama-cho"
      },
      {
        "code": 0,
        "type": "City",
        "enNameLanguage": "Ogawa",
        "location": {
          "lat": 34.9745587,
          "lng": 136.9365188
        },
        "keyAccentLanguage": "ogawa"
      },
      {
        "code": 0,
        "type": "City",
        "enNameLanguage": "Oharu-cho",
        "location": {
          "lat": 35.175149,
          "lng": 136.8200536
        },
        "keyAccentLanguage": "oharu-cho"
      },
      {
        "code": 0,
        "type": "City",
        "enNameLanguage": "Nagoya-shi",
        "location": {
          "lat": 35.18145060000001,
          "lng": 136.9065571
        },
        "keyAccentLanguage": "nagoya-shi"
      },
      {
        "code": 0,
        "type": "City",
        "enNameLanguage": "Kibacho",
        "location": {
          "lat": 35.1020388,
          "lng": 136.8991995
        },
        "keyAccentLanguage": "kibacho"
      },
      {
        "code": 0,
        "type": "City",
        "enNameLanguage": "Miyoshi-shi",
        "location": {
          "lat": 35.0894166,
          "lng": 137.074937
        },
        "keyAccentLanguage": "miyoshi-shi"
      },
      {
        "code": 0,
        "type": "City",
        "enNameLanguage": "Shinsakae",
        "location": {
          "lat": 35.1655565,
          "lng": 136.9210314
        },
        "keyAccentLanguage": "shinsakae"
      }
    ],
    "enNameLanguage": "Aichi",
    "keyAccentLanguage": "aichi"
  },
  {
    "code": 0,
    "type": "State",
    "location": {
      "lat": 36.3556265,
      "lng": -95.83828229999999
    },
    "districtList": [
      {
        "code": 0,
        "type": "City",
        "enNameLanguage": "Akadatecho",
        "location": {
          "lat": 40.27111470000001,
          "lng": 140.5710076
        },
        "keyAccentLanguage": "akadatecho"
      },
      {
        "code": 0,
        "type": "City",
        "enNameLanguage": "Akanumashitamichi",
        "location": {
          "lat": 39.3894195,
          "lng": 140.0627428
        },
        "keyAccentLanguage": "akanumashitamichi"
      },
      {
        "code": 0,
        "type": "City",
        "enNameLanguage": "Goshono",
        "location": {
          "lat": 39.3523887,
          "lng": 140.5567061
        },
        "keyAccentLanguage": "goshono"
      },
      {
        "code": 0,
        "type": "City",
        "enNameLanguage": "Ani Nagahatake",
        "location": {
          "lat": 39.8999585,
          "lng": 140.4633936
        },
        "keyAccentLanguage": "ani_nagahatake"
      },
      {
        "code": 0,
        "type": "City",
        "enNameLanguage": "Akata",
        "location": {
          "lat": 39.7192558,
          "lng": 140.1042666
        },
        "keyAccentLanguage": "akata"
      },
      {
        "code": 0,
        "type": "City",
        "enNameLanguage": "Amanai",
        "location": {
          "lat": 40.2433653,
          "lng": 140.169865
        },
        "keyAccentLanguage": "amanai"
      },
      {
        "code": 0,
        "type": "City",
        "enNameLanguage": "Aobamachi",
        "location": {
          "lat": 40.2000515,
          "lng": 140.0188753
        },
        "keyAccentLanguage": "aobamachi"
      },
      {
        "code": 0,
        "type": "City",
        "enNameLanguage": "Hodono",
        "location": {
          "lat": 39.0699024,
          "lng": 140.6226167
        },
        "keyAccentLanguage": "hodono"
      },
      {
        "code": 0,
        "type": "City",
        "enNameLanguage": "Akaishi",
        "location": {
          "lat": 40.2575941,
          "lng": 140.5001853
        },
        "keyAccentLanguage": "akaishi"
      },
      {
        "code": 0,
        "type": "City",
        "enNameLanguage": "Funakoshi",
        "location": {
          "lat": 39.9031375,
          "lng": 139.946355
        },
        "keyAccentLanguage": "funakoshi"
      },
      {
        "code": 0,
        "type": "City",
        "enNameLanguage": "Akasawa",
        "location": {
          "lat": 39.8833543,
          "lng": 140.1225373
        },
        "keyAccentLanguage": "akasawa"
      },
      {
        "code": 0,
        "type": "City",
        "enNameLanguage": "Akinomiya",
        "location": {
          "lat": 38.9693034,
          "lng": 140.5185938
        },
        "keyAccentLanguage": "akinomiya"
      },
      {
        "code": 0,
        "type": "City",
        "enNameLanguage": "Akita-shi",
        "location": {
          "lat": 39.7192558,
          "lng": 140.1042666
        },
        "keyAccentLanguage": "akita-shi"
      },
      {
        "code": 0,
        "type": "City",
        "enNameLanguage": "Akagawa",
        "location": {
          "lat": 39.32481569999999,
          "lng": 140.5251384
        },
        "keyAccentLanguage": "akagawa"
      },
      {
        "code": 0,
        "type": "City",
        "enNameLanguage": "Ani Kobuchi",
        "location": {
          "lat": 39.7192558,
          "lng": 140.1042666
        },
        "keyAccentLanguage": "ani_kobuchi"
      },
      {
        "code": 0,
        "type": "City",
        "enNameLanguage": "Aizomesawanakatai",
        "location": {
          "lat": 40.26670319999999,
          "lng": 140.5691445
        },
        "keyAccentLanguage": "aizomesawanakatai"
      },
      {
        "code": 0,
        "type": "City",
        "enNameLanguage": "Akadate",
        "location": {
          "lat": 40.2717659,
          "lng": 140.5684814
        },
        "keyAccentLanguage": "akadate"
      },
      {
        "code": 0,
        "type": "City",
        "enNameLanguage": "Akihitodome",
        "location": {
          "lat": 40.31740449999999,
          "lng": 140.5964601
        },
        "keyAccentLanguage": "akihitodome"
      },
      {
        "code": 0,
        "type": "City",
        "enNameLanguage": "Ani Nekko",
        "location": {
          "lat": 39.7192558,
          "lng": 140.1042666
        },
        "keyAccentLanguage": "ani_nekko"
      },
      {
        "code": 0,
        "type": "City",
        "enNameLanguage": "Daisen-shi",
        "location": {
          "lat": 39.453276,
          "lng": 140.4754971
        },
        "keyAccentLanguage": "daisen-shi"
      },
      {
        "code": 0,
        "type": "City",
        "enNameLanguage": "Aramachi",
        "location": {
          "lat": 39.3539271,
          "lng": 140.0765446
        },
        "keyAccentLanguage": "aramachi"
      },
      {
        "code": 0,
        "type": "City",
        "enNameLanguage": "Akabakama",
        "location": {
          "lat": 39.1689386,
          "lng": 140.4470608
        },
        "keyAccentLanguage": "akabakama"
      },
      {
        "code": 0,
        "type": "City",
        "enNameLanguage": "Ani Mizunashi",
        "location": {
          "lat": 39.6170769,
          "lng": 140.1295254
        },
        "keyAccentLanguage": "ani_mizunashi"
      },
      {
        "code": 0,
        "type": "City",
        "enNameLanguage": "Anjoji",
        "location": {
          "lat": 39.4441861,
          "lng": 140.5529655
        },
        "keyAccentLanguage": "anjoji"
      },
      {
        "code": 0,
        "type": "City",
        "enNameLanguage": "Akanumamachi",
        "location": {
          "lat": 39.3904599,
          "lng": 140.0558289
        },
        "keyAccentLanguage": "akanumamachi"
      },
      {
        "code": 0,
        "type": "City",
        "enNameLanguage": "Aramachi",
        "location": {
          "lat": 39.3539271,
          "lng": 140.0765446
        },
        "keyAccentLanguage": "aramachi"
      },
      {
        "code": 0,
        "type": "City",
        "enNameLanguage": "Ariura",
        "location": {
          "lat": 40.2818176,
          "lng": 140.5658404
        },
        "keyAccentLanguage": "ariura"
      },
      {
        "code": 0,
        "type": "City",
        "enNameLanguage": "Ani Fushikage",
        "location": {
          "lat": 39.7192558,
          "lng": 140.1042666
        },
        "keyAccentLanguage": "ani_fushikage"
      },
      {
        "code": 0,
        "type": "City",
        "enNameLanguage": "Amasegawa",
        "location": {
          "lat": 39.9848107,
          "lng": 140.0980753
        },
        "keyAccentLanguage": "amasegawa"
      },
      {
        "code": 0,
        "type": "City",
        "enNameLanguage": "Aramachi",
        "location": {
          "lat": 39.3539271,
          "lng": 140.0765446
        },
        "keyAccentLanguage": "aramachi"
      },
      {
        "code": 0,
        "type": "City",
        "enNameLanguage": "Arayamachi",
        "location": {
          "lat": 39.7088499,
          "lng": 140.0652499
        },
        "keyAccentLanguage": "arayamachi"
      },
      {
        "code": 0,
        "type": "City",
        "enNameLanguage": "Ani Koya",
        "location": {
          "lat": 39.583225,
          "lng": 140.1750266
        },
        "keyAccentLanguage": "ani_koya"
      },
      {
        "code": 0,
        "type": "City",
        "enNameLanguage": "Taiyu",
        "location": {
          "lat": 39.343246,
          "lng": 140.4738201
        },
        "keyAccentLanguage": "taiyu"
      },
      {
        "code": 0,
        "type": "City",
        "enNameLanguage": "Semboku-shi",
        "location": {
          "lat": 39.7000607,
          "lng": 140.7272951
        },
        "keyAccentLanguage": "semboku-shi"
      },
      {
        "code": 0,
        "type": "City",
        "enNameLanguage": "Asahicho",
        "location": {
          "lat": 40.2265278,
          "lng": 140.3738065
        },
        "keyAccentLanguage": "asahicho"
      },
      {
        "code": 0,
        "type": "City",
        "enNameLanguage": "Kazuno-shi",
        "location": {
          "lat": 40.2157715,
          "lng": 140.7885015
        },
        "keyAccentLanguage": "kazuno-shi"
      },
      {
        "code": 0,
        "type": "City",
        "enNameLanguage": "Yurihonjo-shi",
        "location": {
          "lat": 39.3862586,
          "lng": 140.0508038
        },
        "keyAccentLanguage": "yurihonjo-shi"
      },
      {
        "code": 0,
        "type": "City",
        "enNameLanguage": "Tegata",
        "location": {
          "lat": 39.73563559999999,
          "lng": 140.136289
        },
        "keyAccentLanguage": "tegata"
      },
      {
        "code": 0,
        "type": "City",
        "enNameLanguage": "Ani Hitachinai",
        "location": {
          "lat": 40.2923477,
          "lng": 140.4431962
        },
        "keyAccentLanguage": "ani_hitachinai"
      },
      {
        "code": 0,
        "type": "City",
        "enNameLanguage": "Showa Okubo",
        "location": {
          "lat": 39.8684993,
          "lng": 140.0322086
        },
        "keyAccentLanguage": "showa_okubo"
      },
      {
        "code": 0,
        "type": "City",
        "enNameLanguage": "Akasaka",
        "location": {
          "lat": 39.61602389999999,
          "lng": 140.1364722
        },
        "keyAccentLanguage": "akasaka"
      },
      {
        "code": 0,
        "type": "City",
        "enNameLanguage": "Araya",
        "location": {
          "lat": 39.7192558,
          "lng": 140.1042666
        },
        "keyAccentLanguage": "araya"
      },
      {
        "code": 0,
        "type": "City",
        "enNameLanguage": "Ushijima Nishi",
        "location": {
          "lat": 39.6867714,
          "lng": 140.1016147
        },
        "keyAccentLanguage": "ushijima_nishi"
      },
      {
        "code": 0,
        "type": "City",
        "enNameLanguage": "Asahigaoka",
        "location": {
          "lat": 39.2963471,
          "lng": 140.5368679
        },
        "keyAccentLanguage": "asahigaoka"
      },
      {
        "code": 0,
        "type": "City",
        "enNameLanguage": "Ochiai",
        "location": {
          "lat": 39.8099119,
          "lng": 140.1423918
        },
        "keyAccentLanguage": "ochiai"
      },
      {
        "code": 0,
        "type": "City",
        "enNameLanguage": "Hanawa",
        "location": {
          "lat": 40.2157715,
          "lng": 140.7885015
        },
        "keyAccentLanguage": "hanawa"
      },
      {
        "code": 0,
        "type": "City",
        "enNameLanguage": "Misato-cho",
        "location": {
          "lat": 39.4667498,
          "lng": 140.5825158
        },
        "keyAccentLanguage": "misato-cho"
      },
      {
        "code": 0,
        "type": "City",
        "enNameLanguage": "Terauchi",
        "location": {
          "lat": 39.7342509,
          "lng": 140.0742604
        },
        "keyAccentLanguage": "terauchi"
      },
      {
        "code": 0,
        "type": "City",
        "enNameLanguage": "Tenno",
        "location": {
          "lat": 39.9113298,
          "lng": 139.9963823
        },
        "keyAccentLanguage": "tenno"
      },
      {
        "code": 0,
        "type": "City",
        "enNameLanguage": "Yuzawa-shi",
        "location": {
          "lat": 39.7692073,
          "lng": 140.1505318
        },
        "keyAccentLanguage": "yuzawa-shi"
      },
      {
        "code": 0,
        "type": "City",
        "enNameLanguage": "Kawashiri",
        "location": {
          "lat": 39.7192558,
          "lng": 140.1042666
        },
        "keyAccentLanguage": "kawashiri"
      },
      {
        "code": 0,
        "type": "City",
        "enNameLanguage": "Kosaka-machi",
        "location": {
          "lat": 40.3330883,
          "lng": 140.7360745
        },
        "keyAccentLanguage": "kosaka-machi"
      },
      {
        "code": 0,
        "type": "City",
        "enNameLanguage": "Onoba",
        "location": {
          "lat": 39.6684666,
          "lng": 140.1310212
        },
        "keyAccentLanguage": "onoba"
      },
      {
        "code": 0,
        "type": "City",
        "enNameLanguage": "Katagami-shi",
        "location": {
          "lat": 39.8605275,
          "lng": 140.0090375
        },
        "keyAccentLanguage": "katagami-shi"
      },
      {
        "code": 0,
        "type": "City",
        "enNameLanguage": "Sanno",
        "location": {
          "lat": 39.7172337,
          "lng": 140.1032184
        },
        "keyAccentLanguage": "sanno"
      },
      {
        "code": 0,
        "type": "City",
        "enNameLanguage": "Nikaho-shi",
        "location": {
          "lat": 39.2023547,
          "lng": 139.9061504
        },
        "keyAccentLanguage": "nikaho-shi"
      },
      {
        "code": 0,
        "type": "City",
        "enNameLanguage": "Higashidori",
        "location": {
          "lat": 39.7150825,
          "lng": 140.1390415
        },
        "keyAccentLanguage": "higashidori"
      },
      {
        "code": 0,
        "type": "City",
        "enNameLanguage": "Hirasawa",
        "location": {
          "lat": 39.7487854,
          "lng": 140.2345188
        },
        "keyAccentLanguage": "hirasawa"
      },
      {
        "code": 0,
        "type": "City",
        "enNameLanguage": "Shakanai",
        "location": {
          "lat": 40.3110877,
          "lng": 140.5704831
        },
        "keyAccentLanguage": "shakanai"
      },
      {
        "code": 0,
        "type": "City",
        "enNameLanguage": "Ani Yoshida",
        "location": {
          "lat": 39.7192558,
          "lng": 140.1042666
        },
        "keyAccentLanguage": "ani_yoshida"
      },
      {
        "code": 0,
        "type": "City",
        "enNameLanguage": "Yokote-shi",
        "location": {
          "lat": 39.3138283,
          "lng": 140.5665878
        },
        "keyAccentLanguage": "yokote-shi"
      },
      {
        "code": 0,
        "type": "City",
        "enNameLanguage": "Ani Okashinai",
        "location": {
          "lat": 39.93369089999999,
          "lng": 140.4119254
        },
        "keyAccentLanguage": "ani_okashinai"
      },
      {
        "code": 0,
        "type": "City",
        "enNameLanguage": "Oga-shi",
        "location": {
          "lat": 39.8869086,
          "lng": 139.8476079
        },
        "keyAccentLanguage": "oga-shi"
      },
      {
        "code": 0,
        "type": "City",
        "enNameLanguage": "Iijima",
        "location": {
          "lat": 39.7842767,
          "lng": 140.0742499
        },
        "keyAccentLanguage": "iijima"
      },
      {
        "code": 0,
        "type": "City",
        "enNameLanguage": "Narayama",
        "location": {
          "lat": 39.6973014,
          "lng": 140.1382511
        },
        "keyAccentLanguage": "narayama"
      },
      {
        "code": 0,
        "type": "City",
        "enNameLanguage": "Yabase",
        "location": {
          "lat": 39.7259333,
          "lng": 140.0855429
        },
        "keyAccentLanguage": "yabase"
      },
      {
        "code": 0,
        "type": "City",
        "enNameLanguage": "Izumi",
        "location": {
          "lat": 39.7397238,
          "lng": 140.1212983
        },
        "keyAccentLanguage": "izumi"
      },
      {
        "code": 0,
        "type": "City",
        "enNameLanguage": "Ikawa-machi",
        "location": {
          "lat": 39.9141724,
          "lng": 140.0813114
        },
        "keyAccentLanguage": "ikawa-machi"
      },
      {
        "code": 0,
        "type": "City",
        "enNameLanguage": "Ugo-machi",
        "location": {
          "lat": 39.1996962,
          "lng": 140.4122967
        },
        "keyAccentLanguage": "ugo-machi"
      },
      {
        "code": 0,
        "type": "City",
        "enNameLanguage": "Kitaakita-shi",
        "location": {
          "lat": 40.2260484,
          "lng": 140.370846
        },
        "keyAccentLanguage": "kitaakita-shi"
      },
      {
        "code": 0,
        "type": "City",
        "enNameLanguage": "Happou-cho",
        "location": {
          "lat": 40.3187181,
          "lng": 140.0385939
        },
        "keyAccentLanguage": "happou-cho"
      },
      {
        "code": 0,
        "type": "City",
        "enNameLanguage": "Ushijima Higashi",
        "location": {
          "lat": 39.6867714,
          "lng": 140.1016147
        },
        "keyAccentLanguage": "ushijima_higashi"
      },
      {
        "code": 0,
        "type": "City",
        "enNameLanguage": "Niida",
        "location": {
          "lat": 39.6800091,
          "lng": 140.1115776
        },
        "keyAccentLanguage": "niida"
      },
      {
        "code": 0,
        "type": "City",
        "enNameLanguage": "Ishiwaki",
        "location": {
          "lat": 39.5601894,
          "lng": 140.2044078
        },
        "keyAccentLanguage": "ishiwaki"
      },
      {
        "code": 0,
        "type": "City",
        "enNameLanguage": "Tsuchizakiminato Kita",
        "location": {
          "lat": 39.4629333,
          "lng": 140.5758221
        },
        "keyAccentLanguage": "tsuchizakiminato_kita"
      },
      {
        "code": 0,
        "type": "City",
        "enNameLanguage": "Mitane-cho",
        "location": {
          "lat": 40.1015687,
          "lng": 140.0049679
        },
        "keyAccentLanguage": "mitane-cho"
      },
      {
        "code": 0,
        "type": "City",
        "enNameLanguage": "Hachirogata-machi",
        "location": {
          "lat": 39.9493588,
          "lng": 140.0733624
        },
        "keyAccentLanguage": "hachirogata-machi"
      },
      {
        "code": 0,
        "type": "City",
        "enNameLanguage": "Noshiro-shi",
        "location": {
          "lat": 40.2118632,
          "lng": 140.027125
        },
        "keyAccentLanguage": "noshiro-shi"
      },
      {
        "code": 0,
        "type": "City",
        "enNameLanguage": "Odate-shi",
        "location": {
          "lat": 40.2714146,
          "lng": 140.5641387
        },
        "keyAccentLanguage": "odate-shi"
      },
      {
        "code": 0,
        "type": "City",
        "enNameLanguage": "Aobacho",
        "location": {
          "lat": 40.2615156,
          "lng": 140.5593593
        },
        "keyAccentLanguage": "aobacho"
      },
      {
        "code": 0,
        "type": "City",
        "enNameLanguage": "Tazawako Obonai",
        "location": {
          "lat": 39.7031375,
          "lng": 140.726863
        },
        "keyAccentLanguage": "tazawako_obonai"
      },
      {
        "code": 0,
        "type": "City",
        "enNameLanguage": "Gojome-machi",
        "location": {
          "lat": 39.9438973,
          "lng": 140.1115348
        },
        "keyAccentLanguage": "gojome-machi"
      },
      {
        "code": 0,
        "type": "City",
        "enNameLanguage": "Sotoasahikawa",
        "location": {
          "lat": 39.7466027,
          "lng": 140.1060129
        },
        "keyAccentLanguage": "sotoasahikawa"
      },
      {
        "code": 0,
        "type": "City",
        "enNameLanguage": "Aikawa",
        "location": {
          "lat": 39.088,
          "lng": 140.499
        },
        "keyAccentLanguage": "aikawa"
      },
      {
        "code": 0,
        "type": "City",
        "enNameLanguage": "Ani Nakamura",
        "location": {
          "lat": 39.927,
          "lng": 140.519
        },
        "keyAccentLanguage": "ani_nakamura"
      },
      {
        "code": 0,
        "type": "City",
        "enNameLanguage": "Ani Magisawakozan",
        "location": {
          "lat": 40.007,
          "lng": 140.415
        },
        "keyAccentLanguage": "ani_magisawakozan"
      },
      {
        "code": 0,
        "type": "City",
        "enNameLanguage": "Ani Koyawatari",
        "location": {
          "lat": 39.919,
          "lng": 140.424
        },
        "keyAccentLanguage": "ani_koyawatari"
      },
      {
        "code": 0,
        "type": "City",
        "enNameLanguage": "Ani Kosawakozan",
        "location": {
          "lat": 39.991,
          "lng": 140.426
        },
        "keyAccentLanguage": "ani_kosawakozan"
      },
      {
        "code": 0,
        "type": "City",
        "enNameLanguage": "Ani Ginzan",
        "location": {
          "lat": 39.998,
          "lng": 140.407
        },
        "keyAccentLanguage": "ani_ginzan"
      },
      {
        "code": 0,
        "type": "City",
        "enNameLanguage": "Ani Kayakusa",
        "location": {
          "lat": 39.953,
          "lng": 140.428
        },
        "keyAccentLanguage": "ani_kayakusa"
      },
      {
        "code": 0,
        "type": "City",
        "enNameLanguage": "Ani Kozama",
        "location": {
          "lat": 40.006,
          "lng": 140.452
        },
        "keyAccentLanguage": "ani_kozama"
      },
      {
        "code": 0,
        "type": "City",
        "enNameLanguage": "Ani Utto",
        "location": {
          "lat": 39.932,
          "lng": 140.575
        },
        "keyAccentLanguage": "ani_utto"
      },
      {
        "code": 0,
        "type": "City",
        "enNameLanguage": "Ani Totorinai",
        "location": {
          "lat": 39.901,
          "lng": 140.512
        },
        "keyAccentLanguage": "ani_totorinai"
      },
      {
        "code": 0,
        "type": "City",
        "enNameLanguage": "Hiromote",
        "location": {
          "lat": 39.722,
          "lng": 140.147
        },
        "keyAccentLanguage": "hiromote"
      },
      {
        "code": 0,
        "type": "City",
        "enNameLanguage": "Ani Maeda",
        "location": {
          "lat": 40.068,
          "lng": 140.394
        },
        "keyAccentLanguage": "ani_maeda"
      },
      {
        "code": 0,
        "type": "City",
        "enNameLanguage": "Akatsuchi",
        "location": {
          "lat": 39.168,
          "lng": 140.506
        },
        "keyAccentLanguage": "akatsuchi"
      },
      {
        "code": 0,
        "type": "City",
        "enNameLanguage": "Aburakoji",
        "location": {
          "lat": 39.39,
          "lng": 140.047
        },
        "keyAccentLanguage": "aburakoji"
      },
      {
        "code": 0,
        "type": "City",
        "enNameLanguage": "Ani Arase",
        "location": {
          "lat": 39.975,
          "lng": 140.394
        },
        "keyAccentLanguage": "ani_arase"
      },
      {
        "code": 0,
        "type": "City",
        "enNameLanguage": "Ani Arasegawahitsuhata",
        "location": {
          "lat": 39.968,
          "lng": 140.47
        },
        "keyAccentLanguage": "ani_arasegawahitsuhata"
      },
      {
        "code": 0,
        "type": "City",
        "enNameLanguage": "Araya",
        "location": {
          "lat": 39.7192558,
          "lng": 140.1042666
        },
        "keyAccentLanguage": "araya"
      }
    ],
    "enNameLanguage": "Akita",
    "keyAccentLanguage": "akita"
  },
  {
    "code": 0,
    "type": "State",
    "location": {
      "lat": 40.8222197,
      "lng": 140.7473524
    },
    "districtList": [
      {
        "code": 0,
        "type": "City",
        "enNameLanguage": "Aburakawa",
        "location": {
          "lat": 40.8489153,
          "lng": 140.7015173
        },
        "keyAccentLanguage": "aburakawa"
      },
      {
        "code": 0,
        "type": "City",
        "enNameLanguage": "Akabonai",
        "location": {
          "lat": 40.44165,
          "lng": 141.6174668
        },
        "keyAccentLanguage": "akabonai"
      },
      {
        "code": 0,
        "type": "City",
        "enNameLanguage": "Ainai",
        "location": {
          "lat": 40.5030948,
          "lng": 140.3788583
        },
        "keyAccentLanguage": "ainai"
      },
      {
        "code": 0,
        "type": "City",
        "enNameLanguage": "Aiuchi Iwai",
        "location": {
          "lat": 41.0644463,
          "lng": 140.3523284
        },
        "keyAccentLanguage": "aiuchi_iwai"
      },
      {
        "code": 0,
        "type": "City",
        "enNameLanguage": "Aino",
        "location": {
          "lat": 40.8305977,
          "lng": 140.7123526
        },
        "keyAccentLanguage": "aino"
      },
      {
        "code": 0,
        "type": "City",
        "enNameLanguage": "Aoyagi",
        "location": {
          "lat": 40.830579,
          "lng": 140.7585819
        },
        "keyAccentLanguage": "aoyagi"
      },
      {
        "code": 0,
        "type": "City",
        "enNameLanguage": "Aburayokocho",
        "location": {
          "lat": 40.6464342,
          "lng": 140.5944214
        },
        "keyAccentLanguage": "aburayokocho"
      },
      {
        "code": 0,
        "type": "City",
        "enNameLanguage": "Hirakawa-shi",
        "location": {
          "lat": 40.5840748,
          "lng": 140.5666153
        },
        "keyAccentLanguage": "hirakawa-shi"
      },
      {
        "code": 0,
        "type": "City",
        "enNameLanguage": "Akaishimachi",
        "location": {
          "lat": 40.76667700000001,
          "lng": 140.1789757
        },
        "keyAccentLanguage": "akaishimachi"
      },
      {
        "code": 0,
        "type": "City",
        "enNameLanguage": "Ajigasawa-machi",
        "location": {
          "lat": 40.7798998,
          "lng": 140.208653
        },
        "keyAccentLanguage": "ajigasawa-machi"
      },
      {
        "code": 0,
        "type": "City",
        "enNameLanguage": "Akaishi",
        "location": {
          "lat": 40.4060098,
          "lng": 141.2983385
        },
        "keyAccentLanguage": "akaishi"
      },
      {
        "code": 0,
        "type": "City",
        "enNameLanguage": "Aoyama",
        "location": {
          "lat": 40.8222197,
          "lng": 140.7473524
        },
        "keyAccentLanguage": "aoyama"
      },
      {
        "code": 0,
        "type": "City",
        "enNameLanguage": "Amagamori",
        "location": {
          "lat": 40.860836,
          "lng": 141.3849567
        },
        "keyAccentLanguage": "amagamori"
      },
      {
        "code": 0,
        "type": "City",
        "enNameLanguage": "Akasaka",
        "location": {
          "lat": 40.8073563,
          "lng": 140.8096684
        },
        "keyAccentLanguage": "akasaka"
      },
      {
        "code": 0,
        "type": "City",
        "enNameLanguage": "Akagawacho",
        "location": {
          "lat": 41.2682334,
          "lng": 141.212362
        },
        "keyAccentLanguage": "akagawacho"
      },
      {
        "code": 0,
        "type": "City",
        "enNameLanguage": "Misawa-shi",
        "location": {
          "lat": 40.683157,
          "lng": 141.3690006
        },
        "keyAccentLanguage": "misawa-shi"
      },
      {
        "code": 0,
        "type": "City",
        "enNameLanguage": "Nakadomari-machi",
        "location": {
          "lat": 40.9604366,
          "lng": 140.4338661
        },
        "keyAccentLanguage": "nakadomari-machi"
      },
      {
        "code": 0,
        "type": "City",
        "enNameLanguage": "Samemachi",
        "location": {
          "lat": 40.53404,
          "lng": 141.5657707
        },
        "keyAccentLanguage": "samemachi"
      },
      {
        "code": 0,
        "type": "City",
        "enNameLanguage": "Noheji-machi",
        "location": {
          "lat": 40.86446129999999,
          "lng": 141.1287144
        },
        "keyAccentLanguage": "noheji-machi"
      },
      {
        "code": 0,
        "type": "City",
        "enNameLanguage": "Aonago",
        "location": {
          "lat": 40.6868458,
          "lng": 140.4487903
        },
        "keyAccentLanguage": "aonago"
      },
      {
        "code": 0,
        "type": "City",
        "enNameLanguage": "Kobata",
        "location": {
          "lat": 40.7897196,
          "lng": 140.7871178
        },
        "keyAccentLanguage": "kobata"
      },
      {
        "code": 0,
        "type": "City",
        "enNameLanguage": "Tomita",
        "location": {
          "lat": 40.8323713,
          "lng": 140.7125825
        },
        "keyAccentLanguage": "tomita"
      },
      {
        "code": 0,
        "type": "City",
        "enNameLanguage": "Ishie",
        "location": {
          "lat": 40.825774,
          "lng": 140.6932341
        },
        "keyAccentLanguage": "ishie"
      },
      {
        "code": 0,
        "type": "City",
        "enNameLanguage": "Arakawa",
        "location": {
          "lat": 40.6660142,
          "lng": 140.8410277
        },
        "keyAccentLanguage": "arakawa"
      },
      {
        "code": 0,
        "type": "City",
        "enNameLanguage": "Koyanagi",
        "location": {
          "lat": 40.8175269,
          "lng": 140.8004487
        },
        "keyAccentLanguage": "koyanagi"
      },
      {
        "code": 0,
        "type": "City",
        "enNameLanguage": "Aomori-shi",
        "location": {
          "lat": 40.8222197,
          "lng": 140.7473524
        },
        "keyAccentLanguage": "aomori-shi"
      },
      {
        "code": 0,
        "type": "City",
        "enNameLanguage": "Hajiro",
        "location": {
          "lat": 40.8506715,
          "lng": 140.6753135
        },
        "keyAccentLanguage": "hajiro"
      },
      {
        "code": 0,
        "type": "City",
        "enNameLanguage": "Akanecho",
        "location": {
          "lat": 40.5992594,
          "lng": 140.447148
        },
        "keyAccentLanguage": "akanecho"
      },
      {
        "code": 0,
        "type": "City",
        "enNameLanguage": "Hamada",
        "location": {
          "lat": 40.8001369,
          "lng": 140.7611964
        },
        "keyAccentLanguage": "hamada"
      },
      {
        "code": 0,
        "type": "City",
        "enNameLanguage": "Owani-machi",
        "location": {
          "lat": 40.517942,
          "lng": 140.5686345
        },
        "keyAccentLanguage": "owani-machi"
      },
      {
        "code": 0,
        "type": "City",
        "enNameLanguage": "Fujisaki-machi",
        "location": {
          "lat": 40.6540373,
          "lng": 140.5068554
        },
        "keyAccentLanguage": "fujisaki-machi"
      },
      {
        "code": 0,
        "type": "City",
        "enNameLanguage": "Komagome",
        "location": {
          "lat": 40.7986028,
          "lng": 140.7930379
        },
        "keyAccentLanguage": "komagome"
      },
      {
        "code": 0,
        "type": "City",
        "enNameLanguage": "Akada",
        "location": {
          "lat": 40.7134866,
          "lng": 140.4626339
        },
        "keyAccentLanguage": "akada"
      },
      {
        "code": 0,
        "type": "City",
        "enNameLanguage": "Hachinohe-shi",
        "location": {
          "lat": 40.5122055,
          "lng": 141.4882743
        },
        "keyAccentLanguage": "hachinohe-shi"
      },
      {
        "code": 0,
        "type": "City",
        "enNameLanguage": "Kuroishi-shi",
        "location": {
          "lat": 40.6426266,
          "lng": 140.5946719
        },
        "keyAccentLanguage": "kuroishi-shi"
      },
      {
        "code": 0,
        "type": "City",
        "enNameLanguage": "Hiranai-machi",
        "location": {
          "lat": 40.9260794,
          "lng": 140.9558994
        },
        "keyAccentLanguage": "hiranai-machi"
      },
      {
        "code": 0,
        "type": "City",
        "enNameLanguage": "Inakadate-mura",
        "location": {
          "lat": 40.6315566,
          "lng": 140.5468958
        },
        "keyAccentLanguage": "inakadate-mura"
      },
      {
        "code": 0,
        "type": "City",
        "enNameLanguage": "Kanagicho",
        "location": {
          "lat": 40.9030608,
          "lng": 140.4385944
        },
        "keyAccentLanguage": "kanagicho"
      },
      {
        "code": 0,
        "type": "City",
        "enNameLanguage": "Akebonocho",
        "location": {
          "lat": 40.6568169,
          "lng": 140.6082428
        },
        "keyAccentLanguage": "akebonocho"
      },
      {
        "code": 0,
        "type": "City",
        "enNameLanguage": "Hirosaki-shi",
        "location": {
          "lat": 40.6030626,
          "lng": 140.4640543
        },
        "keyAccentLanguage": "hirosaki-shi"
      },
      {
        "code": 0,
        "type": "City",
        "enNameLanguage": "Aokicho",
        "location": {
          "lat": 40.5801865,
          "lng": 140.4388743
        },
        "keyAccentLanguage": "aokicho"
      },
      {
        "code": 0,
        "type": "City",
        "enNameLanguage": "Hashikami-cho",
        "location": {
          "lat": 40.4524042,
          "lng": 141.6210049
        },
        "keyAccentLanguage": "hashikami-cho"
      },
      {
        "code": 0,
        "type": "City",
        "enNameLanguage": "Amidagawa",
        "location": {
          "lat": 40.9732772,
          "lng": 140.6169435
        },
        "keyAccentLanguage": "amidagawa"
      },
      {
        "code": 0,
        "type": "City",
        "enNameLanguage": "Itayanagi-machi",
        "location": {
          "lat": 40.6959871,
          "lng": 140.4575435
        },
        "keyAccentLanguage": "itayanagi-machi"
      },
      {
        "code": 0,
        "type": "City",
        "enNameLanguage": "Higashidori-mura",
        "location": {
          "lat": 41.2774076,
          "lng": 141.3305953
        },
        "keyAccentLanguage": "higashidori-mura"
      },
      {
        "code": 0,
        "type": "City",
        "enNameLanguage": "Gonohe-machi",
        "location": {
          "lat": 40.5121977,
          "lng": 141.3313098
        },
        "keyAccentLanguage": "gonohe-machi"
      },
      {
        "code": 0,
        "type": "City",
        "enNameLanguage": "Fukiage",
        "location": {
          "lat": 40.5004907,
          "lng": 141.4979402
        },
        "keyAccentLanguage": "fukiage"
      },
      {
        "code": 0,
        "type": "City",
        "enNameLanguage": "Aza Takamori-yama",
        "location": {
          "lat": 40.7865271,
          "lng": 140.6455086
        },
        "keyAccentLanguage": "aza_takamori-yama"
      },
      {
        "code": 0,
        "type": "City",
        "enNameLanguage": "Akanuma",
        "location": {
          "lat": 40.5997779,
          "lng": 141.1843031
        },
        "keyAccentLanguage": "akanuma"
      },
      {
        "code": 0,
        "type": "City",
        "enNameLanguage": "Kawaragi",
        "location": {
          "lat": 40.5416315,
          "lng": 141.4652971
        },
        "keyAccentLanguage": "kawaragi"
      },
      {
        "code": 0,
        "type": "City",
        "enNameLanguage": "Ichikawamachi",
        "location": {
          "lat": 40.5743539,
          "lng": 141.4406907
        },
        "keyAccentLanguage": "ichikawamachi"
      },
      {
        "code": 0,
        "type": "City",
        "enNameLanguage": "Minatotakadai",
        "location": {
          "lat": 40.5061429,
          "lng": 141.543325
        },
        "keyAccentLanguage": "minatotakadai"
      },
      {
        "code": 0,
        "type": "City",
        "enNameLanguage": "Okubo",
        "location": {
          "lat": 40.8222197,
          "lng": 140.7473524
        },
        "keyAccentLanguage": "okubo"
      },
      {
        "code": 0,
        "type": "City",
        "enNameLanguage": "Aoba",
        "location": {
          "lat": 40.803543,
          "lng": 140.7497619
        },
        "keyAccentLanguage": "aoba"
      },
      {
        "code": 0,
        "type": "City",
        "enNameLanguage": "Mutsu-shi",
        "location": {
          "lat": 41.2927986,
          "lng": 141.1834683
        },
        "keyAccentLanguage": "mutsu-shi"
      },
      {
        "code": 0,
        "type": "City",
        "enNameLanguage": "Dobutsu",
        "location": {
          "lat": 40.4503452,
          "lng": 141.639711
        },
        "keyAccentLanguage": "dobutsu"
      },
      {
        "code": 0,
        "type": "City",
        "enNameLanguage": "Oma-machi",
        "location": {
          "lat": 41.5267934,
          "lng": 140.9074974
        },
        "keyAccentLanguage": "oma-machi"
      },
      {
        "code": 0,
        "type": "City",
        "enNameLanguage": "Rokunohe-machi",
        "location": {
          "lat": 40.6095745,
          "lng": 141.3247266
        },
        "keyAccentLanguage": "rokunohe-machi"
      },
      {
        "code": 0,
        "type": "City",
        "enNameLanguage": "Sambongi",
        "location": {
          "lat": 40.834689,
          "lng": 140.8341985
        },
        "keyAccentLanguage": "sambongi"
      },
      {
        "code": 0,
        "type": "City",
        "enNameLanguage": "Akudo",
        "location": {
          "lat": 40.8222197,
          "lng": 140.7473524
        },
        "keyAccentLanguage": "akudo"
      },
      {
        "code": 0,
        "type": "City",
        "enNameLanguage": "Oirase-cho",
        "location": {
          "lat": 40.5993178,
          "lng": 141.3976282
        },
        "keyAccentLanguage": "oirase-cho"
      },
      {
        "code": 0,
        "type": "City",
        "enNameLanguage": "Nanbu-cho",
        "location": {
          "lat": 40.8222197,
          "lng": 140.7473524
        },
        "keyAccentLanguage": "nanbu-cho"
      },
      {
        "code": 0,
        "type": "City",
        "enNameLanguage": "Kizukuri",
        "location": {
          "lat": 40.7657077,
          "lng": 140.9175879
        },
        "keyAccentLanguage": "kizukuri"
      },
      {
        "code": 0,
        "type": "City",
        "enNameLanguage": "Inuotose",
        "location": {
          "lat": 40.6420403,
          "lng": 141.3217167
        },
        "keyAccentLanguage": "inuotose"
      },
      {
        "code": 0,
        "type": "City",
        "enNameLanguage": "Nejo",
        "location": {
          "lat": 40.5048581,
          "lng": 141.4750004
        },
        "keyAccentLanguage": "nejo"
      },
      {
        "code": 0,
        "type": "City",
        "enNameLanguage": "Sotogahama-machi",
        "location": {
          "lat": 41.0425878,
          "lng": 140.6320133
        },
        "keyAccentLanguage": "sotogahama-machi"
      },
      {
        "code": 0,
        "type": "City",
        "enNameLanguage": "Goshogawara-shi",
        "location": {
          "lat": 40.8076933,
          "lng": 140.4461156
        },
        "keyAccentLanguage": "goshogawara-shi"
      },
      {
        "code": 0,
        "type": "City",
        "enNameLanguage": "Okuno",
        "location": {
          "lat": 40.8083152,
          "lng": 140.7569871
        },
        "keyAccentLanguage": "okuno"
      },
      {
        "code": 0,
        "type": "City",
        "enNameLanguage": "Namioka Ooaza Namioka",
        "location": {
          "lat": 40.7166882,
          "lng": 140.5948018
        },
        "keyAccentLanguage": "namioka_ooaza_namioka"
      },
      {
        "code": 0,
        "type": "City",
        "enNameLanguage": "Koyo",
        "location": {
          "lat": 40.5283161,
          "lng": 141.5099186
        },
        "keyAccentLanguage": "koyo"
      },
      {
        "code": 0,
        "type": "City",
        "enNameLanguage": "Shiroganemachi",
        "location": {
          "lat": 40.51943869999999,
          "lng": 141.5411505
        },
        "keyAccentLanguage": "shiroganemachi"
      },
      {
        "code": 0,
        "type": "City",
        "enNameLanguage": "Kanazawa",
        "location": {
          "lat": 40.8077434,
          "lng": 140.7265471
        },
        "keyAccentLanguage": "kanazawa"
      },
      {
        "code": 0,
        "type": "City",
        "enNameLanguage": "Namidatemaeda",
        "location": {
          "lat": 40.8134013,
          "lng": 140.7206819
        },
        "keyAccentLanguage": "namidatemaeda"
      },
      {
        "code": 0,
        "type": "City",
        "enNameLanguage": "Konakano",
        "location": {
          "lat": 40.5187323,
          "lng": 141.5101391
        },
        "keyAccentLanguage": "konakano"
      },
      {
        "code": 0,
        "type": "City",
        "enNameLanguage": "Fukaura-machi",
        "location": {
          "lat": 40.6478459,
          "lng": 139.9276062
        },
        "keyAccentLanguage": "fukaura-machi"
      },
      {
        "code": 0,
        "type": "City",
        "enNameLanguage": "Ono",
        "location": {
          "lat": 40.8045169,
          "lng": 140.7353679
        },
        "keyAccentLanguage": "ono"
      },
      {
        "code": 0,
        "type": "City",
        "enNameLanguage": "Ohatamachi",
        "location": {
          "lat": 41.3931668,
          "lng": 141.0454605
        },
        "keyAccentLanguage": "ohatamachi"
      },
      {
        "code": 0,
        "type": "City",
        "enNameLanguage": "Minatomachi",
        "location": {
          "lat": 40.8325662,
          "lng": 140.7680888
        },
        "keyAccentLanguage": "minatomachi"
      },
      {
        "code": 0,
        "type": "City",
        "enNameLanguage": "Tohoku-machi",
        "location": {
          "lat": 40.728933,
          "lng": 141.2571473
        },
        "keyAccentLanguage": "tohoku-machi"
      },
      {
        "code": 0,
        "type": "City",
        "enNameLanguage": "Tsutsui",
        "location": {
          "lat": 40.7994258,
          "lng": 140.7716628
        },
        "keyAccentLanguage": "tsutsui"
      },
      {
        "code": 0,
        "type": "City",
        "enNameLanguage": "Sannai",
        "location": {
          "lat": 40.8207662,
          "lng": 140.7087894
        },
        "keyAccentLanguage": "sannai"
      },
      {
        "code": 0,
        "type": "City",
        "enNameLanguage": "Rokkasho-mura",
        "location": {
          "lat": 40.9673406,
          "lng": 141.3744879
        },
        "keyAccentLanguage": "rokkasho-mura"
      },
      {
        "code": 0,
        "type": "City",
        "enNameLanguage": "Takko-machi",
        "location": {
          "lat": 40.3399922,
          "lng": 141.1522493
        },
        "keyAccentLanguage": "takko-machi"
      },
      {
        "code": 0,
        "type": "City",
        "enNameLanguage": "Tsuruta",
        "location": {
          "lat": 40.7581631,
          "lng": 140.4300998
        },
        "keyAccentLanguage": "tsuruta"
      },
      {
        "code": 0,
        "type": "City",
        "enNameLanguage": "Sannohe-machi",
        "location": {
          "lat": 40.3784424,
          "lng": 141.2586936
        },
        "keyAccentLanguage": "sannohe-machi"
      },
      {
        "code": 0,
        "type": "City",
        "enNameLanguage": "Tsugaru-shi",
        "location": {
          "lat": 40.808222,
          "lng": 140.3805004
        },
        "keyAccentLanguage": "tsugaru-shi"
      },
      {
        "code": 0,
        "type": "City",
        "enNameLanguage": "Tamonoki",
        "location": {
          "lat": 40.4910968,
          "lng": 141.4513839
        },
        "keyAccentLanguage": "tamonoki"
      },
      {
        "code": 0,
        "type": "City",
        "enNameLanguage": "Tsuruta-machi",
        "location": {
          "lat": 40.7581631,
          "lng": 140.4300998
        },
        "keyAccentLanguage": "tsuruta-machi"
      },
      {
        "code": 0,
        "type": "City",
        "enNameLanguage": "Shiriuchimachi",
        "location": {
          "lat": 40.5155627,
          "lng": 141.4296252
        },
        "keyAccentLanguage": "shiriuchimachi"
      },
      {
        "code": 0,
        "type": "City",
        "enNameLanguage": "Shinjo",
        "location": {
          "lat": 40.8278164,
          "lng": 140.6734331
        },
        "keyAccentLanguage": "shinjo"
      },
      {
        "code": 0,
        "type": "City",
        "enNameLanguage": "Shichinohe-machi",
        "location": {
          "lat": 40.6981033,
          "lng": 141.1547034
        },
        "keyAccentLanguage": "shichinohe-machi"
      },
      {
        "code": 0,
        "type": "City",
        "enNameLanguage": "Towada-shi",
        "location": {
          "lat": 40.6126011,
          "lng": 141.2069318
        },
        "keyAccentLanguage": "towada-shi"
      },
      {
        "code": 0,
        "type": "City",
        "enNameLanguage": "Niida",
        "location": {
          "lat": 40.49494960000001,
          "lng": 141.5252668
        },
        "keyAccentLanguage": "niida"
      },
      {
        "code": 0,
        "type": "City",
        "enNameLanguage": "Sumiyoshi",
        "location": {
          "lat": 40.8285715,
          "lng": 140.8837922
        },
        "keyAccentLanguage": "sumiyoshi"
      },
      {
        "code": 0,
        "type": "City",
        "enNameLanguage": "Shimonaga",
        "location": {
          "lat": 40.5360685,
          "lng": 141.4769748
        },
        "keyAccentLanguage": "shimonaga"
      },
      {
        "code": 0,
        "type": "City",
        "enNameLanguage": "Sakuragawa",
        "location": {
          "lat": 40.8113386,
          "lng": 140.7705861
        },
        "keyAccentLanguage": "sakuragawa"
      },
      {
        "code": 0,
        "type": "City",
        "enNameLanguage": "Ainai",
        "location": {
          "lat": 40.5030948,
          "lng": 140.3788583
        },
        "keyAccentLanguage": "ainai"
      },
      {
        "code": 0,
        "type": "City",
        "enNameLanguage": "Akasaka",
        "location": {
          "lat": 40.8073563,
          "lng": 140.8096684
        },
        "keyAccentLanguage": "akasaka"
      },
      {
        "code": 0,
        "type": "City",
        "enNameLanguage": "Aoyama",
        "location": {
          "lat": 40.8222197,
          "lng": 140.7473524
        },
        "keyAccentLanguage": "aoyama"
      },
      {
        "code": 0,
        "type": "City",
        "enNameLanguage": "Aoba",
        "location": {
          "lat": 40.803543,
          "lng": 140.7497619
        },
        "keyAccentLanguage": "aoba"
      }
    ],
    "enNameLanguage": "Aomori",
    "keyAccentLanguage": "aomori"
  },
  {
    "code": 0,
    "type": "State",
    "location": {
      "lat": 35.6050574,
      "lng": 140.1233063
    },
    "districtList": [
      {
        "code": 0,
        "type": "City",
        "enNameLanguage": "Ainokawa",
        "location": {
          "lat": 35.67975759999999,
          "lng": 139.8969749
        },
        "keyAccentLanguage": "ainokawa"
      },
      {
        "code": 0,
        "type": "City",
        "enNameLanguage": "Hasamacho",
        "location": {
          "lat": 35.7125501,
          "lng": 140.011066
        },
        "keyAccentLanguage": "hasamacho"
      },
      {
        "code": 0,
        "type": "City",
        "enNameLanguage": "Ichihara-shi",
        "location": {
          "lat": 35.4978821,
          "lng": 140.1148672
        },
        "keyAccentLanguage": "ichihara-shi"
      },
      {
        "code": 0,
        "type": "City",
        "enNameLanguage": "Fujimi",
        "location": {
          "lat": 35.6105883,
          "lng": 140.1183033
        },
        "keyAccentLanguage": "fujimi"
      },
      {
        "code": 0,
        "type": "City",
        "enNameLanguage": "Goi",
        "location": {
          "lat": 35.6074041,
          "lng": 140.1065366
        },
        "keyAccentLanguage": "goi"
      },
      {
        "code": 0,
        "type": "City",
        "enNameLanguage": "Asahi-shi",
        "location": {
          "lat": 35.720454,
          "lng": 140.6466177
        },
        "keyAccentLanguage": "asahi-shi"
      },
      {
        "code": 0,
        "type": "City",
        "enNameLanguage": "Chosei-mura",
        "location": {
          "lat": 35.4035488,
          "lng": 140.345326
        },
        "keyAccentLanguage": "chosei-mura"
      },
      {
        "code": 0,
        "type": "City",
        "enNameLanguage": "Funabashi-shi",
        "location": {
          "lat": 35.6945485,
          "lng": 139.9827277
        },
        "keyAccentLanguage": "funabashi-shi"
      },
      {
        "code": 0,
        "type": "City",
        "enNameLanguage": "Chuo-ku",
        "location": {
          "lat": 35.593735,
          "lng": 140.1349278
        },
        "keyAccentLanguage": "chuo-ku"
      },
      {
        "code": 0,
        "type": "City",
        "enNameLanguage": "Hamacho",
        "location": {
          "lat": 35.6074041,
          "lng": 140.1065366
        },
        "keyAccentLanguage": "hamacho"
      },
      {
        "code": 0,
        "type": "City",
        "enNameLanguage": "Higashifukai",
        "location": {
          "lat": 35.9104775,
          "lng": 139.9085024
        },
        "keyAccentLanguage": "higashifukai"
      },
      {
        "code": 0,
        "type": "City",
        "enNameLanguage": "Asumigaoka",
        "location": {
          "lat": 35.5216768,
          "lng": 140.2690061
        },
        "keyAccentLanguage": "asumigaoka"
      },
      {
        "code": 0,
        "type": "City",
        "enNameLanguage": "Goko",
        "location": {
          "lat": 35.795435,
          "lng": 139.9738665
        },
        "keyAccentLanguage": "goko"
      },
      {
        "code": 0,
        "type": "City",
        "enNameLanguage": "Chiba-shi",
        "location": {
          "lat": 35.6074041,
          "lng": 140.1065366
        },
        "keyAccentLanguage": "chiba-shi"
      },
      {
        "code": 0,
        "type": "City",
        "enNameLanguage": "Fujiwara",
        "location": {
          "lat": 35.6074041,
          "lng": 140.1065366
        },
        "keyAccentLanguage": "fujiwara"
      },
      {
        "code": 0,
        "type": "City",
        "enNameLanguage": "Hondacho",
        "location": {
          "lat": 35.550689,
          "lng": 140.1992174
        },
        "keyAccentLanguage": "hondacho"
      },
      {
        "code": 0,
        "type": "City",
        "enNameLanguage": "Shimmatsudo",
        "location": {
          "lat": 35.8259958,
          "lng": 139.9123454
        },
        "keyAccentLanguage": "shimmatsudo"
      },
      {
        "code": 0,
        "type": "City",
        "enNameLanguage": "Kamogawa-shi",
        "location": {
          "lat": 35.1133206,
          "lng": 140.0990322
        },
        "keyAccentLanguage": "kamogawa-shi"
      },
      {
        "code": 0,
        "type": "City",
        "enNameLanguage": "Oamishirasato-shi",
        "location": {
          "lat": 35.5217735,
          "lng": 140.3209903
        },
        "keyAccentLanguage": "oamishirasato-shi"
      },
      {
        "code": 0,
        "type": "City",
        "enNameLanguage": "Kitazakae",
        "location": {
          "lat": 35.66468820000001,
          "lng": 139.8995364
        },
        "keyAccentLanguage": "kitazakae"
      },
      {
        "code": 0,
        "type": "City",
        "enNameLanguage": "Maebara Nishi",
        "location": {
          "lat": 35.6970922,
          "lng": 140.0194008
        },
        "keyAccentLanguage": "maebara_nishi"
      },
      {
        "code": 0,
        "type": "City",
        "enNameLanguage": "Horie",
        "location": {
          "lat": 35.6074041,
          "lng": 140.1065366
        },
        "keyAccentLanguage": "horie"
      },
      {
        "code": 0,
        "type": "City",
        "enNameLanguage": "Narita-shi",
        "location": {
          "lat": 35.7766588,
          "lng": 140.3187418
        },
        "keyAccentLanguage": "narita-shi"
      },
      {
        "code": 0,
        "type": "City",
        "enNameLanguage": "Katsuura-shi",
        "location": {
          "lat": 35.1522272,
          "lng": 140.3208833
        },
        "keyAccentLanguage": "katsuura-shi"
      },
      {
        "code": 0,
        "type": "City",
        "enNameLanguage": "Masago",
        "location": {
          "lat": 35.6408724,
          "lng": 140.0624134
        },
        "keyAccentLanguage": "masago"
      },
      {
        "code": 0,
        "type": "City",
        "enNameLanguage": "Kogasaki",
        "location": {
          "lat": 35.8008581,
          "lng": 139.8982557
        },
        "keyAccentLanguage": "kogasaki"
      },
      {
        "code": 0,
        "type": "City",
        "enNameLanguage": "Sakura-shi",
        "location": {
          "lat": 35.7235977,
          "lng": 140.2239389
        },
        "keyAccentLanguage": "sakura-shi"
      },
      {
        "code": 0,
        "type": "City",
        "enNameLanguage": "Kohokudai",
        "location": {
          "lat": 35.8641107,
          "lng": 140.0714037
        },
        "keyAccentLanguage": "kohokudai"
      },
      {
        "code": 0,
        "type": "City",
        "enNameLanguage": "Yotsukaido-shi",
        "location": {
          "lat": 35.6697744,
          "lng": 140.167948
        },
        "keyAccentLanguage": "yotsukaido-shi"
      },
      {
        "code": 0,
        "type": "City",
        "enNameLanguage": "Dainichi",
        "location": {
          "lat": 35.677958,
          "lng": 140.1615526
        },
        "keyAccentLanguage": "dainichi"
      },
      {
        "code": 0,
        "type": "City",
        "enNameLanguage": "Fujisaki",
        "location": {
          "lat": 35.6905392,
          "lng": 140.0367343
        },
        "keyAccentLanguage": "fujisaki"
      },
      {
        "code": 0,
        "type": "City",
        "enNameLanguage": "Anesaki",
        "location": {
          "lat": 35.4758348,
          "lng": 140.0482204
        },
        "keyAccentLanguage": "anesaki"
      },
      {
        "code": 0,
        "type": "City",
        "enNameLanguage": "Fukuei",
        "location": {
          "lat": 35.6074041,
          "lng": 140.1065366
        },
        "keyAccentLanguage": "fukuei"
      },
      {
        "code": 0,
        "type": "City",
        "enNameLanguage": "Higashinarashino",
        "location": {
          "lat": 35.7002043,
          "lng": 140.0726882
        },
        "keyAccentLanguage": "higashinarashino"
      },
      {
        "code": 0,
        "type": "City",
        "enNameLanguage": "Higashifunabashi",
        "location": {
          "lat": 35.6973485,
          "lng": 140.0046507
        },
        "keyAccentLanguage": "higashifunabashi"
      },
      {
        "code": 0,
        "type": "City",
        "enNameLanguage": "Higashihatsuishi",
        "location": {
          "lat": 35.88286,
          "lng": 139.9225945
        },
        "keyAccentLanguage": "higashihatsuishi"
      },
      {
        "code": 0,
        "type": "City",
        "enNameLanguage": "Irifune",
        "location": {
          "lat": 35.6074041,
          "lng": 140.1065366
        },
        "keyAccentLanguage": "irifune"
      },
      {
        "code": 0,
        "type": "City",
        "enNameLanguage": "Kamagaya",
        "location": {
          "lat": 35.7768605,
          "lng": 140.0007716
        },
        "keyAccentLanguage": "kamagaya"
      },
      {
        "code": 0,
        "type": "City",
        "enNameLanguage": "Nagareyama-shi",
        "location": {
          "lat": 35.8563392,
          "lng": 139.9029533
        },
        "keyAccentLanguage": "nagareyama-shi"
      },
      {
        "code": 0,
        "type": "City",
        "enNameLanguage": "Matsudo-shi",
        "location": {
          "lat": 35.7876663,
          "lng": 139.9033248
        },
        "keyAccentLanguage": "matsudo-shi"
      },
      {
        "code": 0,
        "type": "City",
        "enNameLanguage": "Kamiyamacho",
        "location": {
          "lat": 35.7321135,
          "lng": 139.9764312
        },
        "keyAccentLanguage": "kamiyamacho"
      },
      {
        "code": 0,
        "type": "City",
        "enNameLanguage": "Noda-shi",
        "location": {
          "lat": 35.9551753,
          "lng": 139.8741905
        },
        "keyAccentLanguage": "noda-shi"
      },
      {
        "code": 0,
        "type": "City",
        "enNameLanguage": "Ino",
        "location": {
          "lat": 35.6074041,
          "lng": 140.1065366
        },
        "keyAccentLanguage": "ino"
      },
      {
        "code": 0,
        "type": "City",
        "enNameLanguage": "Hinode",
        "location": {
          "lat": 35.6140984,
          "lng": 140.1229556
        },
        "keyAccentLanguage": "hinode"
      },
      {
        "code": 0,
        "type": "City",
        "enNameLanguage": "Gyotokuekimae",
        "location": {
          "lat": 35.6810358,
          "lng": 139.9174697
        },
        "keyAccentLanguage": "gyotokuekimae"
      },
      {
        "code": 0,
        "type": "City",
        "enNameLanguage": "Inage-ku",
        "location": {
          "lat": 35.6486955,
          "lng": 140.1112339
        },
        "keyAccentLanguage": "inage-ku"
      },
      {
        "code": 0,
        "type": "City",
        "enNameLanguage": "Kamagaya-shi",
        "location": {
          "lat": 35.7768605,
          "lng": 140.0007716
        },
        "keyAccentLanguage": "kamagaya-shi"
      },
      {
        "code": 0,
        "type": "City",
        "enNameLanguage": "Abiko-shi",
        "location": {
          "lat": 35.8641008,
          "lng": 140.0282205
        },
        "keyAccentLanguage": "abiko-shi"
      },
      {
        "code": 0,
        "type": "City",
        "enNameLanguage": "Kimitsu-shi",
        "location": {
          "lat": 35.3304451,
          "lng": 139.9024787
        },
        "keyAccentLanguage": "kimitsu-shi"
      },
      {
        "code": 0,
        "type": "City",
        "enNameLanguage": "Kisarazu-shi",
        "location": {
          "lat": 35.3812515,
          "lng": 139.9248871
        },
        "keyAccentLanguage": "kisarazu-shi"
      },
      {
        "code": 0,
        "type": "City",
        "enNameLanguage": "Minamiboso-shi",
        "location": {
          "lat": 35.042651,
          "lng": 139.839879
        },
        "keyAccentLanguage": "minamiboso-shi"
      },
      {
        "code": 0,
        "type": "City",
        "enNameLanguage": "Choshi-shi",
        "location": {
          "lat": 35.7340035,
          "lng": 140.8267464
        },
        "keyAccentLanguage": "choshi-shi"
      },
      {
        "code": 0,
        "type": "City",
        "enNameLanguage": "Narashinodai",
        "location": {
          "lat": 35.7195652,
          "lng": 140.0526479
        },
        "keyAccentLanguage": "narashinodai"
      },
      {
        "code": 0,
        "type": "City",
        "enNameLanguage": "Honcho",
        "location": {
          "lat": 35.6095368,
          "lng": 140.1273019
        },
        "keyAccentLanguage": "honcho"
      },
      {
        "code": 0,
        "type": "City",
        "enNameLanguage": "Isumi-shi",
        "location": {
          "lat": 35.2539324,
          "lng": 140.3850494
        },
        "keyAccentLanguage": "isumi-shi"
      },
      {
        "code": 0,
        "type": "City",
        "enNameLanguage": "Takasu",
        "location": {
          "lat": 35.6268931,
          "lng": 140.0765416
        },
        "keyAccentLanguage": "takasu"
      },
      {
        "code": 0,
        "type": "City",
        "enNameLanguage": "Maebara Higashi",
        "location": {
          "lat": 35.0996147,
          "lng": 140.1048079
        },
        "keyAccentLanguage": "maebara_higashi"
      },
      {
        "code": 0,
        "type": "City",
        "enNameLanguage": "Isobe",
        "location": {
          "lat": 35.6279618,
          "lng": 140.0496845
        },
        "keyAccentLanguage": "isobe"
      },
      {
        "code": 0,
        "type": "City",
        "enNameLanguage": "Midori-ku",
        "location": {
          "lat": 35.5472841,
          "lng": 140.1968801
        },
        "keyAccentLanguage": "midori-ku"
      },
      {
        "code": 0,
        "type": "City",
        "enNameLanguage": "Katsutadai",
        "location": {
          "lat": 35.7094375,
          "lng": 140.1279447
        },
        "keyAccentLanguage": "katsutadai"
      },
      {
        "code": 0,
        "type": "City",
        "enNameLanguage": "Narashino-shi",
        "location": {
          "lat": 35.6816407,
          "lng": 140.0271941
        },
        "keyAccentLanguage": "narashino-shi"
      },
      {
        "code": 0,
        "type": "City",
        "enNameLanguage": "Hanamigawa",
        "location": {
          "lat": 35.6542941,
          "lng": 140.0613501
        },
        "keyAccentLanguage": "hanamigawa"
      },
      {
        "code": 0,
        "type": "City",
        "enNameLanguage": "Hananoi",
        "location": {
          "lat": 35.6074041,
          "lng": 140.1065366
        },
        "keyAccentLanguage": "hananoi"
      },
      {
        "code": 0,
        "type": "City",
        "enNameLanguage": "Sodegaura-shi",
        "location": {
          "lat": 35.4302593,
          "lng": 139.9586523
        },
        "keyAccentLanguage": "sodegaura-shi"
      },
      {
        "code": 0,
        "type": "City",
        "enNameLanguage": "Konakadai",
        "location": {
          "lat": 35.6409291,
          "lng": 140.0945277
        },
        "keyAccentLanguage": "konakadai"
      },
      {
        "code": 0,
        "type": "City",
        "enNameLanguage": "Mihama-ku",
        "location": {
          "lat": 35.6332873,
          "lng": 140.0647584
        },
        "keyAccentLanguage": "mihama-ku"
      },
      {
        "code": 0,
        "type": "City",
        "enNameLanguage": "Kashiwa-shi",
        "location": {
          "lat": 35.8675958,
          "lng": 139.9757575
        },
        "keyAccentLanguage": "kashiwa-shi"
      },
      {
        "code": 0,
        "type": "City",
        "enNameLanguage": "Katori-shi",
        "location": {
          "lat": 35.8977688,
          "lng": 140.4993404
        },
        "keyAccentLanguage": "katori-shi"
      },
      {
        "code": 0,
        "type": "City",
        "enNameLanguage": "Makuharihongo",
        "location": {
          "lat": 35.6716003,
          "lng": 140.0470046
        },
        "keyAccentLanguage": "makuharihongo"
      },
      {
        "code": 0,
        "type": "City",
        "enNameLanguage": "Kamishizu",
        "location": {
          "lat": 35.71656189999999,
          "lng": 140.1459461
        },
        "keyAccentLanguage": "kamishizu"
      },
      {
        "code": 0,
        "type": "City",
        "enNameLanguage": "Kashiwa",
        "location": {
          "lat": 35.8675958,
          "lng": 139.9757575
        },
        "keyAccentLanguage": "kashiwa"
      },
      {
        "code": 0,
        "type": "City",
        "enNameLanguage": "Koganehara",
        "location": {
          "lat": 35.8192735,
          "lng": 139.9443797
        },
        "keyAccentLanguage": "koganehara"
      },
      {
        "code": 0,
        "type": "City",
        "enNameLanguage": "Kimagase",
        "location": {
          "lat": 36.0240731,
          "lng": 139.8328961
        },
        "keyAccentLanguage": "kimagase"
      },
      {
        "code": 0,
        "type": "City",
        "enNameLanguage": "Sammu-shi",
        "location": {
          "lat": 35.6030314,
          "lng": 140.4135919
        },
        "keyAccentLanguage": "sammu-shi"
      },
      {
        "code": 0,
        "type": "City",
        "enNameLanguage": "Togane-shi",
        "location": {
          "lat": 35.5597298,
          "lng": 140.3653199
        },
        "keyAccentLanguage": "togane-shi"
      },
      {
        "code": 0,
        "type": "City",
        "enNameLanguage": "Hanamigawa-ku",
        "location": {
          "lat": 35.6542941,
          "lng": 140.0613501
        },
        "keyAccentLanguage": "hanamigawa-ku"
      },
      {
        "code": 0,
        "type": "City",
        "enNameLanguage": "Sosa-shi",
        "location": {
          "lat": 35.7079052,
          "lng": 140.5643284
        },
        "keyAccentLanguage": "sosa-shi"
      },
      {
        "code": 0,
        "type": "City",
        "enNameLanguage": "Kamihongo",
        "location": {
          "lat": 35.7952697,
          "lng": 139.9187509
        },
        "keyAccentLanguage": "kamihongo"
      },
      {
        "code": 0,
        "type": "City",
        "enNameLanguage": "Matsubacho",
        "location": {
          "lat": 35.6074041,
          "lng": 140.1065366
        },
        "keyAccentLanguage": "matsubacho"
      },
      {
        "code": 0,
        "type": "City",
        "enNameLanguage": "Mobara-shi",
        "location": {
          "lat": 35.4285509,
          "lng": 140.2881398
        },
        "keyAccentLanguage": "mobara-shi"
      },
      {
        "code": 0,
        "type": "City",
        "enNameLanguage": "Tateyama-shi",
        "location": {
          "lat": 34.9965461,
          "lng": 139.870044
        },
        "keyAccentLanguage": "tateyama-shi"
      },
      {
        "code": 0,
        "type": "City",
        "enNameLanguage": "Futtsu-shi",
        "location": {
          "lat": 35.3040598,
          "lng": 139.8571263
        },
        "keyAccentLanguage": "futtsu-shi"
      },
      {
        "code": 0,
        "type": "City",
        "enNameLanguage": "Yachimata-shi",
        "location": {
          "lat": 35.6659061,
          "lng": 140.318025
        },
        "keyAccentLanguage": "yachimata-shi"
      },
      {
        "code": 0,
        "type": "City",
        "enNameLanguage": "Tomisato-shi",
        "location": {
          "lat": 35.7267856,
          "lng": 140.3430617
        },
        "keyAccentLanguage": "tomisato-shi"
      },
      {
        "code": 0,
        "type": "City",
        "enNameLanguage": "Kaijin",
        "location": {
          "lat": 35.6074041,
          "lng": 140.1065366
        },
        "keyAccentLanguage": "kaijin"
      },
      {
        "code": 0,
        "type": "City",
        "enNameLanguage": "Ichinomiya-machi",
        "location": {
          "lat": 35.3725402,
          "lng": 140.368552
        },
        "keyAccentLanguage": "ichinomiya-machi"
      },
      {
        "code": 0,
        "type": "City",
        "enNameLanguage": "Urayasu-shi",
        "location": {
          "lat": 35.6531598,
          "lng": 139.9019863
        },
        "keyAccentLanguage": "urayasu-shi"
      },
      {
        "code": 0,
        "type": "City",
        "enNameLanguage": "Wakaba-ku",
        "location": {
          "lat": 35.6300051,
          "lng": 140.1486042
        },
        "keyAccentLanguage": "wakaba-ku"
      },
      {
        "code": 0,
        "type": "City",
        "enNameLanguage": "Yatsu",
        "location": {
          "lat": 35.6829049,
          "lng": 140.0059337
        },
        "keyAccentLanguage": "yatsu"
      },
      {
        "code": 0,
        "type": "City",
        "enNameLanguage": "Ichikawa-shi",
        "location": {
          "lat": 35.7135721,
          "lng": 139.9279808
        },
        "keyAccentLanguage": "ichikawa-shi"
      },
      {
        "code": 0,
        "type": "City",
        "enNameLanguage": "Hachigasaki",
        "location": {
          "lat": 35.8105907,
          "lng": 139.9341269
        },
        "keyAccentLanguage": "hachigasaki"
      },
      {
        "code": 0,
        "type": "City",
        "enNameLanguage": "Kujukuri-machi",
        "location": {
          "lat": 35.5348912,
          "lng": 140.4396558
        },
        "keyAccentLanguage": "kujukuri-machi"
      },
      {
        "code": 0,
        "type": "City",
        "enNameLanguage": "Shiroi-shi",
        "location": {
          "lat": 35.7913072,
          "lng": 140.055628
        },
        "keyAccentLanguage": "shiroi-shi"
      },
      {
        "code": 0,
        "type": "City",
        "enNameLanguage": "Higashisugano",
        "location": {
          "lat": 35.7308366,
          "lng": 139.9328454
        },
        "keyAccentLanguage": "higashisugano"
      },
      {
        "code": 0,
        "type": "City",
        "enNameLanguage": "Ichikawaminami",
        "location": {
          "lat": 35.7277609,
          "lng": 139.902098
        },
        "keyAccentLanguage": "ichikawaminami"
      },
      {
        "code": 0,
        "type": "City",
        "enNameLanguage": "Yachiyo-shi",
        "location": {
          "lat": 35.7224358,
          "lng": 140.0998762
        },
        "keyAccentLanguage": "yachiyo-shi"
      },
      {
        "code": 0,
        "type": "City",
        "enNameLanguage": "Inzai-shi",
        "location": {
          "lat": 35.8326275,
          "lng": 140.1456967
        },
        "keyAccentLanguage": "inzai-shi"
      },
      {
        "code": 0,
        "type": "City",
        "enNameLanguage": "Matsudoshinden",
        "location": {
          "lat": 35.7897906,
          "lng": 139.9251571
        },
        "keyAccentLanguage": "matsudoshinden"
      },
      {
        "code": 0,
        "type": "City",
        "enNameLanguage": "Makuharicho",
        "location": {
          "lat": 35.6644298,
          "lng": 140.0521405
        },
        "keyAccentLanguage": "makuharicho"
      },
      {
        "code": 0,
        "type": "City",
        "enNameLanguage": "Maruyama",
        "location": {
          "lat": 35.6074041,
          "lng": 140.1065366
        },
        "keyAccentLanguage": "maruyama"
      }
    ],
    "enNameLanguage": "Chiba",
    "keyAccentLanguage": "chiba"
  },
  {
    "code": 0,
    "type": "State",
    "location": {
      "lat": 33.6025306,
      "lng": 132.7857583
    },
    "districtList": [
      {
        "code": 0,
        "type": "City",
        "enNameLanguage": "Ainan-cho",
        "location": {
          "lat": 32.9623239,
          "lng": 132.5835016
        },
        "keyAccentLanguage": "ainan-cho"
      },
      {
        "code": 0,
        "type": "City",
        "enNameLanguage": "Akebonocho",
        "location": {
          "lat": 33.2229074,
          "lng": 132.5603052
        },
        "keyAccentLanguage": "akebonocho"
      },
      {
        "code": 0,
        "type": "City",
        "enNameLanguage": "Omachi",
        "location": {
          "lat": 33.9109226,
          "lng": 133.1868232
        },
        "keyAccentLanguage": "omachi"
      },
      {
        "code": 0,
        "type": "City",
        "enNameLanguage": "Ozu-shi",
        "location": {
          "lat": 33.5061905,
          "lng": 132.5446184
        },
        "keyAccentLanguage": "ozu-shi"
      },
      {
        "code": 0,
        "type": "City",
        "enNameLanguage": "Kishimachi",
        "location": {
          "lat": 33.8053233,
          "lng": 132.7979582
        },
        "keyAccentLanguage": "kishimachi"
      },
      {
        "code": 0,
        "type": "City",
        "enNameLanguage": "Toon-shi",
        "location": {
          "lat": 33.7910504,
          "lng": 132.8722841
        },
        "keyAccentLanguage": "toon-shi"
      },
      {
        "code": 0,
        "type": "City",
        "enNameLanguage": "Minamikumemachi",
        "location": {
          "lat": 33.8175531,
          "lng": 132.8040571
        },
        "keyAccentLanguage": "minamikumemachi"
      },
      {
        "code": 0,
        "type": "City",
        "enNameLanguage": "Yawatahama-shi",
        "location": {
          "lat": 33.4628782,
          "lng": 132.4233981
        },
        "keyAccentLanguage": "yawatahama-shi"
      },
      {
        "code": 0,
        "type": "City",
        "enNameLanguage": "Takaokamachi",
        "location": {
          "lat": 33.8295919,
          "lng": 132.719829
        },
        "keyAccentLanguage": "takaokamachi"
      },
      {
        "code": 0,
        "type": "City",
        "enNameLanguage": "Uwajima-shi",
        "location": {
          "lat": 33.2235707,
          "lng": 132.560384
        },
        "keyAccentLanguage": "uwajima-shi"
      },
      {
        "code": 0,
        "type": "City",
        "enNameLanguage": "Aizumachi",
        "location": {
          "lat": 33.8621773,
          "lng": 132.7277694
        },
        "keyAccentLanguage": "aizumachi"
      },
      {
        "code": 0,
        "type": "City",
        "enNameLanguage": "Nishiishii",
        "location": {
          "lat": 33.8151458,
          "lng": 132.7723351
        },
        "keyAccentLanguage": "nishiishii"
      },
      {
        "code": 0,
        "type": "City",
        "enNameLanguage": "Akamizu",
        "location": {
          "lat": 32.9571392,
          "lng": 132.5239884
        },
        "keyAccentLanguage": "akamizu"
      },
      {
        "code": 0,
        "type": "City",
        "enNameLanguage": "Aikocho",
        "location": {
          "lat": 33.8464509,
          "lng": 132.7485309
        },
        "keyAccentLanguage": "aikocho"
      },
      {
        "code": 0,
        "type": "City",
        "enNameLanguage": "Aijima",
        "location": {
          "lat": 34.0702889,
          "lng": 132.7106655
        },
        "keyAccentLanguage": "aijima"
      },
      {
        "code": 0,
        "type": "City",
        "enNameLanguage": "Befucho",
        "location": {
          "lat": 33.8462042,
          "lng": 132.7210507
        },
        "keyAccentLanguage": "befucho"
      },
      {
        "code": 0,
        "type": "City",
        "enNameLanguage": "Ajiro",
        "location": {
          "lat": 33.032181,
          "lng": 132.4024423
        },
        "keyAccentLanguage": "ajiro"
      },
      {
        "code": 0,
        "type": "City",
        "enNameLanguage": "Aobadai",
        "location": {
          "lat": 33.8574871,
          "lng": 132.7354033
        },
        "keyAccentLanguage": "aobadai"
      },
      {
        "code": 0,
        "type": "City",
        "enNameLanguage": "Agata",
        "location": {
          "lat": 33.6025306,
          "lng": 132.7857583
        },
        "keyAccentLanguage": "agata"
      },
      {
        "code": 0,
        "type": "City",
        "enNameLanguage": "Arakawa",
        "location": {
          "lat": 33.8572607,
          "lng": 133.1795594
        },
        "keyAccentLanguage": "arakawa"
      },
      {
        "code": 0,
        "type": "City",
        "enNameLanguage": "Ainomine",
        "location": {
          "lat": 33.6926135,
          "lng": 133.0073426
        },
        "keyAccentLanguage": "ainomine"
      },
      {
        "code": 0,
        "type": "City",
        "enNameLanguage": "Asami",
        "location": {
          "lat": 33.8452113,
          "lng": 132.7460888
        },
        "keyAccentLanguage": "asami"
      },
      {
        "code": 0,
        "type": "City",
        "enNameLanguage": "Ainoki",
        "location": {
          "lat": 33.6885778,
          "lng": 133.0801817
        },
        "keyAccentLanguage": "ainoki"
      },
      {
        "code": 0,
        "type": "City",
        "enNameLanguage": "Akarigawa",
        "location": {
          "lat": 33.9266794,
          "lng": 133.0692625
        },
        "keyAccentLanguage": "akarigawa"
      },
      {
        "code": 0,
        "type": "City",
        "enNameLanguage": "Ashima",
        "location": {
          "lat": 33.6025306,
          "lng": 132.7857583
        },
        "keyAccentLanguage": "ashima"
      },
      {
        "code": 0,
        "type": "City",
        "enNameLanguage": "Anju",
        "location": {
          "lat": 33.6025306,
          "lng": 132.7857583
        },
        "keyAccentLanguage": "anju"
      },