[
  {
    "code": 0,
    "type": "State",
    "location": {
      "lat": 14.93634,
      "lng": 107.1011931
    },
    "districtList": [
      {
        "code": 0,
        "type": "City",
        "enNameLanguage": "Ban Hatsati",
        "location": {
          "lat": 14.9,
          "lng": 106.85
        },
        "keyAccentLanguage": "ban_hatsati"
      },
      {
        "code": 0,
        "type": "City",
        "enNameLanguage": "Ban Ekchoum-Phoukaniang",
        "location": {
          "lat": 14.45,
          "lng": 106.95
        },
        "keyAccentLanguage": "ban_ekchoum-phoukaniang"
      },
      {
        "code": 0,
        "type": "City",
        "enNameLanguage": "Ban Cheuk",
        "location": {
          "lat": 14.717,
          "lng": 106.633
        },
        "keyAccentLanguage": "ban_cheuk"
      },
      {
        "code": 0,
        "type": "City",
        "enNameLanguage": "Ban Donfai",
        "location": {
          "lat": 14.45,
          "lng": 106.383
        },
        "keyAccentLanguage": "ban_donfai"
      },
      {
        "code": 0,
        "type": "City",
        "enNameLanguage": "Ban Hinlat",
        "location": {
          "lat": 14.75,
          "lng": 106.483
        },
        "keyAccentLanguage": "ban_hinlat"
      },
      {
        "code": 0,
        "type": "City",
        "enNameLanguage": "Ban Inthi",
        "location": {
          "lat": 14.75,
          "lng": 106.667
        },
        "keyAccentLanguage": "ban_inthi"
      },
      {
        "code": 0,
        "type": "City",
        "enNameLanguage": "Ban Khang Loum",
        "location": {
          "lat": 14.75,
          "lng": 106.717
        },
        "keyAccentLanguage": "ban_khang_loum"
      },
      {
        "code": 0,
        "type": "City",
        "enNameLanguage": "Ban Het",
        "location": {
          "lat": 14.733,
          "lng": 107.483
        },
        "keyAccentLanguage": "ban_het"
      },
      {
        "code": 0,
        "type": "City",
        "enNameLanguage": "Ban Alak",
        "location": {
          "lat": 15.067,
          "lng": 106.917
        },
        "keyAccentLanguage": "ban_alak"
      },
      {
        "code": 0,
        "type": "City",
        "enNameLanguage": "Ban Dakkrong",
        "location": {
          "lat": 15.033,
          "lng": 107.267
        },
        "keyAccentLanguage": "ban_dakkrong"
      },
      {
        "code": 0,
        "type": "City",
        "enNameLanguage": "Ban Ho",
        "location": {
          "lat": 14.717,
          "lng": 106.617
        },
        "keyAccentLanguage": "ban_ho"
      },
      {
        "code": 0,
        "type": "City",
        "enNameLanguage": "Ban Don",
        "location": {
          "lat": 14.75,
          "lng": 106.95
        },
        "keyAccentLanguage": "ban_don"
      },
      {
        "code": 0,
        "type": "City",
        "enNameLanguage": "Ban Cheng Tai",
        "location": {
          "lat": 14.717,
          "lng": 106.633
        },
        "keyAccentLanguage": "ban_cheng_tai"
      },
      {
        "code": 0,
        "type": "City",
        "enNameLanguage": "Ban Hinlap",
        "location": {
          "lat": 15.033,
          "lng": 106.333
        },
        "keyAccentLanguage": "ban_hinlap"
      },
      {
        "code": 0,
        "type": "City",
        "enNameLanguage": "Ban Khouy",
        "location": {
          "lat": 14.583,
          "lng": 107.1
        },
        "keyAccentLanguage": "ban_khouy"
      },
      {
        "code": 0,
        "type": "City",
        "enNameLanguage": "Ban Khang Theung",
        "location": {
          "lat": 14.767,
          "lng": 106.7
        },
        "keyAccentLanguage": "ban_khang_theung"
      },
      {
        "code": 0,
        "type": "City",
        "enNameLanguage": "Ban Hom Theung",
        "location": {
          "lat": 14.767,
          "lng": 106.75
        },
        "keyAccentLanguage": "ban_hom_theung"
      },
      {
        "code": 0,
        "type": "City",
        "enNameLanguage": "Ban Langkeo",
        "location": {
          "lat": 14.867,
          "lng": 106.733
        },
        "keyAccentLanguage": "ban_langkeo"
      },
      {
        "code": 0,
        "type": "City",
        "enNameLanguage": "Ban Chom",
        "location": {
          "lat": 14.55,
          "lng": 107.05
        },
        "keyAccentLanguage": "ban_chom"
      },
      {
        "code": 0,
        "type": "City",
        "enNameLanguage": "Ban Chengsomkhot",
        "location": {
          "lat": 14.8,
          "lng": 106.933
        },
        "keyAccentLanguage": "ban_chengsomkhot"
      },
      {
        "code": 0,
        "type": "City",
        "enNameLanguage": "Ban Dak-Lay",
        "location": {
          "lat": 14.583,
          "lng": 107.117
        },
        "keyAccentLanguage": "ban_dak-lay"
      },
      {
        "code": 0,
        "type": "City",
        "enNameLanguage": "Ban Memo (2)",
        "location": {
          "lat": 14.633,
          "lng": 106.583
        },
        "keyAccentLanguage": "ban_memo_(2)"
      },
      {
        "code": 0,
        "type": "City",
        "enNameLanguage": "Ban Hatgnao",
        "location": {
          "lat": 14.667,
          "lng": 106.583
        },
        "keyAccentLanguage": "ban_hatgnao"
      },
      {
        "code": 0,
        "type": "City",
        "enNameLanguage": "Ban Cheng Nua",
        "location": {
          "lat": 14.833,
          "lng": 106.967
        },
        "keyAccentLanguage": "ban_cheng_nua"
      },
      {
        "code": 0,
        "type": "City",
        "enNameLanguage": "Ban Khampom",
        "location": {
          "lat": 15.033,
          "lng": 106.433
        },
        "keyAccentLanguage": "ban_khampom"
      },
      {
        "code": 0,
        "type": "City",
        "enNameLanguage": "Ban Arapruich",
        "location": {
          "lat": 14.467,
          "lng": 106.783
        },
        "keyAccentLanguage": "ban_arapruich"
      },
      {
        "code": 0,
        "type": "City",
        "enNameLanguage": "Ban Kengxai",
        "location": {
          "lat": 15.033,
          "lng": 106.867
        },
        "keyAccentLanguage": "ban_kengxai"
      },
      {
        "code": 0,
        "type": "City",
        "enNameLanguage": "Ban Kasom",
        "location": {
          "lat": 15,
          "lng": 106.883
        },
        "keyAccentLanguage": "ban_kasom"
      },
      {
        "code": 0,
        "type": "City",
        "enNameLanguage": "Ban Phanouan Gnai",
        "location": {
          "lat": 15.05,
          "lng": 106.383
        },
        "keyAccentLanguage": "ban_phanouan_gnai"
      },
      {
        "code": 0,
        "type": "City",
        "enNameLanguage": "Ban Fangxekaman",
        "location": {
          "lat": 14.8,
          "lng": 106.833
        },
        "keyAccentLanguage": "ban_fangxekaman"
      },
      {
        "code": 0,
        "type": "City",
        "enNameLanguage": "Ban Makka",
        "location": {
          "lat": 14.883,
          "lng": 106.317
        },
        "keyAccentLanguage": "ban_makka"
      },
      {
        "code": 0,
        "type": "City",
        "enNameLanguage": "Attapeu",
        "location": {
          "lat": 14.808,
          "lng": 106.839
        },
        "keyAccentLanguage": "attapeu"
      },
      {
        "code": 0,
        "type": "City",
        "enNameLanguage": "Ban Onglouang",
        "location": {
          "lat": 14.717,
          "lng": 107.217
        },
        "keyAccentLanguage": "ban_onglouang"
      },
      {
        "code": 0,
        "type": "City",
        "enNameLanguage": "Ban Choumphoy",
        "location": {
          "lat": 14.75,
          "lng": 106.683
        },
        "keyAccentLanguage": "ban_choumphoy"
      },
      {
        "code": 0,
        "type": "City",
        "enNameLanguage": "Ban Hahong",
        "location": {
          "lat": 14.667,
          "lng": 106.583
        },
        "keyAccentLanguage": "ban_hahong"
      },
      {
        "code": 0,
        "type": "City",
        "enNameLanguage": "Ban Ouk Nua",
        "location": {
          "lat": 14.7,
          "lng": 106.667
        },
        "keyAccentLanguage": "ban_ouk_nua"
      },
      {
        "code": 0,
        "type": "City",
        "enNameLanguage": "Ban Pakpe",
        "location": {
          "lat": 14.983,
          "lng": 107.083
        },
        "keyAccentLanguage": "ban_pakpe"
      },
      {
        "code": 0,
        "type": "City",
        "enNameLanguage": "Ban Kongmun",
        "location": {
          "lat": 14.783,
          "lng": 106.75
        },
        "keyAccentLanguage": "ban_kongmun"
      },
      {
        "code": 0,
        "type": "City",
        "enNameLanguage": "Ban Memo (1)",
        "location": {
          "lat": 14.65,
          "lng": 106.583
        },
        "keyAccentLanguage": "ban_memo_(1)"
      },
      {
        "code": 0,
        "type": "City",
        "enNameLanguage": "Ban Kong-Ek",
        "location": {
          "lat": 14.6,
          "lng": 107.017
        },
        "keyAccentLanguage": "ban_kong-ek"
      },
      {
        "code": 0,
        "type": "City",
        "enNameLanguage": "Ban Noy",
        "location": {
          "lat": 14.817,
          "lng": 106.933
        },
        "keyAccentLanguage": "ban_noy"
      },
      {
        "code": 0,
        "type": "City",
        "enNameLanguage": "Ban Kongmi",
        "location": {
          "lat": 14.517,
          "lng": 106.917
        },
        "keyAccentLanguage": "ban_kongmi"
      },
      {
        "code": 0,
        "type": "City",
        "enNameLanguage": "Ban Namkong",
        "location": {
          "lat": 14.633,
          "lng": 106.583
        },
        "keyAccentLanguage": "ban_namkong"
      },
      {
        "code": 0,
        "type": "City",
        "enNameLanguage": "Ban Phiakhamdaonang",
        "location": {
          "lat": 14.583,
          "lng": 107.1
        },
        "keyAccentLanguage": "ban_phiakhamdaonang"
      },
      {
        "code": 0,
        "type": "City",
        "enNameLanguage": "Ban Mai",
        "location": {
          "lat": 14.7,
          "lng": 106.5
        },
        "keyAccentLanguage": "ban_mai"
      },
      {
        "code": 0,
        "type": "City",
        "enNameLanguage": "Ban Phiaseuk",
        "location": {
          "lat": 14.567,
          "lng": 107
        },
        "keyAccentLanguage": "ban_phiaseuk"
      },
      {
        "code": 0,
        "type": "City",
        "enNameLanguage": "Ban Phiaha",
        "location": {
          "lat": 14.717,
          "lng": 107.183
        },
        "keyAccentLanguage": "ban_phiaha"
      },
      {
        "code": 0,
        "type": "City",
        "enNameLanguage": "Ban Nonghin",
        "location": {
          "lat": 14.867,
          "lng": 106.433
        },
        "keyAccentLanguage": "ban_nonghin"
      },
      {
        "code": 0,
        "type": "City",
        "enNameLanguage": "Ban Gnangteu",
        "location": {
          "lat": 14.617,
          "lng": 107.083
        },
        "keyAccentLanguage": "ban_gnangteu"
      },
      {
        "code": 0,
        "type": "City",
        "enNameLanguage": "Ban Pakha",
        "location": {
          "lat": 14.634,
          "lng": 107.408
        },
        "keyAccentLanguage": "ban_pakha"
      },
      {
        "code": 0,
        "type": "City",
        "enNameLanguage": "Ban Lapoung",
        "location": {
          "lat": 14.583,
          "lng": 107.1
        },
        "keyAccentLanguage": "ban_lapoung"
      },
      {
        "code": 0,
        "type": "City",
        "enNameLanguage": "Ban Lomlay",
        "location": {
          "lat": 14.55,
          "lng": 107.017
        },
        "keyAccentLanguage": "ban_lomlay"
      },
      {
        "code": 0,
        "type": "City",
        "enNameLanguage": "Ban Namavong Noy",
        "location": {
          "lat": 14.567,
          "lng": 107.117
        },
        "keyAccentLanguage": "ban_namavong_noy"
      },
      {
        "code": 0,
        "type": "City",
        "enNameLanguage": "Ban Phiaviang",
        "location": {
          "lat": 14.55,
          "lng": 107.05
        },
        "keyAccentLanguage": "ban_phiaviang"
      },
      {
        "code": 0,
        "type": "City",
        "enNameLanguage": "Ban Nongset",
        "location": {
          "lat": 14.883,
          "lng": 106.433
        },
        "keyAccentLanguage": "ban_nongset"
      },
      {
        "code": 0,
        "type": "City",
        "enNameLanguage": "Ban Phialu Gnai (1)",
        "location": {
          "lat": 14.55,
          "lng": 107.033
        },
        "keyAccentLanguage": "ban_phialu_gnai_(1)"
      },
      {
        "code": 0,
        "type": "City",
        "enNameLanguage": "Ban Senchay",
        "location": {
          "lat": 14.617,
          "lng": 107.117
        },
        "keyAccentLanguage": "ban_senchay"
      },
      {
        "code": 0,
        "type": "City",
        "enNameLanguage": "Ban Sixao",
        "location": {
          "lat": 14.8,
          "lng": 106.95
        },
        "keyAccentLanguage": "ban_sixao"
      },
      {
        "code": 0,
        "type": "City",
        "enNameLanguage": "Ban Senkhamphon",
        "location": {
          "lat": 14.583,
          "lng": 107.017
        },
        "keyAccentLanguage": "ban_senkhamphon"
      },
      {
        "code": 0,
        "type": "City",
        "enNameLanguage": "Ban Tanong",
        "location": {
          "lat": 14.4,
          "lng": 106.767
        },
        "keyAccentLanguage": "ban_tanong"
      },
      {
        "code": 0,
        "type": "City",
        "enNameLanguage": "Ban Konghang",
        "location": {
          "lat": 14.85,
          "lng": 106.75
        },
        "keyAccentLanguage": "ban_konghang"
      },
      {
        "code": 0,
        "type": "City",
        "enNameLanguage": "Ban Pouy",
        "location": {
          "lat": 14.733,
          "lng": 106.7
        },
        "keyAccentLanguage": "ban_pouy"
      },
      {
        "code": 0,
        "type": "City",
        "enNameLanguage": "Ban Semon Nhuo",
        "location": {
          "lat": 14.783,
          "lng": 106.433
        },
        "keyAccentLanguage": "ban_semon_nhuo"
      },
      {
        "code": 0,
        "type": "City",
        "enNameLanguage": "Ban Fangdeng",
        "location": {
          "lat": 14.8,
          "lng": 106.933
        },
        "keyAccentLanguage": "ban_fangdeng"
      },
      {
        "code": 0,
        "type": "City",
        "enNameLanguage": "Ban Salavangkhang",
        "location": {
          "lat": 14.917,
          "lng": 107.05
        },
        "keyAccentLanguage": "ban_salavangkhang"
      },
      {
        "code": 0,
        "type": "City",
        "enNameLanguage": "Ban Phiakhamkak",
        "location": {
          "lat": 14.517,
          "lng": 106.95
        },
        "keyAccentLanguage": "ban_phiakhamkak"
      },
      {
        "code": 0,
        "type": "City",
        "enNameLanguage": "Ban Renthuk",
        "location": {
          "lat": 14.433,
          "lng": 106.817
        },
        "keyAccentLanguage": "ban_renthuk"
      },
      {
        "code": 0,
        "type": "City",
        "enNameLanguage": "Ban Phomoun Gnai",
        "location": {
          "lat": 14.5,
          "lng": 107.067
        },
        "keyAccentLanguage": "ban_phomoun_gnai"
      },
      {
        "code": 0,
        "type": "City",
        "enNameLanguage": "Ban Khang",
        "location": {
          "lat": 14.8,
          "lng": 106.95
        },
        "keyAccentLanguage": "ban_khang"
      },
      {
        "code": 0,
        "type": "City",
        "enNameLanguage": "Ban Tasseng",
        "location": {
          "lat": 14.717,
          "lng": 107.417
        },
        "keyAccentLanguage": "ban_tasseng"
      },
      {
        "code": 0,
        "type": "City",
        "enNameLanguage": "Ban Nong Songhong",
        "location": {
          "lat": 14.65,
          "lng": 106.517
        },
        "keyAccentLanguage": "ban_nong_songhong"
      },
      {
        "code": 0,
        "type": "City",
        "enNameLanguage": "Ban Phomoun",
        "location": {
          "lat": 14.533,
          "lng": 107.067
        },
        "keyAccentLanguage": "ban_phomoun"
      },
      {
        "code": 0,
        "type": "City",
        "enNameLanguage": "Ban Nongphanuang",
        "location": {
          "lat": 15.1,
          "lng": 106.317
        },
        "keyAccentLanguage": "ban_nongphanuang"
      },
      {
        "code": 0,
        "type": "City",
        "enNameLanguage": "Ban Talia",
        "location": {
          "lat": 15.029,
          "lng": 107.052
        },
        "keyAccentLanguage": "ban_talia"
      },
      {
        "code": 0,
        "type": "City",
        "enNameLanguage": "Ban Phialu Noy",
        "location": {
          "lat": 14.567,
          "lng": 107.033
        },
        "keyAccentLanguage": "ban_phialu_noy"
      },
      {
        "code": 0,
        "type": "City",
        "enNameLanguage": "Ban Xoutouat",
        "location": {
          "lat": 14.691,
          "lng": 106.613
        },
        "keyAccentLanguage": "ban_xoutouat"
      },
      {
        "code": 0,
        "type": "City",
        "enNameLanguage": "Ban Senkeo",
        "location": {
          "lat": 14.467,
          "lng": 106.933
        },
        "keyAccentLanguage": "ban_senkeo"
      },
      {
        "code": 0,
        "type": "City",
        "enNameLanguage": "Ban Nong Kham",
        "location": {
          "lat": 14.55,
          "lng": 106.45
        },
        "keyAccentLanguage": "ban_nong_kham"
      },
      {
        "code": 0,
        "type": "City",
        "enNameLanguage": "Ban Phokandong",
        "location": {
          "lat": 14.6,
          "lng": 107.15
        },
        "keyAccentLanguage": "ban_phokandong"
      },
      {
        "code": 0,
        "type": "City",
        "enNameLanguage": "Ban Phiadouang",
        "location": {
          "lat": 14.65,
          "lng": 107.467
        },
        "keyAccentLanguage": "ban_phiadouang"
      },
      {
        "code": 0,
        "type": "City",
        "enNameLanguage": "Ban Sapouan",
        "location": {
          "lat": 15.083,
          "lng": 106.9
        },
        "keyAccentLanguage": "ban_sapouan"
      },
      {
        "code": 0,
        "type": "City",
        "enNameLanguage": "Ban Ouk Tai",
        "location": {
          "lat": 14.683,
          "lng": 106.65
        },
        "keyAccentLanguage": "ban_ouk_tai"
      },
      {
        "code": 0,
        "type": "City",
        "enNameLanguage": "Ban Phiahom (1)",
        "location": {
          "lat": 14.567,
          "lng": 106.917
        },
        "keyAccentLanguage": "ban_phiahom_(1)"
      },
      {
        "code": 0,
        "type": "City",
        "enNameLanguage": "Ban Somkhot",
        "location": {
          "lat": 14.8,
          "lng": 106.967
        },
        "keyAccentLanguage": "ban_somkhot"
      },
      {
        "code": 0,
        "type": "City",
        "enNameLanguage": "Ban Phianong",
        "location": {
          "lat": 14.567,
          "lng": 106.983
        },
        "keyAccentLanguage": "ban_phianong"
      },
      {
        "code": 0,
        "type": "City",
        "enNameLanguage": "Muang May",
        "location": {
          "lat": 14.833,
          "lng": 106.965
        },
        "keyAccentLanguage": "muang_may"
      },
      {
        "code": 0,
        "type": "City",
        "enNameLanguage": "Ban Lagnao",
        "location": {
          "lat": 14.833,
          "lng": 106.733
        },
        "keyAccentLanguage": "ban_lagnao"
      },
      {
        "code": 0,
        "type": "City",
        "enNameLanguage": "Ban Senlouang",
        "location": {
          "lat": 14.667,
          "lng": 107.367
        },
        "keyAccentLanguage": "ban_senlouang"
      },
      {
        "code": 0,
        "type": "City",
        "enNameLanguage": "Ban Salatintok",
        "location": {
          "lat": 15.01,
          "lng": 107.085
        },
        "keyAccentLanguage": "ban_salatintok"
      },
      {
        "code": 0,
        "type": "City",
        "enNameLanguage": "Ban Sok",
        "location": {
          "lat": 15.067,
          "lng": 106.85
        },
        "keyAccentLanguage": "ban_sok"
      },
      {
        "code": 0,
        "type": "City",
        "enNameLanguage": "Ban Sempo",
        "location": {
          "lat": 14.567,
          "lng": 106.467
        },
        "keyAccentLanguage": "ban_sempo"
      },
      {
        "code": 0,
        "type": "City",
        "enNameLanguage": "Ban San Keo",
        "location": {
          "lat": 14.45,
          "lng": 106.4
        },
        "keyAccentLanguage": "ban_san_keo"
      },
      {
        "code": 0,
        "type": "City",
        "enNameLanguage": "Ban Phiapang",
        "location": {
          "lat": 14.567,
          "lng": 107.167
        },
        "keyAccentLanguage": "ban_phiapang"
      },
      {
        "code": 0,
        "type": "City",
        "enNameLanguage": "Ban Takdet",
        "location": {
          "lat": 14.767,
          "lng": 106.917
        },
        "keyAccentLanguage": "ban_takdet"
      },
      {
        "code": 0,
        "type": "City",
        "enNameLanguage": "Ban Nongkhoun",
        "location": {
          "lat": 14.817,
          "lng": 106.417
        },
        "keyAccentLanguage": "ban_nongkhoun"
      },
      {
        "code": 0,
        "type": "City",
        "enNameLanguage": "Ban Phiahom (2)",
        "location": {
          "lat": 14.533,
          "lng": 106.95
        },
        "keyAccentLanguage": "ban_phiahom_(2)"
      },
      {
        "code": 0,
        "type": "City",
        "enNameLanguage": "Ban Xakhe",
        "location": {
          "lat": 14.934,
          "lng": 106.891
        },
        "keyAccentLanguage": "ban_xakhe"
      },
      {
        "code": 0,
        "type": "City",
        "enNameLanguage": "Ban Phialu Gnai (2)",
        "location": {
          "lat": 14.567,
          "lng": 107.05
        },
        "keyAccentLanguage": "ban_phialu_gnai_(2)"
      },
      {
        "code": 0,
        "type": "City",
        "enNameLanguage": "Ban Tammaleuy Tai",
        "location": {
          "lat": 14.783,
          "lng": 106.733
        },
        "keyAccentLanguage": "ban_tammaleuy_tai"
      },
      {
        "code": 0,
        "type": "City",
        "enNameLanguage": "Ban Tammaleuy Nua",
        "location": {
          "lat": 14.8,
          "lng": 106.75
        },
        "keyAccentLanguage": "ban_tammaleuy_nua"
      }
    ],
    "enNameLanguage": "Attapu",
    "keyAccentLanguage": "attapu"
  },
  {
    "code": 0,
    "type": "State",
    "location": {
      "lat": 20.2872662,
      "lng": 100.7097867
    },
    "districtList": [
      {
        "code": 0,
        "type": "City",
        "enNameLanguage": "Ban Hatli",
        "location": {
          "lat": 20.184,
          "lng": 100.724
        },
        "keyAccentLanguage": "ban_hatli"
      },
      {
        "code": 0,
        "type": "City",
        "enNameLanguage": "Ban Bo-Mai",
        "location": {
          "lat": 20.779,
          "lng": 100.571
        },
        "keyAccentLanguage": "ban_bo-mai"
      },
      {
        "code": 0,
        "type": "City",
        "enNameLanguage": "Ban Ayseng",
        "location": {
          "lat": 20.772,
          "lng": 100.56
        },
        "keyAccentLanguage": "ban_ayseng"
      },
      {
        "code": 0,
        "type": "City",
        "enNameLanguage": "Ban Chahe",
        "location": {
          "lat": 20.561,
          "lng": 100.209
        },
        "keyAccentLanguage": "ban_chahe"
      },
      {
        "code": 0,
        "type": "City",
        "enNameLanguage": "Ban Aychai",
        "location": {
          "lat": 20.612,
          "lng": 100.415
        },
        "keyAccentLanguage": "ban_aychai"
      },
      {
        "code": 0,
        "type": "City",
        "enNameLanguage": "Ban Ayngai",
        "location": {
          "lat": 20.613,
          "lng": 100.384
        },
        "keyAccentLanguage": "ban_ayngai"
      },
      {
        "code": 0,
        "type": "City",
        "enNameLanguage": "Ban Bong",
        "location": {
          "lat": 20.274,
          "lng": 101.067
        },
        "keyAccentLanguage": "ban_bong"
      },
      {
        "code": 0,
        "type": "City",
        "enNameLanguage": "Ban Chakham",
        "location": {
          "lat": 20.74,
          "lng": 100.313
        },
        "keyAccentLanguage": "ban_chakham"
      },
      {
        "code": 0,
        "type": "City",
        "enNameLanguage": "Ban Chaibo",
        "location": {
          "lat": 20.807,
          "lng": 100.545
        },
        "keyAccentLanguage": "ban_chaibo"
      },
      {
        "code": 0,
        "type": "City",
        "enNameLanguage": "Ban Chapoutao",
        "location": {
          "lat": 20.519,
          "lng": 100.35
        },
        "keyAccentLanguage": "ban_chapoutao"
      },
      {
        "code": 0,
        "type": "City",
        "enNameLanguage": "Ban Ho",
        "location": {
          "lat": 20.797,
          "lng": 100.389
        },
        "keyAccentLanguage": "ban_ho"
      },
      {
        "code": 0,
        "type": "City",
        "enNameLanguage": "Ban Don-Gnong",
        "location": {
          "lat": 20.292,
          "lng": 100.507
        },
        "keyAccentLanguage": "ban_don-gnong"
      },
      {
        "code": 0,
        "type": "City",
        "enNameLanguage": "Ban Aychay",
        "location": {
          "lat": 20.414,
          "lng": 100.43
        },
        "keyAccentLanguage": "ban_aychay"
      },
      {
        "code": 0,
        "type": "City",
        "enNameLanguage": "Ban Doi Ye",
        "location": {
          "lat": 20.383,
          "lng": 100.117
        },
        "keyAccentLanguage": "ban_doi_ye"
      },
      {
        "code": 0,
        "type": "City",
        "enNameLanguage": "Ban Hat-Hom",
        "location": {
          "lat": 20.272,
          "lng": 100.84
        },
        "keyAccentLanguage": "ban_hat-hom"
      },
      {
        "code": 0,
        "type": "City",
        "enNameLanguage": "Ban Bausong",
        "location": {
          "lat": 20.457,
          "lng": 100.221
        },
        "keyAccentLanguage": "ban_bausong"
      },
      {
        "code": 0,
        "type": "City",
        "enNameLanguage": "Ban Chomleng",
        "location": {
          "lat": 20.167,
          "lng": 101.071
        },
        "keyAccentLanguage": "ban_chomleng"
      },
      {
        "code": 0,
        "type": "City",
        "enNameLanguage": "Ban Hatfak",
        "location": {
          "lat": 20.18,
          "lng": 100.725
        },
        "keyAccentLanguage": "ban_hatfak"
      },
      {
        "code": 0,
        "type": "City",
        "enNameLanguage": "Ban Bolek",
        "location": {
          "lat": 20.308,
          "lng": 100.517
        },
        "keyAccentLanguage": "ban_bolek"
      },
      {
        "code": 0,
        "type": "City",
        "enNameLanguage": "Ban Donchai",
        "location": {
          "lat": 20.174,
          "lng": 100.724
        },
        "keyAccentLanguage": "ban_donchai"
      },
      {
        "code": 0,
        "type": "City",
        "enNameLanguage": "Ban Donkham",
        "location": {
          "lat": 20.41,
          "lng": 100.832
        },
        "keyAccentLanguage": "ban_donkham"
      },
      {
        "code": 0,
        "type": "City",
        "enNameLanguage": "Ban Houaymakkhua",
        "location": {
          "lat": 20.41,
          "lng": 100.227
        },
        "keyAccentLanguage": "ban_houaymakkhua"
      },
      {
        "code": 0,
        "type": "City",
        "enNameLanguage": "Ban Bouak",
        "location": {
          "lat": 20.228,
          "lng": 101.233
        },
        "keyAccentLanguage": "ban_bouak"
      },
      {
        "code": 0,
        "type": "City",
        "enNameLanguage": "Ban Dan",
        "location": {
          "lat": 20.162,
          "lng": 100.506
        },
        "keyAccentLanguage": "ban_dan"
      },
      {
        "code": 0,
        "type": "City",
        "enNameLanguage": "Ban Chado",
        "location": {
          "lat": 20.647,
          "lng": 100.392
        },
        "keyAccentLanguage": "ban_chado"
      },
      {
        "code": 0,
        "type": "City",
        "enNameLanguage": "Ban Houay-Et",
        "location": {
          "lat": 19.872,
          "lng": 100.746
        },
        "keyAccentLanguage": "ban_houay-et"
      },
      {
        "code": 0,
        "type": "City",
        "enNameLanguage": "Ban Gnao",
        "location": {
          "lat": 20.321,
          "lng": 101.017
        },
        "keyAccentLanguage": "ban_gnao"
      },
      {
        "code": 0,
        "type": "City",
        "enNameLanguage": "Ban Daylom",
        "location": {
          "lat": 20.288,
          "lng": 100.689
        },
        "keyAccentLanguage": "ban_daylom"
      },
      {
        "code": 0,
        "type": "City",
        "enNameLanguage": "Ban Chaphuk",
        "location": {
          "lat": 20.491,
          "lng": 100.416
        },
        "keyAccentLanguage": "ban_chaphuk"
      },
      {
        "code": 0,
        "type": "City",
        "enNameLanguage": "Ban Donphao",
        "location": {
          "lat": 20.362,
          "lng": 100.558
        },
        "keyAccentLanguage": "ban_donphao"
      },
      {
        "code": 0,
        "type": "City",
        "enNameLanguage": "Ban Chaboti",
        "location": {
          "lat": 20.755,
          "lng": 100.366
        },
        "keyAccentLanguage": "ban_chaboti"
      },
      {
        "code": 0,
        "type": "City",
        "enNameLanguage": "Ban Houaykhat",
        "location": {
          "lat": 19.856,
          "lng": 100.503
        },
        "keyAccentLanguage": "ban_houaykhat"
      },
      {
        "code": 0,
        "type": "City",
        "enNameLanguage": "Ban Chaka",
        "location": {
          "lat": 20.621,
          "lng": 100.242
        },
        "keyAccentLanguage": "ban_chaka"
      },
      {
        "code": 0,
        "type": "City",
        "enNameLanguage": "Ban Ham Len",
        "location": {
          "lat": 20.183,
          "lng": 100.733
        },
        "keyAccentLanguage": "ban_ham_len"
      },
      {
        "code": 0,
        "type": "City",
        "enNameLanguage": "Ban Hatcha",
        "location": {
          "lat": 20.729,
          "lng": 100.272
        },
        "keyAccentLanguage": "ban_hatcha"
      },
      {
        "code": 0,
        "type": "City",
        "enNameLanguage": "Ban Houakhoua",
        "location": {
          "lat": 20.245,
          "lng": 100.455
        },
        "keyAccentLanguage": "ban_houakhoua"
      },
      {
        "code": 0,
        "type": "City",
        "enNameLanguage": "Ban Houanampuk",
        "location": {
          "lat": 20.221,
          "lng": 100.605
        },
        "keyAccentLanguage": "ban_houanampuk"
      },
      {
        "code": 0,
        "type": "City",
        "enNameLanguage": "Ban Hatnam",
        "location": {
          "lat": 20.207,
          "lng": 101.022
        },
        "keyAccentLanguage": "ban_hatnam"
      },
      {
        "code": 0,
        "type": "City",
        "enNameLanguage": "Ban Aymi",
        "location": {
          "lat": 20.491,
          "lng": 100.159
        },
        "keyAccentLanguage": "ban_aymi"
      },
      {
        "code": 0,
        "type": "City",
        "enNameLanguage": "Ban Houayboulao",
        "location": {
          "lat": 20.78,
          "lng": 100.512
        },
        "keyAccentLanguage": "ban_houayboulao"
      },
      {
        "code": 0,
        "type": "City",
        "enNameLanguage": "Ban Hatsaphoun (2)",
        "location": {
          "lat": 20.279,
          "lng": 100.712
        },
        "keyAccentLanguage": "ban_hatsaphoun_(2)"
      },
      {
        "code": 0,
        "type": "City",
        "enNameLanguage": "Ban Donhiang",
        "location": {
          "lat": 20.436,
          "lng": 100.222
        },
        "keyAccentLanguage": "ban_donhiang"
      },
      {
        "code": 0,
        "type": "City",
        "enNameLanguage": "Ban Dong",
        "location": {
          "lat": 19.794,
          "lng": 100.52
        },
        "keyAccentLanguage": "ban_dong"
      },
      {
        "code": 0,
        "type": "City",
        "enNameLanguage": "Ban Hatsaphoung",
        "location": {
          "lat": 20.338,
          "lng": 100.84
        },
        "keyAccentLanguage": "ban_hatsaphoung"
      },
      {
        "code": 0,
        "type": "City",
        "enNameLanguage": "Ban Dondeng",
        "location": {
          "lat": 20.393,
          "lng": 100.244
        },
        "keyAccentLanguage": "ban_dondeng"
      },
      {
        "code": 0,
        "type": "City",
        "enNameLanguage": "Ban Houanam",
        "location": {
          "lat": 19.886,
          "lng": 100.541
        },
        "keyAccentLanguage": "ban_houanam"
      },
      {
        "code": 0,
        "type": "City",
        "enNameLanguage": "Ban Houaymak",
        "location": {
          "lat": 20.369,
          "lng": 100.563
        },
        "keyAccentLanguage": "ban_houaymak"
      },
      {
        "code": 0,
        "type": "City",
        "enNameLanguage": "Ban Don Sak",
        "location": {
          "lat": 20.35,
          "lng": 100.1
        },
        "keyAccentLanguage": "ban_don_sak"
      },
      {
        "code": 0,
        "type": "City",
        "enNameLanguage": "Ban Houapo",
        "location": {
          "lat": 20.818,
          "lng": 100.6
        },
        "keyAccentLanguage": "ban_houapo"
      },
      {
        "code": 0,
        "type": "City",
        "enNameLanguage": "Ban Houaykhoua",
        "location": {
          "lat": 20.367,
          "lng": 100.37
        },
        "keyAccentLanguage": "ban_houaykhoua"
      },
      {
        "code": 0,
        "type": "City",
        "enNameLanguage": "Ban Donchai",
        "location": {
          "lat": 20.174,
          "lng": 100.724
        },
        "keyAccentLanguage": "ban_donchai"
      },
      {
        "code": 0,
        "type": "City",
        "enNameLanguage": "Ban Nam Ngao",
        "location": {
          "lat": 20.37,
          "lng": 100.368
        },
        "keyAccentLanguage": "ban_nam_ngao"
      },
      {
        "code": 0,
        "type": "City",
        "enNameLanguage": "Ban Hat Nam",
        "location": {
          "lat": 20.267,
          "lng": 100.8
        },
        "keyAccentLanguage": "ban_hat_nam"
      },
      {
        "code": 0,
        "type": "City",
        "enNameLanguage": "Ban Houahouaytat-Nua",
        "location": {
          "lat": 20.344,
          "lng": 100.43
        },
        "keyAccentLanguage": "ban_houahouaytat-nua"
      },
      {
        "code": 0,
        "type": "City",
        "enNameLanguage": "Ban Fay",
        "location": {
          "lat": 20.222,
          "lng": 100.538
        },
        "keyAccentLanguage": "ban_fay"
      },
      {
        "code": 0,
        "type": "City",
        "enNameLanguage": "Ban Houaymak",
        "location": {
          "lat": 20.369,
          "lng": 100.563
        },
        "keyAccentLanguage": "ban_houaymak"
      },
      {
        "code": 0,
        "type": "City",
        "enNameLanguage": "Ban Chakkache",
        "location": {
          "lat": 20.636,
          "lng": 100.214
        },
        "keyAccentLanguage": "ban_chakkache"
      },
      {
        "code": 0,
        "type": "City",
        "enNameLanguage": "Ban Hatliliap",
        "location": {
          "lat": 20.13,
          "lng": 100.651
        },
        "keyAccentLanguage": "ban_hatliliap"
      },
      {
        "code": 0,
        "type": "City",
        "enNameLanguage": "Ban Houayliang",
        "location": {
          "lat": 20.067,
          "lng": 100.809
        },
        "keyAccentLanguage": "ban_houayliang"
      },
      {
        "code": 0,
        "type": "City",
        "enNameLanguage": "Ban Houaykengphak",
        "location": {
          "lat": 19.874,
          "lng": 100.58
        },
        "keyAccentLanguage": "ban_houaykengphak"
      },
      {
        "code": 0,
        "type": "City",
        "enNameLanguage": "Ban Houaykhagnoung",
        "location": {
          "lat": 19.979,
          "lng": 100.634
        },
        "keyAccentLanguage": "ban_houaykhagnoung"
      },
      {
        "code": 0,
        "type": "City",
        "enNameLanguage": "Ban Houaylai-Kao",
        "location": {
          "lat": 20.403,
          "lng": 100.421
        },
        "keyAccentLanguage": "ban_houaylai-kao"
      },
      {
        "code": 0,
        "type": "City",
        "enNameLanguage": "Ban Hatkham",
        "location": {
          "lat": 20.155,
          "lng": 100.71
        },
        "keyAccentLanguage": "ban_hatkham"
      },
      {
        "code": 0,
        "type": "City",
        "enNameLanguage": "Ban Tafa",
        "location": {
          "lat": 20.428,
          "lng": 100.886
        },
        "keyAccentLanguage": "ban_tafa"
      },
      {
        "code": 0,
        "type": "City",
        "enNameLanguage": "Ban Donkeo",
        "location": {
          "lat": 20.227,
          "lng": 100.549
        },
        "keyAccentLanguage": "ban_donkeo"
      },
      {
        "code": 0,
        "type": "City",
        "enNameLanguage": "Ban Hatsa",
        "location": {
          "lat": 19.923,
          "lng": 100.582
        },
        "keyAccentLanguage": "ban_hatsa"
      },
      {
        "code": 0,
        "type": "City",
        "enNameLanguage": "Ban Chapo",
        "location": {
          "lat": 20.754,
          "lng": 100.496
        },
        "keyAccentLanguage": "ban_chapo"
      },
      {
        "code": 0,
        "type": "City",
        "enNameLanguage": "Ban Houaychang",
        "location": {
          "lat": 19.862,
          "lng": 100.533
        },
        "keyAccentLanguage": "ban_houaychang"
      },
      {
        "code": 0,
        "type": "City",
        "enNameLanguage": "Ban Houaylai-Mai",
        "location": {
          "lat": 20.405,
          "lng": 100.428
        },
        "keyAccentLanguage": "ban_houaylai-mai"
      },
      {
        "code": 0,
        "type": "City",
        "enNameLanguage": "Ban Houaylok",
        "location": {
          "lat": 20.596,
          "lng": 100.263
        },
        "keyAccentLanguage": "ban_houaylok"
      },
      {
        "code": 0,
        "type": "City",
        "enNameLanguage": "Ban Doykengmong",
        "location": {
          "lat": 20.267,
          "lng": 100.879
        },
        "keyAccentLanguage": "ban_doykengmong"
      },
      {
        "code": 0,
        "type": "City",
        "enNameLanguage": "Ban Chauva",
        "location": {
          "lat": 20.793,
          "lng": 100.428
        },
        "keyAccentLanguage": "ban_chauva"
      },
      {
        "code": 0,
        "type": "City",
        "enNameLanguage": "Ban Houaygneng",
        "location": {
          "lat": 19.921,
          "lng": 100.565
        },
        "keyAccentLanguage": "ban_houaygneng"
      },
      {
        "code": 0,
        "type": "City",
        "enNameLanguage": "Ban Houaymakkhuagnao",
        "location": {
          "lat": 20.392,
          "lng": 100.184
        },
        "keyAccentLanguage": "ban_houaymakkhuagnao"
      },
      {
        "code": 0,
        "type": "City",
        "enNameLanguage": "Ban Hatsaphoun (1)",
        "location": {
          "lat": 20.273,
          "lng": 100.698
        },
        "keyAccentLanguage": "ban_hatsaphoun_(1)"
      },
      {
        "code": 0,
        "type": "City",
        "enNameLanguage": "Ban Houana",
        "location": {
          "lat": 20.283,
          "lng": 100.496
        },
        "keyAccentLanguage": "ban_houana"
      },
      {
        "code": 0,
        "type": "City",
        "enNameLanguage": "Ban Had Tcha",
        "location": {
          "lat": 20.167,
          "lng": 100.733
        },
        "keyAccentLanguage": "ban_had_tcha"
      },
      {
        "code": 0,
        "type": "City",
        "enNameLanguage": "Ban Hatsak",
        "location": {
          "lat": 19.859,
          "lng": 100.588
        },
        "keyAccentLanguage": "ban_hatsak"
      },
      {
        "code": 0,
        "type": "City",
        "enNameLanguage": "Ban Houaynam",
        "location": {
          "lat": 20.271,
          "lng": 100.797
        },
        "keyAccentLanguage": "ban_houaynam"
      },
      {
        "code": 0,
        "type": "City",
        "enNameLanguage": "Ban Kheun",
        "location": {
          "lat": 20.209,
          "lng": 101.118
        },
        "keyAccentLanguage": "ban_kheun"
      },
      {
        "code": 0,
        "type": "City",
        "enNameLanguage": "Ban Hali Tia",
        "location": {
          "lat": 20.65,
          "lng": 100.55
        },
        "keyAccentLanguage": "ban_hali_tia"
      },
      {
        "code": 0,
        "type": "City",
        "enNameLanguage": "Ban Hatxat",
        "location": {
          "lat": 19.888,
          "lng": 100.585
        },
        "keyAccentLanguage": "ban_hatxat"
      },
      {
        "code": 0,
        "type": "City",
        "enNameLanguage": "Ban Houayhi-Gnai",
        "location": {
          "lat": 20.503,
          "lng": 100.143
        },
        "keyAccentLanguage": "ban_houayhi-gnai"
      },
      {
        "code": 0,
        "type": "City",
        "enNameLanguage": "Ban Chouk-Louk",
        "location": {
          "lat": 20.241,
          "lng": 101.197
        },
        "keyAccentLanguage": "ban_chouk-louk"
      },
      {
        "code": 0,
        "type": "City",
        "enNameLanguage": "Ban Houayhikay",
        "location": {
          "lat": 20.48,
          "lng": 100.137
        },
        "keyAccentLanguage": "ban_houayhikay"
      },
      {
        "code": 0,
        "type": "City",
        "enNameLanguage": "Ban Houadoy",
        "location": {
          "lat": 20.726,
          "lng": 100.256
        },
        "keyAccentLanguage": "ban_houadoy"
      },
      {
        "code": 0,
        "type": "City",
        "enNameLanguage": "Ban Houaykhiou",
        "location": {
          "lat": 20.083,
          "lng": 100.609
        },
        "keyAccentLanguage": "ban_houaykhiou"
      },
      {
        "code": 0,
        "type": "City",
        "enNameLanguage": "Ban Homsouk",
        "location": {
          "lat": 20.074,
          "lng": 100.779
        },
        "keyAccentLanguage": "ban_homsouk"
      },
      {
        "code": 0,
        "type": "City",
        "enNameLanguage": "Ban Houaylai",
        "location": {
          "lat": 20.656,
          "lng": 100.291
        },
        "keyAccentLanguage": "ban_houaylai"
      },
      {
        "code": 0,
        "type": "City",
        "enNameLanguage": "Ban Houayken",
        "location": {
          "lat": 20.171,
          "lng": 100.769
        },
        "keyAccentLanguage": "ban_houayken"
      },
      {
        "code": 0,
        "type": "City",
        "enNameLanguage": "Ban Houayxay",
        "location": {
          "lat": 20.261,
          "lng": 100.431
        },
        "keyAccentLanguage": "ban_houayxay"
      },
      {
        "code": 0,
        "type": "City",
        "enNameLanguage": "Ban Houaynokkeng",
        "location": {
          "lat": 20.325,
          "lng": 100.419
        },
        "keyAccentLanguage": "ban_houaynokkeng"
      },
      {
        "code": 0,
        "type": "City",
        "enNameLanguage": "Ban Houaygniat",
        "location": {
          "lat": 20.286,
          "lng": 101.188
        },
        "keyAccentLanguage": "ban_houaygniat"
      },
      {
        "code": 0,
        "type": "City",
        "enNameLanguage": "Ban Houaymouk",
        "location": {
          "lat": 20.225,
          "lng": 100.719
        },
        "keyAccentLanguage": "ban_houaymouk"
      },
      {
        "code": 0,
        "type": "City",
        "enNameLanguage": "Ban Houahouaytat-Tai",
        "location": {
          "lat": 20.33,
          "lng": 100.437
        },
        "keyAccentLanguage": "ban_houahouaytat-tai"
      },
      {
        "code": 0,
        "type": "City",
        "enNameLanguage": "Ban Houayko",
        "location": {
          "lat": 20.224,
          "lng": 100.754
        },
        "keyAccentLanguage": "ban_houayko"
      },
      {
        "code": 0,
        "type": "City",
        "enNameLanguage": "Ban Houaykang",
        "location": {
          "lat": 20.294,
          "lng": 100.402
        },
        "keyAccentLanguage": "ban_houaykang"
      },
      {
        "code": 0,
        "type": "City",
        "enNameLanguage": "Ban Houaybong",
        "location": {
          "lat": 20.209,
          "lng": 100.736
        },
        "keyAccentLanguage": "ban_houaybong"
      },
      {
        "code": 0,
        "type": "City",
        "enNameLanguage": "Ban Chakhu",
        "location": {
          "lat": 20.782,
          "lng": 100.64
        },
        "keyAccentLanguage": "ban_chakhu"
      },
      {
        "code": 0,
        "type": "City",
        "enNameLanguage": "Ban Hahe",
        "location": {
          "lat": 20.2872662,
          "lng": 100.7097867
        },
        "keyAccentLanguage": "ban_hahe"
      }
    ],
    "enNameLanguage": "Bokèo",
    "keyAccentLanguage": "bokèo"
  },
  {
    "code": 0,
    "type": "State",
    "location": {
      "lat": 18.4362924,
      "lng": 104.4723301
    },
    "districtList": [
      {
        "code": 0,
        "type": "City",
        "enNameLanguage": "Ban Gnotkep",
        "location": {
          "lat": 18.4362924,
          "lng": 104.4723301
        },
        "keyAccentLanguage": "ban_gnotkep"
      },
      {
        "code": 0,
        "type": "City",
        "enNameLanguage": "Ban Fan",
        "location": {
          "lat": 18.4362924,
          "lng": 104.4723301
        },
        "keyAccentLanguage": "ban_fan"
      },
      {
        "code": 0,
        "type": "City",
        "enNameLanguage": "Ban Donxat",
        "location": {
          "lat": 18.4362924,
          "lng": 104.4723301
        },
        "keyAccentLanguage": "ban_donxat"
      },
      {
        "code": 0,
        "type": "City",
        "enNameLanguage": "Ban Dongbang",
        "location": {
          "lat": 18.4362924,
          "lng": 104.4723301
        },
        "keyAccentLanguage": "ban_dongbang"
      },
      {
        "code": 0,
        "type": "City",
        "enNameLanguage": "Ban Don",
        "location": {
          "lat": 18.7420448,
          "lng": 103.7169705
        },
        "keyAccentLanguage": "ban_don"
      },
      {
        "code": 0,
        "type": "City",
        "enNameLanguage": "Ban Boungkoang",
        "location": {
          "lat": 18.4362924,
          "lng": 104.4723301
        },
        "keyAccentLanguage": "ban_boungkoang"
      },
      {
        "code": 0,
        "type": "City",
        "enNameLanguage": "Ban At Nha",
        "location": {
          "lat": 18.4362924,
          "lng": 104.4723301
        },
        "keyAccentLanguage": "ban_at_nha"
      },
      {
        "code": 0,
        "type": "City",
        "enNameLanguage": "Ban Bothun",
        "location": {
          "lat": 18.4362924,
          "lng": 104.4723301
        },
        "keyAccentLanguage": "ban_bothun"
      },
      {
        "code": 0,
        "type": "City",
        "enNameLanguage": "Ban Hinlon",
        "location": {
          "lat": 18.4362924,
          "lng": 104.4723301
        },
        "keyAccentLanguage": "ban_hinlon"
      },
      {
        "code": 0,
        "type": "City",
        "enNameLanguage": "Ban Kang",
        "location": {
          "lat": 18.4362924,
          "lng": 104.4723301
        },
        "keyAccentLanguage": "ban_kang"
      },
      {
        "code": 0,
        "type": "City",
        "enNameLanguage": "Ban Hat Bo",
        "location": {
          "lat": 18.4362924,
          "lng": 104.4723301
        },
        "keyAccentLanguage": "ban_hat_bo"
      },
      {
        "code": 0,
        "type": "City",
        "enNameLanguage": "Ban Boki",
        "location": {
          "lat": 18.4362924,
          "lng": 104.4723301
        },
        "keyAccentLanguage": "ban_boki"
      },
      {
        "code": 0,
        "type": "City",
        "enNameLanguage": "Ban Hattao",
        "location": {
          "lat": 18.4362924,
          "lng": 104.4723301
        },
        "keyAccentLanguage": "ban_hattao"
      },
      {
        "code": 0,
        "type": "City",
        "enNameLanguage": "Ban Hangxing",
        "location": {
          "lat": 18.4362924,
          "lng": 104.4723301
        },
        "keyAccentLanguage": "ban_hangxing"
      },
      {
        "code": 0,
        "type": "City",
        "enNameLanguage": "Ban Kengbay",
        "location": {
          "lat": 18.4362924,
          "lng": 104.4723301
        },
        "keyAccentLanguage": "ban_kengbay"
      },
      {
        "code": 0,
        "type": "City",
        "enNameLanguage": "Ban Houay-O",
        "location": {
          "lat": 18.4362924,
          "lng": 104.4723301
        },
        "keyAccentLanguage": "ban_houay-o"
      },
      {
        "code": 0,
        "type": "City",
        "enNameLanguage": "Ban Hatkonong",
        "location": {
          "lat": 18.5173,
          "lng": 104.1464
        },
        "keyAccentLanguage": "ban_hatkonong"
      },
      {
        "code": 0,
        "type": "City",
        "enNameLanguage": "Ban Khonkhoang",
        "location": {
          "lat": 18.4362924,
          "lng": 104.4723301
        },
        "keyAccentLanguage": "ban_khonkhoang"
      },
      {
        "code": 0,
        "type": "City",
        "enNameLanguage": "Ban Hatbay (1)",
        "location": {
          "lat": 18.666667,
          "lng": 103.783333
        },
        "keyAccentLanguage": "ban_hatbay_(1)"
      },
      {
        "code": 0,
        "type": "City",
        "enNameLanguage": "Ban Hatpakmut",
        "location": {
          "lat": 18.4362924,
          "lng": 104.4723301
        },
        "keyAccentLanguage": "ban_hatpakmut"
      },
      {
        "code": 0,
        "type": "City",
        "enNameLanguage": "Ban Houaykeo",
        "location": {
          "lat": 18.4362924,
          "lng": 104.4723301
        },
        "keyAccentLanguage": "ban_houaykeo"
      },
      {
        "code": 0,
        "type": "City",
        "enNameLanguage": "Ban Houayka",
        "location": {
          "lat": 18.4362924,
          "lng": 104.4723301
        },
        "keyAccentLanguage": "ban_houayka"
      },
      {
        "code": 0,
        "type": "City",
        "enNameLanguage": "Ban Houaypoung",
        "location": {
          "lat": 18.4362924,
          "lng": 104.4723301
        },
        "keyAccentLanguage": "ban_houaypoung"
      },
      {
        "code": 0,
        "type": "City",
        "enNameLanguage": "Ban Boung",
        "location": {
          "lat": 18.4362924,
          "lng": 104.4723301
        },
        "keyAccentLanguage": "ban_boung"
      },
      {
        "code": 0,
        "type": "City",
        "enNameLanguage": "Ban Houay Khio",
        "location": {
          "lat": 18.4362924,
          "lng": 104.4723301
        },
        "keyAccentLanguage": "ban_houay_khio"
      },
      {
        "code": 0,
        "type": "City",
        "enNameLanguage": "Ban Hat-It-Et",
        "location": {
          "lat": 18.4362924,
          "lng": 104.4723301
        },
        "keyAccentLanguage": "ban_hat-it-et"
      },
      {
        "code": 0,
        "type": "City",
        "enNameLanguage": "Ban Houay Khang",
        "location": {
          "lat": 18.466667,
          "lng": 104.733333
        },
        "keyAccentLanguage": "ban_houay_khang"
      },
      {
        "code": 0,
        "type": "City",
        "enNameLanguage": "Ban Kagna",
        "location": {
          "lat": 18.4362924,
          "lng": 104.4723301
        },
        "keyAccentLanguage": "ban_kagna"
      },
      {
        "code": 0,
        "type": "City",
        "enNameLanguage": "Ban Khammouan",
        "location": {
          "lat": 18.4362924,
          "lng": 104.4723301
        },
        "keyAccentLanguage": "ban_khammouan"
      },
      {
        "code": 0,
        "type": "City",
        "enNameLanguage": "Ban Houay-Hoy",
        "location": {
          "lat": 18.4362924,
          "lng": 104.4723301
        },
        "keyAccentLanguage": "ban_houay-hoy"
      },
      {
        "code": 0,
        "type": "City",
        "enNameLanguage": "Ban Hatkhipheung",
        "location": {
          "lat": 18.4362924,
          "lng": 104.4723301
        },
        "keyAccentLanguage": "ban_hatkhipheung"
      },
      {
        "code": 0,
        "type": "City",
        "enNameLanguage": "Ban Jao",
        "location": {
          "lat": 18.4362924,
          "lng": 104.4723301
        },
        "keyAccentLanguage": "ban_jao"
      },
      {
        "code": 0,
        "type": "City",
        "enNameLanguage": "Ban Heuana",
        "location": {
          "lat": 18.4362924,
          "lng": 104.4723301
        },
        "keyAccentLanguage": "ban_heuana"
      },
      {
        "code": 0,
        "type": "City",
        "enNameLanguage": "Ban Kengkang",
        "location": {
          "lat": 18.4362924,
          "lng": 104.4723301
        },
        "keyAccentLanguage": "ban_kengkang"
      },
      {
        "code": 0,
        "type": "City",
        "enNameLanguage": "Ban Kang-Na",
        "location": {
          "lat": 18.4362924,
          "lng": 104.4723301
        },
        "keyAccentLanguage": "ban_kang-na"
      },
      {
        "code": 0,
        "type": "City",
        "enNameLanguage": "Ban Kapap",
        "location": {
          "lat": 18.4362924,
          "lng": 104.4723301
        },
        "keyAccentLanguage": "ban_kapap"
      },
      {
        "code": 0,
        "type": "City",
        "enNameLanguage": "Pakxan",
        "location": {
          "lat": 18.3983133,
          "lng": 103.6652162
        },
        "keyAccentLanguage": "pakxan"
      },
      {
        "code": 0,
        "type": "City",
        "enNameLanguage": "Ban Hatsoup",
        "location": {
          "lat": 18.4362924,
          "lng": 104.4723301
        },
        "keyAccentLanguage": "ban_hatsoup"
      },
      {
        "code": 0,
        "type": "City",
        "enNameLanguage": "Ban Hatpan",
        "location": {
          "lat": 18.683333,
          "lng": 104.1
        },
        "keyAccentLanguage": "ban_hatpan"
      },
      {
        "code": 0,
        "type": "City",
        "enNameLanguage": "Ban Pakha",
        "location": {
          "lat": 18.22879,
          "lng": 104.7061
        },
        "keyAccentLanguage": "ban_pakha"
      },
      {
        "code": 0,
        "type": "City",
        "enNameLanguage": "Ban Hat Sai Sun",
        "location": {
          "lat": 18.616667,
          "lng": 104.016667
        },
        "keyAccentLanguage": "ban_hat_sai_sun"
      },
      {
        "code": 0,
        "type": "City",
        "enNameLanguage": "Ban Sopchat",
        "location": {
          "lat": 18.448721,
          "lng": 104.882301
        },
        "keyAccentLanguage": "ban_sopchat"
      },
      {
        "code": 0,
        "type": "City",
        "enNameLanguage": "Ban Hinpen",
        "location": {
          "lat": 18.5926377,
          "lng": 104.7221989
        },
        "keyAccentLanguage": "ban_hinpen"
      },
      {
        "code": 0,
        "type": "City",
        "enNameLanguage": "Ban Kouanchan",
        "location": {
          "lat": 18.4362924,
          "lng": 104.4723301
        },
        "keyAccentLanguage": "ban_kouanchan"
      },
      {
        "code": 0,
        "type": "City",
        "enNameLanguage": "Ban Khanglek",
        "location": {
          "lat": 18.4362924,
          "lng": 104.4723301
        },
        "keyAccentLanguage": "ban_khanglek"
      },
      {
        "code": 0,
        "type": "City",
        "enNameLanguage": "Ban Hatbay (2)",
        "location": {
          "lat": 18.666667,
          "lng": 103.783333
        },
        "keyAccentLanguage": "ban_hatbay_(2)"
      },
      {
        "code": 0,
        "type": "City",
        "enNameLanguage": "Ban Hatdua",
        "location": {
          "lat": 18.4362924,
          "lng": 104.4723301
        },
        "keyAccentLanguage": "ban_hatdua"
      },
      {
        "code": 0,
        "type": "City",
        "enNameLanguage": "Ban Chakou",
        "location": {
          "lat": 18.4362924,
          "lng": 104.4723301
        },
        "keyAccentLanguage": "ban_chakou"
      },
      {
        "code": 0,
        "type": "City",
        "enNameLanguage": "Ban Keng Mot",
        "location": {
          "lat": 18.6873002,
          "lng": 104.6744516
        },
        "keyAccentLanguage": "ban_keng_mot"
      },
      {
        "code": 0,
        "type": "City",
        "enNameLanguage": "Ban Hong Thong",
        "location": {
          "lat": 18.4362924,
          "lng": 104.4723301
        },
        "keyAccentLanguage": "ban_hong_thong"
      },
      {
        "code": 0,
        "type": "City",
        "enNameLanguage": "Ban Thana",
        "location": {
          "lat": 18.3536,
          "lng": 103.784599
        },
        "keyAccentLanguage": "ban_thana"
      },
      {
        "code": 0,
        "type": "City",
        "enNameLanguage": "Ban Hatkhai",
        "location": {
          "lat": 18.4362924,
          "lng": 104.4723301
        },
        "keyAccentLanguage": "ban_hatkhai"
      },
      {
        "code": 0,
        "type": "City",
        "enNameLanguage": "Ban Ho Leuan Noi",
        "location": {
          "lat": 18.4362924,
          "lng": 104.4723301
        },
        "keyAccentLanguage": "ban_ho_leuan_noi"
      },
      {
        "code": 0,
        "type": "City",
        "enNameLanguage": "Ban Ka Long",
        "location": {
          "lat": 18.5924489,
          "lng": 105.034698
        },
        "keyAccentLanguage": "ban_ka_long"
      },
      {
        "code": 0,
        "type": "City",
        "enNameLanguage": "Ban Kangkuang",
        "location": {
          "lat": 18.4362924,
          "lng": 104.4723301
        },
        "keyAccentLanguage": "ban_kangkuang"
      },
      {
        "code": 0,
        "type": "City",
        "enNameLanguage": "Pakkading",
        "location": {
          "lat": 18.3302433,
          "lng": 103.9985288
        },
        "keyAccentLanguage": "pakkading"
      },
      {
        "code": 0,
        "type": "City",
        "enNameLanguage": "Ban Khontao",
        "location": {
          "lat": 18.4362924,
          "lng": 104.4723301
        },
        "keyAccentLanguage": "ban_khontao"
      },
      {
        "code": 0,
        "type": "City",
        "enNameLanguage": "Ban Hatkham",
        "location": {
          "lat": 18.65276,
          "lng": 103.5933
        },
        "keyAccentLanguage": "ban_hatkham"
      },
      {
        "code": 0,
        "type": "City",
        "enNameLanguage": "Ban Khamphai",
        "location": {
          "lat": 18.4362924,
          "lng": 104.4723301
        },
        "keyAccentLanguage": "ban_khamphai"
      },
      {
        "code": 0,
        "type": "City",
        "enNameLanguage": "Ban Thong-Noy",
        "location": {
          "lat": 18.0609,
          "lng": 104.170197
        },
        "keyAccentLanguage": "ban_thong-noy"
      },
      {
        "code": 0,
        "type": "City",
        "enNameLanguage": "Ban Kokkham",
        "location": {
          "lat": 18.4362924,
          "lng": 104.4723301
        },
        "keyAccentLanguage": "ban_kokkham"
      },
      {
        "code": 0,
        "type": "City",
        "enNameLanguage": "Ban Kaluang",
        "location": {
          "lat": 18.4362924,
          "lng": 104.4723301
        },
        "keyAccentLanguage": "ban_kaluang"
      },
      {
        "code": 0,
        "type": "City",
        "enNameLanguage": "Ban Kham Bone",
        "location": {
          "lat": 18.4362924,
          "lng": 104.4723301
        },
        "keyAccentLanguage": "ban_kham_bone"
      },
      {
        "code": 0,
        "type": "City",
        "enNameLanguage": "Ban Kengkouang",
        "location": {
          "lat": 18.4362924,
          "lng": 104.4723301
        },
        "keyAccentLanguage": "ban_kengkouang"
      },
      {
        "code": 0,
        "type": "City",
        "enNameLanguage": "Ban Hatniao",
        "location": {
          "lat": 18.4362924,
          "lng": 104.4723301
        },
        "keyAccentLanguage": "ban_hatniao"
      },
      {
        "code": 0,
        "type": "City",
        "enNameLanguage": "Ban Kongphat",
        "location": {
          "lat": 18.4362924,
          "lng": 104.4723301
        },
        "keyAccentLanguage": "ban_kongphat"
      },
      {
        "code": 0,
        "type": "City",
        "enNameLanguage": "Ban Kem Duoc",
        "location": {
          "lat": 18.6806007,
          "lng": 104.7630326
        },
        "keyAccentLanguage": "ban_kem_duoc"
      },
      {
        "code": 0,
        "type": "City",
        "enNameLanguage": "Ban Khonken",
        "location": {
          "lat": 16.432153,
          "lng": 102.8235572
        },
        "keyAccentLanguage": "ban_khonken"
      },
      {
        "code": 0,
        "type": "City",
        "enNameLanguage": "Ban Kaan",
        "location": {
          "lat": 18.4362924,
          "lng": 104.4723301
        },
        "keyAccentLanguage": "ban_kaan"
      },
      {
        "code": 0,
        "type": "City",
        "enNameLanguage": "Ban Naxon",
        "location": {
          "lat": 18.53734,
          "lng": 104.511002
        },
        "keyAccentLanguage": "ban_naxon"
      },
      {
        "code": 0,
        "type": "City",
        "enNameLanguage": "Ban Houaynamleuk",
        "location": {
          "lat": 18.4362924,
          "lng": 104.4723301
        },
        "keyAccentLanguage": "ban_houaynamleuk"
      },
      {
        "code": 0,
        "type": "City",
        "enNameLanguage": "Ban Nape",
        "location": {
          "lat": 18.30217,
          "lng": 105.073303
        },
        "keyAccentLanguage": "ban_nape"
      },
      {
        "code": 0,
        "type": "City",
        "enNameLanguage": "Ban Thabok",
        "location": {
          "lat": 18.37348,
          "lng": 103.2050019
        },
        "keyAccentLanguage": "ban_thabok"
      },
      {
        "code": 0,
        "type": "City",
        "enNameLanguage": "Ban Houay Sophay",
        "location": {
          "lat": 18.2210823,
          "lng": 103.1410117
        },
        "keyAccentLanguage": "ban_houay_sophay"
      },
      {
        "code": 0,
        "type": "City",
        "enNameLanguage": "Ban Ho Leuan",
        "location": {
          "lat": 18.4362924,
          "lng": 104.4723301
        },
        "keyAccentLanguage": "ban_ho_leuan"
      },
      {
        "code": 0,
        "type": "City",
        "enNameLanguage": "Ban Keng-Louang",
        "location": {
          "lat": 18.6873002,
          "lng": 104.6744516
        },
        "keyAccentLanguage": "ban_keng-louang"
      },
      {
        "code": 0,
        "type": "City",
        "enNameLanguage": "Ban Keng Mo Mi",
        "location": {
          "lat": 18.6873002,
          "lng": 104.6744516
        },
        "keyAccentLanguage": "ban_keng_mo_mi"
      },
      {
        "code": 0,
        "type": "City",
        "enNameLanguage": "Ban Kengsout",
        "location": {
          "lat": 18.4362924,
          "lng": 104.4723301
        },
        "keyAccentLanguage": "ban_kengsout"
      },
      {
        "code": 0,
        "type": "City",
        "enNameLanguage": "Ban Khouasoung",
        "location": {
          "lat": 18.216667,
          "lng": 104.816667
        },
        "keyAccentLanguage": "ban_khouasoung"
      },
      {
        "code": 0,
        "type": "City",
        "enNameLanguage": "Ban Hatmakphang",
        "location": {
          "lat": 18.4362924,
          "lng": 104.4723301
        },
        "keyAccentLanguage": "ban_hatmakphang"
      },
      {
        "code": 0,
        "type": "City",
        "enNameLanguage": "Ban Sopxay",
        "location": {
          "lat": 18.45993,
          "lng": 104.345596
        },
        "keyAccentLanguage": "ban_sopxay"
      },
      {
        "code": 0,
        "type": "City",
        "enNameLanguage": "Ban Kokfuang",
        "location": {
          "lat": 18.4362924,
          "lng": 104.4723301
        },
        "keyAccentLanguage": "ban_kokfuang"
      },
      {
        "code": 0,
        "type": "City",
        "enNameLanguage": "Ban Lakxao",
        "location": {
          "lat": 18.1949209,
          "lng": 104.9680914
        },
        "keyAccentLanguage": "ban_lakxao"
      },
      {
        "code": 0,
        "type": "City",
        "enNameLanguage": "Borikhan",
        "location": {
          "lat": 18.5611817,
          "lng": 103.7216765
        },
        "keyAccentLanguage": "borikhan"
      },
      {
        "code": 0,
        "type": "City",
        "enNameLanguage": "Ban Na Inh Noi",
        "location": {
          "lat": 18.228239,
          "lng": 104.2081989
        },
        "keyAccentLanguage": "ban_na_inh_noi"
      },
      {
        "code": 0,
        "type": "City",
        "enNameLanguage": "Ban Kenglat",
        "location": {
          "lat": 18.4362924,
          "lng": 104.4723301
        },
        "keyAccentLanguage": "ban_kenglat"
      },
      {
        "code": 0,
        "type": "City",
        "enNameLanguage": "Ban Hatxaykham",
        "location": {
          "lat": 18.2982183,
          "lng": 104.0391615
        },
        "keyAccentLanguage": "ban_hatxaykham"
      },
      {
        "code": 0,
        "type": "City",
        "enNameLanguage": "Ban Khouapen",
        "location": {
          "lat": 18.4362924,
          "lng": 104.4723301
        },
        "keyAccentLanguage": "ban_khouapen"
      },
      {
        "code": 0,
        "type": "City",
        "enNameLanguage": "Ban Gnoyhai",
        "location": {
          "lat": 18.45,
          "lng": 103.35
        },
        "keyAccentLanguage": "ban_gnoyhai"
      },
      {
        "code": 0,
        "type": "City",
        "enNameLanguage": "Ban Kokkhay",
        "location": {
          "lat": 18.631781,
          "lng": 104.659103
        },
        "keyAccentLanguage": "ban_kokkhay"
      },
      {
        "code": 0,
        "type": "City",
        "enNameLanguage": "Ban Keokhanxang",
        "location": {
          "lat": 18.4362924,
          "lng": 104.4723301
        },
        "keyAccentLanguage": "ban_keokhanxang"
      },
      {
        "code": 0,
        "type": "City",
        "enNameLanguage": "Ban Kham Mouang",
        "location": {
          "lat": 18.4362924,
          "lng": 104.4723301
        },
        "keyAccentLanguage": "ban_kham_mouang"
      },
      {
        "code": 0,
        "type": "City",
        "enNameLanguage": "Ban Phayat",
        "location": {
          "lat": 18.15205,
          "lng": 104.8964
        },
        "keyAccentLanguage": "ban_phayat"
      },
      {
        "code": 0,
        "type": "City",
        "enNameLanguage": "Ban Kenghua",
        "location": {
          "lat": 18.2465248,
          "lng": 104.6084137
        },
        "keyAccentLanguage": "ban_kenghua"
      },
      {
        "code": 0,
        "type": "City",
        "enNameLanguage": "Ban Kengxoun",
        "location": {
          "lat": 18.4362924,
          "lng": 104.4723301
        },
        "keyAccentLanguage": "ban_kengxoun"
      },
      {
        "code": 0,
        "type": "City",
        "enNameLanguage": "Ban Sopsang",
        "location": {
          "lat": 18.63143,
          "lng": 104.7938
        },
        "keyAccentLanguage": "ban_sopsang"
      },
      {
        "code": 0,
        "type": "City",
        "enNameLanguage": "Ban Kokdua",
        "location": {
          "lat": 18.4362924,
          "lng": 104.4723301
        },
        "keyAccentLanguage": "ban_kokdua"
      },
      {
        "code": 0,
        "type": "City",
        "enNameLanguage": "Ban Kengbit",
        "location": {
          "lat": 18.25,
          "lng": 104.566667
        },
        "keyAccentLanguage": "ban_kengbit"
      },
      {
        "code": 0,
        "type": "City",
        "enNameLanguage": "Ban Katoy",
        "location": {
          "lat": 18.4362924,
          "lng": 104.4723301
        },
        "keyAccentLanguage": "ban_katoy"
      },
      {
        "code": 0,
        "type": "City",
        "enNameLanguage": "Ban Houaynong",
        "location": {
          "lat": 18.4362924,
          "lng": 104.4723301
        },
        "keyAccentLanguage": "ban_houaynong"
      }
    ],
    "enNameLanguage": "Bolikhamxai",
    "keyAccentLanguage": "bolikhamxai"
  },
  {
    "code": 0,
    "type": "State",
    "location": {
      "lat": 14.9030362,
      "lng": 105.8642593
    },
    "districtList": [
      {
        "code": 0,
        "type": "City",
        "enNameLanguage": "Ban Chak",
        "location": {
          "lat": 14.283333,
          "lng": 105.416667
        },
        "keyAccentLanguage": "ban_chak"
      },
      {
        "code": 0,
        "type": "City",
        "enNameLanguage": "Ban Dou",
        "location": {
          "lat": 14.9030362,
          "lng": 105.8642593
        },
        "keyAccentLanguage": "ban_dou"
      },
      {
        "code": 0,
        "type": "City",
        "enNameLanguage": "Ban Boun",
        "location": {
          "lat": 14.213975,
          "lng": 105.82134
        },
        "keyAccentLanguage": "ban_boun"
      },
      {
        "code": 0,
        "type": "City",
        "enNameLanguage": "Ban Dondou",
        "location": {
          "lat": 14.9030362,
          "lng": 105.8642593
        },
        "keyAccentLanguage": "ban_dondou"
      },
      {
        "code": 0,
        "type": "City",
        "enNameLanguage": "Ban Champi",
        "location": {
          "lat": 14.9030362,
          "lng": 105.8642593
        },
        "keyAccentLanguage": "ban_champi"
      },
      {
        "code": 0,
        "type": "City",
        "enNameLanguage": "Ban Boungkha",
        "location": {
          "lat": 14.9030362,
          "lng": 105.8642593
        },
        "keyAccentLanguage": "ban_boungkha"
      },
      {
        "code": 0,
        "type": "City",
        "enNameLanguage": "Ban Dongsa",
        "location": {
          "lat": 14.9030362,
          "lng": 105.8642593
        },
        "keyAccentLanguage": "ban_dongsa"
      },
      {
        "code": 0,
        "type": "City",
        "enNameLanguage": "Ban Bok",
        "location": {
          "lat": 14.9030362,
          "lng": 105.8642593
        },
        "keyAccentLanguage": "ban_bok"
      },
      {
        "code": 0,
        "type": "City",
        "enNameLanguage": "Ban Don-Het",
        "location": {
          "lat": 14.1841934,
          "lng": 105.7431858
        },
        "keyAccentLanguage": "ban_don-het"
      },
      {
        "code": 0,
        "type": "City",
        "enNameLanguage": "Ban Boungkhe",
        "location": {
          "lat": 14.9030362,
          "lng": 105.8642593
        },
        "keyAccentLanguage": "ban_boungkhe"
      },
      {
        "code": 0,
        "type": "City",
        "enNameLanguage": "Ban Baktou",
        "location": {
          "lat": 14.9030362,
          "lng": 105.8642593
        },
        "keyAccentLanguage": "ban_baktou"
      },
      {
        "code": 0,
        "type": "City",
        "enNameLanguage": "Ban Dinchi",
        "location": {
          "lat": 14.9030362,
          "lng": 105.8642593
        },
        "keyAccentLanguage": "ban_dinchi"
      },
      {
        "code": 0,
        "type": "City",
        "enNameLanguage": "Ban Dong",
        "location": {
          "lat": 14.9030362,
          "lng": 105.8642593
        },
        "keyAccentLanguage": "ban_dong"
      },
      {
        "code": 0,
        "type": "City",
        "enNameLanguage": "Ban Bangsai",
        "location": {
          "lat": 14.9030362,
          "lng": 105.8642593
        },
        "keyAccentLanguage": "ban_bangsai"
      },
      {
        "code": 0,
        "type": "City",
        "enNameLanguage": "Ban Chan Noy",
        "location": {
          "lat": 14.9030362,
          "lng": 105.8642593
        },
        "keyAccentLanguage": "ban_chan_noy"
      },
      {
        "code": 0,
        "type": "City",
        "enNameLanguage": "Ban Donphouan",
        "location": {
          "lat": 14.9030362,
          "lng": 105.8642593
        },
        "keyAccentLanguage": "ban_donphouan"
      },
      {
        "code": 0,
        "type": "City",
        "enNameLanguage": "Ban Dongsang",
        "location": {
          "lat": 14.9030362,
          "lng": 105.8642593
        },
        "keyAccentLanguage": "ban_dongsang"
      },
      {
        "code": 0,
        "type": "City",
        "enNameLanguage": "Ban Bua Ngam",
        "location": {
          "lat": 14.9030362,
          "lng": 105.8642593
        },
        "keyAccentLanguage": "ban_bua_ngam"
      },
      {
        "code": 0,
        "type": "City",
        "enNameLanguage": "Ban Boungmai",
        "location": {
          "lat": 14.983333,
          "lng": 105.8
        },
        "keyAccentLanguage": "ban_boungmai"
      },
      {
        "code": 0,
        "type": "City",
        "enNameLanguage": "Ban Chik (2)",
        "location": {
          "lat": 14.9030362,
          "lng": 105.8642593
        },
        "keyAccentLanguage": "ban_chik_(2)"
      },
      {
        "code": 0,
        "type": "City",
        "enNameLanguage": "Ban Donkoy",
        "location": {
          "lat": 14.9030362,
          "lng": 105.8642593
        },
        "keyAccentLanguage": "ban_donkoy"
      },
      {
        "code": 0,
        "type": "City",
        "enNameLanguage": "Ban Don-Hi",
        "location": {
          "lat": 14.1666667,
          "lng": 105.7811111
        },
        "keyAccentLanguage": "ban_don-hi"
      },
      {
        "code": 0,
        "type": "City",
        "enNameLanguage": "Ban Boungkeo",
        "location": {
          "lat": 14.9030362,
          "lng": 105.8642593
        },
        "keyAccentLanguage": "ban_boungkeo"
      },
      {
        "code": 0,
        "type": "City",
        "enNameLanguage": "Ban Hangdon",
        "location": {
          "lat": 14.53385,
          "lng": 105.8787
        },
        "keyAccentLanguage": "ban_hangdon"
      },
      {
        "code": 0,
        "type": "City",
        "enNameLanguage": "Ban Choung",
        "location": {
          "lat": 14.9030362,
          "lng": 105.8642593
        },
        "keyAccentLanguage": "ban_choung"
      },
      {
        "code": 0,
        "type": "City",
        "enNameLanguage": "Ban Bakkut",
        "location": {
          "lat": 14.9030362,
          "lng": 105.8642593
        },
        "keyAccentLanguage": "ban_bakkut"
      },
      {
        "code": 0,
        "type": "City",
        "enNameLanguage": "Ban Donkao (2)",
        "location": {
          "lat": 14.9030362,
          "lng": 105.8642593
        },
        "keyAccentLanguage": "ban_donkao_(2)"
      },
      {
        "code": 0,
        "type": "City",
        "enNameLanguage": "Ban Gnik",
        "location": {
          "lat": 15.16453,
          "lng": 106.063004
        },
        "keyAccentLanguage": "ban_gnik"
      },
      {
        "code": 0,
        "type": "City",
        "enNameLanguage": "Ban Bounghao",
        "location": {
          "lat": 14.9030362,
          "lng": 105.8642593
        },
        "keyAccentLanguage": "ban_bounghao"
      },
      {
        "code": 0,
        "type": "City",
        "enNameLanguage": "Ban Donkhe",
        "location": {
          "lat": 14.9030362,
          "lng": 105.8642593
        },
        "keyAccentLanguage": "ban_donkhe"
      },
      {
        "code": 0,
        "type": "City",
        "enNameLanguage": "Ban Bangliang",
        "location": {
          "lat": 14.98111,
          "lng": 105.9157029
        },
        "keyAccentLanguage": "ban_bangliang"
      },
      {
        "code": 0,
        "type": "City",
        "enNameLanguage": "Ban Hai",
        "location": {
          "lat": 14.9030362,
          "lng": 105.8642593
        },
        "keyAccentLanguage": "ban_hai"
      },
      {
        "code": 0,
        "type": "City",
        "enNameLanguage": "Ban Donnam",
        "location": {
          "lat": 14.9030362,
          "lng": 105.8642593
        },
        "keyAccentLanguage": "ban_donnam"
      },
      {
        "code": 0,
        "type": "City",
        "enNameLanguage": "Ban Donggnang",
        "location": {
          "lat": 14.9030362,
          "lng": 105.8642593
        },
        "keyAccentLanguage": "ban_donggnang"
      },
      {
        "code": 0,
        "type": "City",
        "enNameLanguage": "Ban Boung",
        "location": {
          "lat": 14.816667,
          "lng": 105.783333
        },
        "keyAccentLanguage": "ban_boung"
      },
      {
        "code": 0,
        "type": "City",
        "enNameLanguage": "Ban Donkaixao",
        "location": {
          "lat": 14.9030362,
          "lng": 105.8642593
        },
        "keyAccentLanguage": "ban_donkaixao"
      },
      {
        "code": 0,
        "type": "City",
        "enNameLanguage": "Ban Dongkem",
        "location": {
          "lat": 14.9030362,
          "lng": 105.8642593
        },
        "keyAccentLanguage": "ban_dongkem"
      },
      {
        "code": 0,
        "type": "City",
        "enNameLanguage": "Ban Chankiao",
        "location": {
          "lat": 14.9030362,
          "lng": 105.8642593
        },
        "keyAccentLanguage": "ban_chankiao"
      },
      {
        "code": 0,
        "type": "City",
        "enNameLanguage": "Ban Chik (1)",
        "location": {
          "lat": 14.9030362,
          "lng": 105.8642593
        },
        "keyAccentLanguage": "ban_chik_(1)"
      },
      {
        "code": 0,
        "type": "City",
        "enNameLanguage": "Ban Done Mak Eoh",
        "location": {
          "lat": 14.9030362,
          "lng": 105.8642593
        },
        "keyAccentLanguage": "ban_done_mak_eoh"
      },
      {
        "code": 0,
        "type": "City",
        "enNameLanguage": "Champasak",
        "location": {
          "lat": 14.9030362,
          "lng": 105.8642593
        },
        "keyAccentLanguage": "champasak"
      },
      {
        "code": 0,
        "type": "City",
        "enNameLanguage": "Ban Duatia",
        "location": {
          "lat": 14.9030362,
          "lng": 105.8642593
        },
        "keyAccentLanguage": "ban_duatia"
      },
      {
        "code": 0,
        "type": "City",
        "enNameLanguage": "Ban Donsan",
        "location": {
          "lat": 14.2514569,
          "lng": 105.843708
        },
        "keyAccentLanguage": "ban_donsan"
      },
      {
        "code": 0,
        "type": "City",
        "enNameLanguage": "Ban Chong-Ang",
        "location": {
          "lat": 14.6578664,
          "lng": 105.9699878
        },
        "keyAccentLanguage": "ban_chong-ang"
      },
      {
        "code": 0,
        "type": "City",
        "enNameLanguage": "Ban Donkong",
        "location": {
          "lat": 14.6578664,
          "lng": 105.9699878
        },
        "keyAccentLanguage": "ban_donkong"
      },
      {
        "code": 0,
        "type": "City",
        "enNameLanguage": "Ban Hangdonhet",
        "location": {
          "lat": 14.9030362,
          "lng": 105.8642593
        },
        "keyAccentLanguage": "ban_hangdonhet"
      },
      {
        "code": 0,
        "type": "City",
        "enNameLanguage": "Ban Doutholathi",
        "location": {
          "lat": 14.9030362,
          "lng": 105.8642593
        },
        "keyAccentLanguage": "ban_doutholathi"
      },
      {
        "code": 0,
        "type": "City",
        "enNameLanguage": "Ban Donkhamao",
        "location": {
          "lat": 14.9030362,
          "lng": 105.8642593
        },
        "keyAccentLanguage": "ban_donkhamao"
      },
      {
        "code": 0,
        "type": "City",
        "enNameLanguage": "Ban Donkao (1)",
        "location": {
          "lat": 14.9030362,
          "lng": 105.8642593
        },
        "keyAccentLanguage": "ban_donkao_(1)"
      },
      {
        "code": 0,
        "type": "City",
        "enNameLanguage": "Ban Donsan-Tavan-Ok",
        "location": {
          "lat": 14.2514569,
          "lng": 105.843708
        },
        "keyAccentLanguage": "ban_donsan-tavan-ok"
      },
      {
        "code": 0,
        "type": "City",
        "enNameLanguage": "Phiafai",
        "location": {
          "lat": 14.9030362,
          "lng": 105.8642593
        },
        "keyAccentLanguage": "phiafai"
      },
      {
        "code": 0,
        "type": "City",
        "enNameLanguage": "Ban Donsang",
        "location": {
          "lat": 14.9030362,
          "lng": 105.8642593
        },
        "keyAccentLanguage": "ban_donsang"
      },
      {
        "code": 0,
        "type": "City",
        "enNameLanguage": "Ban Dua Tay",
        "location": {
          "lat": 14.9030362,
          "lng": 105.8642593
        },
        "keyAccentLanguage": "ban_dua_tay"
      },
      {
        "code": 0,
        "type": "City",
        "enNameLanguage": "Ban Donsom",
        "location": {
          "lat": 14.0495851,
          "lng": 105.8701316
        },
        "keyAccentLanguage": "ban_donsom"
      },
      {
        "code": 0,
        "type": "City",
        "enNameLanguage": "Ban Hangkhong",
        "location": {
          "lat": 14.9030362,
          "lng": 105.8642593
        },
        "keyAccentLanguage": "ban_hangkhong"
      },
      {
        "code": 0,
        "type": "City",
        "enNameLanguage": "Ban Donghoy",
        "location": {
          "lat": 14.9030362,
          "lng": 105.8642593
        },
        "keyAccentLanguage": "ban_donghoy"
      },
      {
        "code": 0,
        "type": "City",
        "enNameLanguage": "Ban Donsan-Ban Noy",
        "location": {
          "lat": 14.2514569,
          "lng": 105.843708
        },
        "keyAccentLanguage": "ban_donsan-ban_noy"
      },
      {
        "code": 0,
        "type": "City",
        "enNameLanguage": "Ban Donkho",
        "location": {
          "lat": 15.1519444,
          "lng": 105.7386111
        },
        "keyAccentLanguage": "ban_donkho"
      },
      {
        "code": 0,
        "type": "City",
        "enNameLanguage": "Ban Don-Hithat",
        "location": {
          "lat": 14.9030362,
          "lng": 105.8642593
        },
        "keyAccentLanguage": "ban_don-hithat"
      },
      {
        "code": 0,
        "type": "City",
        "enNameLanguage": "Ban Changhouay",
        "location": {
          "lat": 14.9030362,
          "lng": 105.8642593
        },
        "keyAccentLanguage": "ban_changhouay"
      },
      {
        "code": 0,
        "type": "City",
        "enNameLanguage": "Ban Donpuay (2)",
        "location": {
          "lat": 13.9991667,
          "lng": 105.8769444
        },
        "keyAccentLanguage": "ban_donpuay_(2)"
      },
      {
        "code": 0,
        "type": "City",
        "enNameLanguage": "Muang Phonthong",
        "location": {
          "lat": 15.09918,
          "lng": 105.657501
        },
        "keyAccentLanguage": "muang_phonthong"
      },
      {
        "code": 0,
        "type": "City",
        "enNameLanguage": "Ban Dua Nua",
        "location": {
          "lat": 15.25,
          "lng": 105.8
        },
        "keyAccentLanguage": "ban_dua_nua"
      },
      {
        "code": 0,
        "type": "City",
        "enNameLanguage": "Ban Donpuay (1)",
        "location": {
          "lat": 13.9991667,
          "lng": 105.8769444
        },
        "keyAccentLanguage": "ban_donpuay_(1)"
      },
      {
        "code": 0,
        "type": "City",
        "enNameLanguage": "Pakse",
        "location": {
          "lat": 15.1171823,
          "lng": 105.8159045
        },
        "keyAccentLanguage": "pakse"
      },
      {
        "code": 0,
        "type": "City",
        "enNameLanguage": "Ban Donxe",
        "location": {
          "lat": 14.9030362,
          "lng": 105.8642593
        },
        "keyAccentLanguage": "ban_donxe"
      },
      {
        "code": 0,
        "type": "City",
        "enNameLanguage": "Ban Dontan",
        "location": {
          "lat": 14.9030362,
          "lng": 105.8642593
        },
        "keyAccentLanguage": "ban_dontan"
      },
      {
        "code": 0,
        "type": "City",
        "enNameLanguage": "Ban Hang-Loppadi",
        "location": {
          "lat": 14.9030362,
          "lng": 105.8642593
        },
        "keyAccentLanguage": "ban_hang-loppadi"
      },
      {
        "code": 0,
        "type": "City",
        "enNameLanguage": "Ban Houaykong",
        "location": {
          "lat": 15.12132,
          "lng": 106.527
        },
        "keyAccentLanguage": "ban_houaykong"
      },
      {
        "code": 0,
        "type": "City",
        "enNameLanguage": "Ban Hangkhamao",
        "location": {
          "lat": 14.9030362,
          "lng": 105.8642593
        },
        "keyAccentLanguage": "ban_hangkhamao"
      },
      {
        "code": 0,
        "type": "City",
        "enNameLanguage": "Ban Hangdonkoy",
        "location": {
          "lat": 14.9030362,
          "lng": 105.8642593
        },
        "keyAccentLanguage": "ban_hangdonkoy"
      },
      {
        "code": 0,
        "type": "City",
        "enNameLanguage": "Ban Donsadam",
        "location": {
          "lat": 13.9387109,
          "lng": 105.9604404
        },
        "keyAccentLanguage": "ban_donsadam"
      },
      {
        "code": 0,
        "type": "City",
        "enNameLanguage": "Ban Nongsim",
        "location": {
          "lat": 14.78416,
          "lng": 105.976097
        },
        "keyAccentLanguage": "ban_nongsim"
      },
      {
        "code": 0,
        "type": "City",
        "enNameLanguage": "Ban Dontalat",
        "location": {
          "lat": 14.9030362,
          "lng": 105.8642593
        },
        "keyAccentLanguage": "ban_dontalat"
      },
      {
        "code": 0,
        "type": "City",
        "enNameLanguage": "Ban Gnangsao",
        "location": {
          "lat": 14.9030362,
          "lng": 105.8642593
        },
        "keyAccentLanguage": "ban_gnangsao"
      },
      {
        "code": 0,
        "type": "City",
        "enNameLanguage": "Ban Gnang",
        "location": {
          "lat": 14.9030362,
          "lng": 105.8642593
        },
        "keyAccentLanguage": "ban_gnang"
      },
      {
        "code": 0,
        "type": "City",
        "enNameLanguage": "Muang Khong",
        "location": {
          "lat": 14.1175166,
          "lng": 105.8547173
        },
        "keyAccentLanguage": "muang_khong"
      },
      {
        "code": 0,
        "type": "City",
        "enNameLanguage": "Ban Xot",
        "location": {
          "lat": 14.03678,
          "lng": 106.120102
        },
        "keyAccentLanguage": "ban_xot"
      },
      {
        "code": 0,
        "type": "City",
        "enNameLanguage": "Ban Donmakyang",
        "location": {
          "lat": 14.9030362,
          "lng": 105.8642593
        },
        "keyAccentLanguage": "ban_donmakyang"
      },
      {
        "code": 0,
        "type": "City",
        "enNameLanguage": "Ban Donsom Tai",
        "location": {
          "lat": 14.0495851,
          "lng": 105.8701316
        },
        "keyAccentLanguage": "ban_donsom_tai"
      },
      {
        "code": 0,
        "type": "City",
        "enNameLanguage": "Ban Dondet",
        "location": {
          "lat": 13.975873,
          "lng": 105.9200531
        },
        "keyAccentLanguage": "ban_dondet"
      },
      {
        "code": 0,
        "type": "City",
        "enNameLanguage": "Hatxaykhoun",
        "location": {
          "lat": 14.11222,
          "lng": 105.878502
        },
        "keyAccentLanguage": "hatxaykhoun"
      },
      {
        "code": 0,
        "type": "City",
        "enNameLanguage": "Khinak",
        "location": {
          "lat": 14.0446048,
          "lng": 105.9024322
        },
        "keyAccentLanguage": "khinak"
      },
      {
        "code": 0,
        "type": "City",
        "enNameLanguage": "Ban Boun Tai",
        "location": {
          "lat": 14.40946,
          "lng": 105.866111
        },
        "keyAccentLanguage": "ban_boun_tai"
      },
      {
        "code": 0,
        "type": "City",
        "enNameLanguage": "Ban Samkha",
        "location": {
          "lat": 14.68545,
          "lng": 105.800003
        },
        "keyAccentLanguage": "ban_samkha"
      },
      {
        "code": 0,
        "type": "City",
        "enNameLanguage": "Ban Fangdeng",
        "location": {
          "lat": 15.0731442,
          "lng": 105.668747
        },
        "keyAccentLanguage": "ban_fangdeng"
      },
      {
        "code": 0,
        "type": "City",
        "enNameLanguage": "Ban Nongphang",
        "location": {
          "lat": 15.34182,
          "lng": 105.796898
        },
        "keyAccentLanguage": "ban_nongphang"
      },
      {
        "code": 0,
        "type": "City",
        "enNameLanguage": "Muang Pakxong",
        "location": {
          "lat": 15.17964,
          "lng": 106.2379
        },
        "keyAccentLanguage": "muang_pakxong"
      },
      {
        "code": 0,
        "type": "City",
        "enNameLanguage": "Ban Hangdonlekfai",
        "location": {
          "lat": 14.9030362,
          "lng": 105.8642593
        },
        "keyAccentLanguage": "ban_hangdonlekfai"
      },
      {
        "code": 0,
        "type": "City",
        "enNameLanguage": "Ban Nongvian",
        "location": {
          "lat": 14.8523,
          "lng": 105.870796
        },
        "keyAccentLanguage": "ban_nongvian"
      },
      {
        "code": 0,
        "type": "City",
        "enNameLanguage": "Mounlapamok",
        "location": {
          "lat": 14.2798064,
          "lng": 105.5474373
        },
        "keyAccentLanguage": "mounlapamok"
      },
      {
        "code": 0,
        "type": "City",
        "enNameLanguage": "Ban Donxat",
        "location": {
          "lat": 14.9030362,
          "lng": 105.8642593
        },
        "keyAccentLanguage": "ban_donxat"
      },
      {
        "code": 0,
        "type": "City",
        "enNameLanguage": "Ban Bakeng",
        "location": {
          "lat": 15.366667,
          "lng": 106.066667
        },
        "keyAccentLanguage": "ban_bakeng"
      },
      {
        "code": 0,
        "type": "City",
        "enNameLanguage": "Ban Boung",
        "location": {
          "lat": 14.816667,
          "lng": 105.783333
        },
        "keyAccentLanguage": "ban_boung"
      },
      {
        "code": 0,
        "type": "City",
        "enNameLanguage": "Ban Donkoy",
        "location": {
          "lat": 14.9030362,
          "lng": 105.8642593
        },
        "keyAccentLanguage": "ban_donkoy"
      },
      {
        "code": 0,
        "type": "City",
        "enNameLanguage": "Ban Bok",
        "location": {
          "lat": 14.9030362,
          "lng": 105.8642593
        },
        "keyAccentLanguage": "ban_bok"
      },
      {
        "code": 0,
        "type": "City",
        "enNameLanguage": "Ban Dong",
        "location": {
          "lat": 14.9030362,
          "lng": 105.8642593
        },
        "keyAccentLanguage": "ban_dong"
      },
      {
        "code": 0,
        "type": "City",
        "enNameLanguage": "Ban Donggnang",
        "location": {
          "lat": 14.9030362,
          "lng": 105.8642593
        },
        "keyAccentLanguage": "ban_donggnang"
      },
      {
        "code": 0,
        "type": "City",
        "enNameLanguage": "Ban Hai",
        "location": {
          "lat": 14.9030362,
          "lng": 105.8642593
        },
        "keyAccentLanguage": "ban_hai"
      },
      {
        "code": 0,
        "type": "City",
        "enNameLanguage": "Ban Gnangsao",
        "location": {
          "lat": 14.9030362,
          "lng": 105.8642593
        },
        "keyAccentLanguage": "ban_gnangsao"
      }
    ],
    "enNameLanguage": "Champasak",
    "keyAccentLanguage": "champasak"
  },
  {
    "code": 0,
    "type": "State",
    "location": {
      "lat": 20.3254175,
      "lng": 104.1001326
    },
    "districtList": [
      {
        "code": 0,
        "type": "City",
        "enNameLanguage": "Ban Bay",
        "location": {
          "lat": 20.3254175,
          "lng": 104.1001326
        },
        "keyAccentLanguage": "ban_bay"
      },
      {
        "code": 0,
        "type": "City",
        "enNameLanguage": "Ban Bao-Nua",
        "location": {
          "lat": 20.3254175,
          "lng": 104.1001326
        },
        "keyAccentLanguage": "ban_bao-nua"
      },
      {
        "code": 0,
        "type": "City",
        "enNameLanguage": "Ban Cuong",
        "location": {
          "lat": 20.3254175,
          "lng": 104.1001326
        },
        "keyAccentLanguage": "ban_cuong"
      },
      {
        "code": 0,
        "type": "City",
        "enNameLanguage": "Ban Chat",
        "location": {
          "lat": 20.3254175,
          "lng": 104.1001326
        },
        "keyAccentLanguage": "ban_chat"
      },
      {
        "code": 0,
        "type": "City",
        "enNameLanguage": "Ban Bao",
        "location": {
          "lat": 20.3254175,
          "lng": 104.1001326
        },
        "keyAccentLanguage": "ban_bao"
      },
      {
        "code": 0,
        "type": "City",
        "enNameLanguage": "Ban Bokay",
        "location": {
          "lat": 20.3254175,
          "lng": 104.1001326
        },
        "keyAccentLanguage": "ban_bokay"
      },
      {
        "code": 0,
        "type": "City",
        "enNameLanguage": "Ban Bouak (3)",
        "location": {
          "lat": 20.3254175,
          "lng": 104.1001326
        },
        "keyAccentLanguage": "ban_bouak_(3)"
      },
      {
        "code": 0,
        "type": "City",
        "enNameLanguage": "Ban Bao-Tai",
        "location": {
          "lat": 20.3254175,
          "lng": 104.1001326
        },
        "keyAccentLanguage": "ban_bao-tai"
      },
      {
        "code": 0,
        "type": "City",
        "enNameLanguage": "Ban Anglong",
        "location": {
          "lat": 20.3254175,
          "lng": 104.1001326
        },
        "keyAccentLanguage": "ban_anglong"
      },
      {
        "code": 0,
        "type": "City",
        "enNameLanguage": "Ban Cha",
        "location": {
          "lat": 20.5184054,
          "lng": 103.4663505
        },
        "keyAccentLanguage": "ban_cha"
      },
      {
        "code": 0,
        "type": "City",
        "enNameLanguage": "Ban Bau (4)",
        "location": {
          "lat": 20.866667,
          "lng": 104.183333
        },
        "keyAccentLanguage": "ban_bau_(4)"
      },
      {
        "code": 0,
        "type": "City",
        "enNameLanguage": "Ban Angkouan",
        "location": {
          "lat": 20.3254175,
          "lng": 104.1001326
        },
        "keyAccentLanguage": "ban_angkouan"
      },
      {
        "code": 0,
        "type": "City",
        "enNameLanguage": "Ban A Luc",
        "location": {
          "lat": 20.3254175,
          "lng": 104.1001326
        },
        "keyAccentLanguage": "ban_a_luc"
      },
      {
        "code": 0,
        "type": "City",
        "enNameLanguage": "Ban Buom Nghiou",
        "location": {
          "lat": 20.3254175,
          "lng": 104.1001326
        },
        "keyAccentLanguage": "ban_buom_nghiou"
      },
      {
        "code": 0,
        "type": "City",
        "enNameLanguage": "Ban Cha Khien",
        "location": {
          "lat": 20.5184054,
          "lng": 103.4663505
        },
        "keyAccentLanguage": "ban_cha_khien"
      },
      {
        "code": 0,
        "type": "City",
        "enNameLanguage": "Ban Bouambay",
        "location": {
          "lat": 20.3254175,
          "lng": 104.1001326
        },
        "keyAccentLanguage": "ban_bouambay"
      },
      {
        "code": 0,
        "type": "City",
        "enNameLanguage": "Ban Angmok",
        "location": {
          "lat": 20.3254175,
          "lng": 104.1001326
        },
        "keyAccentLanguage": "ban_angmok"
      },
      {
        "code": 0,
        "type": "City",
        "enNameLanguage": "Ban Ban",
        "location": {
          "lat": 20.3254175,
          "lng": 104.1001326
        },
        "keyAccentLanguage": "ban_ban"
      },
      {
        "code": 0,
        "type": "City",
        "enNameLanguage": "Ban Bo Pha Teu",
        "location": {
          "lat": 20.4562684,
          "lng": 104.2130714
        },
        "keyAccentLanguage": "ban_bo_pha_teu"
      },
      {
        "code": 0,
        "type": "City",
        "enNameLanguage": "Ban Bona",
        "location": {
          "lat": 20.3254175,
          "lng": 104.1001326
        },
        "keyAccentLanguage": "ban_bona"
      },
      {
        "code": 0,
        "type": "City",
        "enNameLanguage": "Ban Bengthong",
        "location": {
          "lat": 20.4,
          "lng": 103.416667
        },
        "keyAccentLanguage": "ban_bengthong"
      },
      {
        "code": 0,
        "type": "City",
        "enNameLanguage": "Ban Bia",
        "location": {
          "lat": 20.3254175,
          "lng": 104.1001326
        },
        "keyAccentLanguage": "ban_bia"
      },
      {
        "code": 0,
        "type": "City",
        "enNameLanguage": "Ban Chak",
        "location": {
          "lat": 20.3254175,
          "lng": 104.1001326
        },
        "keyAccentLanguage": "ban_chak"
      },
      {
        "code": 0,
        "type": "City",
        "enNameLanguage": "Ban Bouak",
        "location": {
          "lat": 20.3254175,
          "lng": 104.1001326
        },
        "keyAccentLanguage": "ban_bouak"
      },
      {
        "code": 0,
        "type": "City",
        "enNameLanguage": "Ban Bopha",
        "location": {
          "lat": 20.3254175,
          "lng": 104.1001326
        },
        "keyAccentLanguage": "ban_bopha"
      },
      {
        "code": 0,
        "type": "City",
        "enNameLanguage": "Sopka",
        "location": {
          "lat": 20.3254175,
          "lng": 104.1001326
        },
        "keyAccentLanguage": "sopka"
      },
      {
        "code": 0,
        "type": "City",
        "enNameLanguage": "Ban Bo-3",
        "location": {
          "lat": 20.4562684,
          "lng": 104.2130714
        },
        "keyAccentLanguage": "ban_bo-3"
      },