[
  {
    "code": 0,
    "type": "State",
    "location": {
      "lat": 47.8971101,
      "lng": 100.7240165
    },
    "districtList": [
      {
        "code": 0,
        "type": "City",
        "enNameLanguage": "Altan-Ovoo",
        "location": {
          "lat": 47.4389969,
          "lng": 101.7525358
        },
        "keyAccentLanguage": "altan-ovoo"
      },
      {
        "code": 0,
        "type": "City",
        "enNameLanguage": "Bayan",
        "location": {
          "lat": 47.8971101,
          "lng": 100.7240165
        },
        "keyAccentLanguage": "bayan"
      },
      {
        "code": 0,
        "type": "City",
        "enNameLanguage": "Hujirt",
        "location": {
          "lat": 48.8833968,
          "lng": 101.2424701
        },
        "keyAccentLanguage": "hujirt"
      },
      {
        "code": 0,
        "type": "City",
        "enNameLanguage": "Cecerleg",
        "location": {
          "lat": 47.4738394,
          "lng": 101.4617469
        },
        "keyAccentLanguage": "cecerleg"
      },
      {
        "code": 0,
        "type": "City",
        "enNameLanguage": "Dzaanhushuu",
        "location": {
          "lat": 47.8971101,
          "lng": 100.7240165
        },
        "keyAccentLanguage": "dzaanhushuu"
      },
      {
        "code": 0,
        "type": "City",
        "enNameLanguage": "Dugan-Hiyd",
        "location": {
          "lat": 48.73333299999999,
          "lng": 100.983333
        },
        "keyAccentLanguage": "dugan-hiyd"
      },
      {
        "code": 0,
        "type": "City",
        "enNameLanguage": "Bayan-Uul",
        "location": {
          "lat": 47.8971101,
          "lng": 100.7240165
        },
        "keyAccentLanguage": "bayan-uul"
      },
      {
        "code": 0,
        "type": "City",
        "enNameLanguage": "Dashilingiin Dugang",
        "location": {
          "lat": 47.8971101,
          "lng": 100.7240165
        },
        "keyAccentLanguage": "dashilingiin_dugang"
      },
      {
        "code": 0,
        "type": "City",
        "enNameLanguage": "Burigiin Dugang",
        "location": {
          "lat": 47.8971101,
          "lng": 100.7240165
        },
        "keyAccentLanguage": "burigiin_dugang"
      },
      {
        "code": 0,
        "type": "City",
        "enNameLanguage": "Bayantsagaan",
        "location": {
          "lat": 48.72776220000001,
          "lng": 100.7724281
        },
        "keyAccentLanguage": "bayantsagaan"
      },
      {
        "code": 0,
        "type": "City",
        "enNameLanguage": "Bayan Hayrhan",
        "location": {
          "lat": 48.6057111,
          "lng": 101.9343734
        },
        "keyAccentLanguage": "bayan_hayrhan"
      },
      {
        "code": 0,
        "type": "City",
        "enNameLanguage": "Hoshoot",
        "location": {
          "lat": 47.8971101,
          "lng": 100.7240165
        },
        "keyAccentLanguage": "hoshoot"
      },
      {
        "code": 0,
        "type": "City",
        "enNameLanguage": "Hoboriin Horshoo",
        "location": {
          "lat": 47.478372,
          "lng": 102.505023
        },
        "keyAccentLanguage": "hoboriin_horshoo"
      },
      {
        "code": 0,
        "type": "City",
        "enNameLanguage": "Hayrhan",
        "location": {
          "lat": 48.6057111,
          "lng": 101.9343734
        },
        "keyAccentLanguage": "hayrhan"
      },
      {
        "code": 0,
        "type": "City",
        "enNameLanguage": "Hashat",
        "location": {
          "lat": 47.34999999999999,
          "lng": 103.416667
        },
        "keyAccentLanguage": "hashat"
      },
      {
        "code": 0,
        "type": "City",
        "enNameLanguage": "Ajirigaiin Huryee",
        "location": {
          "lat": 47.8971101,
          "lng": 100.7240165
        },
        "keyAccentLanguage": "ajirigaiin_huryee"
      },
      {
        "code": 0,
        "type": "City",
        "enNameLanguage": "Bugat",
        "location": {
          "lat": 47.8971101,
          "lng": 100.7240165
        },
        "keyAccentLanguage": "bugat"
      },
      {
        "code": 0,
        "type": "City",
        "enNameLanguage": "Hooltoyn Dugang",
        "location": {
          "lat": 47.8971101,
          "lng": 100.7240165
        },
        "keyAccentLanguage": "hooltoyn_dugang"
      },
      {
        "code": 0,
        "type": "City",
        "enNameLanguage": "Doodo Tomorto Huryee",
        "location": {
          "lat": 47.9166669,
          "lng": 99.25
        },
        "keyAccentLanguage": "doodo_tomorto_huryee"
      },
      {
        "code": 0,
        "type": "City",
        "enNameLanguage": "Hanuy",
        "location": {
          "lat": 48.14938,
          "lng": 101.049797
        },
        "keyAccentLanguage": "hanuy"
      },
      {
        "code": 0,
        "type": "City",
        "enNameLanguage": "Dashi Jabiin Bayshing",
        "location": {
          "lat": 47.8971101,
          "lng": 100.7240165
        },
        "keyAccentLanguage": "dashi_jabiin_bayshing"
      },
      {
        "code": 0,
        "type": "City",
        "enNameLanguage": "Burgaasanii Dugang",
        "location": {
          "lat": 47.8971101,
          "lng": 100.7240165
        },
        "keyAccentLanguage": "burgaasanii_dugang"
      },
      {
        "code": 0,
        "type": "City",
        "enNameLanguage": "Tavanbulag",
        "location": {
          "lat": 47.3854863,
          "lng": 101.9083641
        },
        "keyAccentLanguage": "tavanbulag"
      },
      {
        "code": 0,
        "type": "City",
        "enNameLanguage": "Buriden Huryee",
        "location": {
          "lat": 47.8971101,
          "lng": 100.7240165
        },
        "keyAccentLanguage": "buriden_huryee"
      },
      {
        "code": 0,
        "type": "City",
        "enNameLanguage": "Beeseiin Hiid",
        "location": {
          "lat": 47.366667,
          "lng": 101.2
        },
        "keyAccentLanguage": "beeseiin_hiid"
      },
      {
        "code": 0,
        "type": "City",
        "enNameLanguage": "Bagiin Dugang",
        "location": {
          "lat": 47.8971101,
          "lng": 100.7240165
        },
        "keyAccentLanguage": "bagiin_dugang"
      },
      {
        "code": 0,
        "type": "City",
        "enNameLanguage": "Doloonii Hural",
        "location": {
          "lat": 47.8971101,
          "lng": 100.7240165
        },
        "keyAccentLanguage": "doloonii_hural"
      },
      {
        "code": 0,
        "type": "City",
        "enNameLanguage": "Buhaiin Huryee",
        "location": {
          "lat": 47.8971101,
          "lng": 100.7240165
        },
        "keyAccentLanguage": "buhaiin_huryee"
      },
      {
        "code": 0,
        "type": "City",
        "enNameLanguage": "Baytsaiin Huryee",
        "location": {
          "lat": 47.8518789,
          "lng": 98.3432009
        },
        "keyAccentLanguage": "baytsaiin_huryee"
      },
      {
        "code": 0,
        "type": "City",
        "enNameLanguage": "Janjigiin Dugang",
        "location": {
          "lat": 47.8971101,
          "lng": 100.7240165
        },
        "keyAccentLanguage": "janjigiin_dugang"
      },
      {
        "code": 0,
        "type": "City",
        "enNameLanguage": "Oldziyt",
        "location": {
          "lat": 48.1030253,
          "lng": 102.5606182
        },
        "keyAccentLanguage": "oldziyt"
      },
      {
        "code": 0,
        "type": "City",
        "enNameLanguage": "Doodo Boriljitoyn Dugang",
        "location": {
          "lat": 47.8971101,
          "lng": 100.7240165
        },
        "keyAccentLanguage": "doodo_boriljitoyn_dugang"
      },
      {
        "code": 0,
        "type": "City",
        "enNameLanguage": "Aygatayn Dugang",
        "location": {
          "lat": 47.8971101,
          "lng": 100.7240165
        },
        "keyAccentLanguage": "aygatayn_dugang"
      },
      {
        "code": 0,
        "type": "City",
        "enNameLanguage": "Dugang Hiid",
        "location": {
          "lat": 47.8971101,
          "lng": 100.7240165
        },
        "keyAccentLanguage": "dugang_hiid"
      },
      {
        "code": 0,
        "type": "City",
        "enNameLanguage": "Buridenii Hiid",
        "location": {
          "lat": 47.066667,
          "lng": 101.716667
        },
        "keyAccentLanguage": "buridenii_hiid"
      },
      {
        "code": 0,
        "type": "City",
        "enNameLanguage": "Hujirtayn Sume",
        "location": {
          "lat": 47.8971101,
          "lng": 100.7240165
        },
        "keyAccentLanguage": "hujirtayn_sume"
      },
      {
        "code": 0,
        "type": "City",
        "enNameLanguage": "Bulagiyn Denj",
        "location": {
          "lat": 47.8971101,
          "lng": 100.7240165
        },
        "keyAccentLanguage": "bulagiyn_denj"
      },
      {
        "code": 0,
        "type": "City",
        "enNameLanguage": "Dzasariin Bayshing",
        "location": {
          "lat": 47.8971101,
          "lng": 100.7240165
        },
        "keyAccentLanguage": "dzasariin_bayshing"
      },
      {
        "code": 0,
        "type": "City",
        "enNameLanguage": "Shibirteyn Dugang",
        "location": {
          "lat": 47.25,
          "lng": 100.8
        },
        "keyAccentLanguage": "shibirteyn_dugang"
      },
      {
        "code": 0,
        "type": "City",
        "enNameLanguage": "Dzuun Modonii Dugang",
        "location": {
          "lat": 47.6666669,
          "lng": 100.166667
        },
        "keyAccentLanguage": "dzuun_modonii_dugang"
      },
      {
        "code": 0,
        "type": "City",
        "enNameLanguage": "Monholiin Bayshing",
        "location": {
          "lat": 47.8971101,
          "lng": 100.7240165
        },
        "keyAccentLanguage": "monholiin_bayshing"
      },
      {
        "code": 0,
        "type": "City",
        "enNameLanguage": "Mahagalayn Dugang",
        "location": {
          "lat": 48.066667,
          "lng": 101.15
        },
        "keyAccentLanguage": "mahagalayn_dugang"
      },
      {
        "code": 0,
        "type": "City",
        "enNameLanguage": "Dzogiin Huryee",
        "location": {
          "lat": 48.016667,
          "lng": 99.266667
        },
        "keyAccentLanguage": "dzogiin_huryee"
      },
      {
        "code": 0,
        "type": "City",
        "enNameLanguage": "Moron",
        "location": {
          "lat": 47.8971101,
          "lng": 100.7240165
        },
        "keyAccentLanguage": "moron"
      },
      {
        "code": 0,
        "type": "City",
        "enNameLanguage": "Hoshoogiin Bulang",
        "location": {
          "lat": 47.533333,
          "lng": 101.866667
        },
        "keyAccentLanguage": "hoshoogiin_bulang"
      },
      {
        "code": 0,
        "type": "City",
        "enNameLanguage": "Lamhay Teriguunii Dugang",
        "location": {
          "lat": 47.8971101,
          "lng": 100.7240165
        },
        "keyAccentLanguage": "lamhay_teriguunii_dugang"
      },
      {
        "code": 0,
        "type": "City",
        "enNameLanguage": "Hotont",
        "location": {
          "lat": 47.3671417,
          "lng": 102.4710384
        },
        "keyAccentLanguage": "hotont"
      },
      {
        "code": 0,
        "type": "City",
        "enNameLanguage": "Dzargalant",
        "location": {
          "lat": 47.8971101,
          "lng": 100.7240165
        },
        "keyAccentLanguage": "dzargalant"
      },
      {
        "code": 0,
        "type": "City",
        "enNameLanguage": "Bulenii Huryee",
        "location": {
          "lat": 47.6666669,
          "lng": 99.05
        },
        "keyAccentLanguage": "bulenii_huryee"
      },
      {
        "code": 0,
        "type": "City",
        "enNameLanguage": "Tuulant",
        "location": {
          "lat": 48.963459,
          "lng": 100.9601969
        },
        "keyAccentLanguage": "tuulant"
      },
      {
        "code": 0,
        "type": "City",
        "enNameLanguage": "Hotontoyn Huryee",
        "location": {
          "lat": 47.8971101,
          "lng": 100.7240165
        },
        "keyAccentLanguage": "hotontoyn_huryee"
      },
      {
        "code": 0,
        "type": "City",
        "enNameLanguage": "Buridenii Dugang",
        "location": {
          "lat": 47.59999999999999,
          "lng": 100.55
        },
        "keyAccentLanguage": "buridenii_dugang"
      },
      {
        "code": 0,
        "type": "City",
        "enNameLanguage": "Nariin Huryee",
        "location": {
          "lat": 48.25,
          "lng": 99.69999999999999
        },
        "keyAccentLanguage": "nariin_huryee"
      },
      {
        "code": 0,
        "type": "City",
        "enNameLanguage": "Hunt",
        "location": {
          "lat": 47.8971101,
          "lng": 100.7240165
        },
        "keyAccentLanguage": "hunt"
      },
      {
        "code": 0,
        "type": "City",
        "enNameLanguage": "Tayhar",
        "location": {
          "lat": 47.58909999999999,
          "lng": 101.191399
        },
        "keyAccentLanguage": "tayhar"
      },
      {
        "code": 0,
        "type": "City",
        "enNameLanguage": "Hunuyn Sume",
        "location": {
          "lat": 48.15,
          "lng": 101.6333329
        },
        "keyAccentLanguage": "hunuyn_sume"
      },
      {
        "code": 0,
        "type": "City",
        "enNameLanguage": "Dzegstey",
        "location": {
          "lat": 47.8971101,
          "lng": 100.7240165
        },
        "keyAccentLanguage": "dzegstey"
      },
      {
        "code": 0,
        "type": "City",
        "enNameLanguage": "Ochir Wangiin Dugang",
        "location": {
          "lat": 47.8971101,
          "lng": 100.7240165
        },
        "keyAccentLanguage": "ochir_wangiin_dugang"
      },
      {
        "code": 0,
        "type": "City",
        "enNameLanguage": "Lun",
        "location": {
          "lat": 47.8971101,
          "lng": 100.7240165
        },
        "keyAccentLanguage": "lun"
      },
      {
        "code": 0,
        "type": "City",
        "enNameLanguage": "Noyon Hangay Ashan",
        "location": {
          "lat": 47.8507212,
          "lng": 99.42778249999999
        },
        "keyAccentLanguage": "noyon_hangay_ashan"
      },
      {
        "code": 0,
        "type": "City",
        "enNameLanguage": "Manglayn Horshoonii Bayshing",
        "location": {
          "lat": 48.25,
          "lng": 101.666667
        },
        "keyAccentLanguage": "manglayn_horshoonii_bayshing"
      },
      {
        "code": 0,
        "type": "City",
        "enNameLanguage": "Horchogiin Hural",
        "location": {
          "lat": 47.7,
          "lng": 102.916667
        },
        "keyAccentLanguage": "horchogiin_hural"
      },
      {
        "code": 0,
        "type": "City",
        "enNameLanguage": "Horgo",
        "location": {
          "lat": 48.1846536,
          "lng": 99.85537819999999
        },
        "keyAccentLanguage": "horgo"
      },
      {
        "code": 0,
        "type": "City",
        "enNameLanguage": "Shatsaiin Dugang",
        "location": {
          "lat": 47.8971101,
          "lng": 100.7240165
        },
        "keyAccentLanguage": "shatsaiin_dugang"
      },
      {
        "code": 0,
        "type": "City",
        "enNameLanguage": "Taryaata Huryee",
        "location": {
          "lat": 48.216667,
          "lng": 99.39999999999999
        },
        "keyAccentLanguage": "taryaata_huryee"
      },
      {
        "code": 0,
        "type": "City",
        "enNameLanguage": "Jirantayn Huryee",
        "location": {
          "lat": 47.8971101,
          "lng": 100.7240165
        },
        "keyAccentLanguage": "jirantayn_huryee"
      },
      {
        "code": 0,
        "type": "City",
        "enNameLanguage": "Jargalant",
        "location": {
          "lat": 48.72776220000001,
          "lng": 100.7724281
        },
        "keyAccentLanguage": "jargalant"
      },
      {
        "code": 0,
        "type": "City",
        "enNameLanguage": "Maniin Dugang",
        "location": {
          "lat": 47.8971101,
          "lng": 100.7240165
        },
        "keyAccentLanguage": "maniin_dugang"
      },
      {
        "code": 0,
        "type": "City",
        "enNameLanguage": "Hanuyn Huryee",
        "location": {
          "lat": 47.8971101,
          "lng": 100.7240165
        },
        "keyAccentLanguage": "hanuyn_huryee"
      },
      {
        "code": 0,
        "type": "City",
        "enNameLanguage": "Tsagaan Sume",
        "location": {
          "lat": 47.0662457,
          "lng": 102.1074274
        },
        "keyAccentLanguage": "tsagaan_sume"
      },
      {
        "code": 0,
        "type": "City",
        "enNameLanguage": "Tsenher",
        "location": {
          "lat": 47.4389969,
          "lng": 101.7525358
        },
        "keyAccentLanguage": "tsenher"
      },
      {
        "code": 0,
        "type": "City",
        "enNameLanguage": "Hongoroogiin Datsang",
        "location": {
          "lat": 47.8971101,
          "lng": 100.7240165
        },
        "keyAccentLanguage": "hongoroogiin_datsang"
      },
      {
        "code": 0,
        "type": "City",
        "enNameLanguage": "Nomogonii Hiid",
        "location": {
          "lat": 47.8971101,
          "lng": 100.7240165
        },
        "keyAccentLanguage": "nomogonii_hiid"
      },
      {
        "code": 0,
        "type": "City",
        "enNameLanguage": "Murengiin Huryee",
        "location": {
          "lat": 47.8971101,
          "lng": 100.7240165
        },
        "keyAccentLanguage": "murengiin_huryee"
      },
      {
        "code": 0,
        "type": "City",
        "enNameLanguage": "Teel",
        "location": {
          "lat": 47.8971101,
          "lng": 100.7240165
        },
        "keyAccentLanguage": "teel"
      },
      {
        "code": 0,
        "type": "City",
        "enNameLanguage": "Tsetserleg",
        "location": {
          "lat": 48.8833968,
          "lng": 101.2424701
        },
        "keyAccentLanguage": "tsetserleg"
      },
      {
        "code": 0,
        "type": "City",
        "enNameLanguage": "Oboonii Bulangiin Dugang",
        "location": {
          "lat": 47.8971101,
          "lng": 100.7240165
        },
        "keyAccentLanguage": "oboonii_bulangiin_dugang"
      },
      {
        "code": 0,
        "type": "City",
        "enNameLanguage": "Ihtamir",
        "location": {
          "lat": 47.48457,
          "lng": 100.869598
        },
        "keyAccentLanguage": "ihtamir"
      },
      {
        "code": 0,
        "type": "City",
        "enNameLanguage": "Ondorsant",
        "location": {
          "lat": 47.8971101,
          "lng": 100.7240165
        },
        "keyAccentLanguage": "ondorsant"
      },
      {
        "code": 0,
        "type": "City",
        "enNameLanguage": "Teeliin Dugang",
        "location": {
          "lat": 47.966667,
          "lng": 98.5
        },
        "keyAccentLanguage": "teeliin_dugang"
      },
      {
        "code": 0,
        "type": "City",
        "enNameLanguage": "Ogiy",
        "location": {
          "lat": 47.783333,
          "lng": 102.683333
        },
        "keyAccentLanguage": "ogiy"
      },
      {
        "code": 0,
        "type": "City",
        "enNameLanguage": "Olon Turagiin Dugang",
        "location": {
          "lat": 47.8971101,
          "lng": 100.7240165
        },
        "keyAccentLanguage": "olon_turagiin_dugang"
      },
      {
        "code": 0,
        "type": "City",
        "enNameLanguage": "Lamaiin Hural",
        "location": {
          "lat": 47.8971101,
          "lng": 100.7240165
        },
        "keyAccentLanguage": "lamaiin_hural"
      },
      {
        "code": 0,
        "type": "City",
        "enNameLanguage": "Otochin Dugang",
        "location": {
          "lat": 47.8971101,
          "lng": 100.7240165
        },
        "keyAccentLanguage": "otochin_dugang"
      },
      {
        "code": 0,
        "type": "City",
        "enNameLanguage": "Tsogto Hayrhanii Dugang",
        "location": {
          "lat": 47.4166669,
          "lng": 100.25
        },
        "keyAccentLanguage": "tsogto_hayrhanii_dugang"
      },
      {
        "code": 0,
        "type": "City",
        "enNameLanguage": "Uubulan",
        "location": {
          "lat": 48.6057111,
          "lng": 101.9343734
        },
        "keyAccentLanguage": "uubulan"
      },
      {
        "code": 0,
        "type": "City",
        "enNameLanguage": "Nariin Gichigeneiin Dugang",
        "location": {
          "lat": 47.8971101,
          "lng": 100.7240165
        },
        "keyAccentLanguage": "nariin_gichigeneiin_dugang"
      },
      {
        "code": 0,
        "type": "City",
        "enNameLanguage": "Tushaalta Hiid",
        "location": {
          "lat": 47.8971101,
          "lng": 100.7240165
        },
        "keyAccentLanguage": "tushaalta_hiid"
      },
      {
        "code": 0,
        "type": "City",
        "enNameLanguage": "Doynhor Terguunii Dugang",
        "location": {
          "lat": 47.9,
          "lng": 100.85
        },
        "keyAccentLanguage": "doynhor_terguunii_dugang"
      },
      {
        "code": 0,
        "type": "City",
        "enNameLanguage": "Teliin Dugang",
        "location": {
          "lat": 47.8971101,
          "lng": 100.7240165
        },
        "keyAccentLanguage": "teliin_dugang"
      },
      {
        "code": 0,
        "type": "City",
        "enNameLanguage": "Paalan Teriguunii Dugang",
        "location": {
          "lat": 47.8971101,
          "lng": 100.7240165
        },
        "keyAccentLanguage": "paalan_teriguunii_dugang"
      },
      {
        "code": 0,
        "type": "City",
        "enNameLanguage": "Tsoohoriin-Hural",
        "location": {
          "lat": 47.8971101,
          "lng": 100.7240165
        },
        "keyAccentLanguage": "tsoohoriin-hural"
      },
      {
        "code": 0,
        "type": "City",
        "enNameLanguage": "Tomoriin Bagiin Dugang",
        "location": {
          "lat": 47.8971101,
          "lng": 100.7240165
        },
        "keyAccentLanguage": "tomoriin_bagiin_dugang"
      },
      {
        "code": 0,
        "type": "City",
        "enNameLanguage": "Tsahir",
        "location": {
          "lat": 48.09999999999999,
          "lng": 98.86666699999999
        },
        "keyAccentLanguage": "tsahir"
      },
      {
        "code": 0,
        "type": "City",
        "enNameLanguage": "Hutambaiin Bayshing",
        "location": {
          "lat": 48.5,
          "lng": 100.8833329
        },
        "keyAccentLanguage": "hutambaiin_bayshing"
      },
      {
        "code": 0,
        "type": "City",
        "enNameLanguage": "Ulaan Chuluutayn Dugang",
        "location": {
          "lat": 48.022049,
          "lng": 99.86876699999999
        },
        "keyAccentLanguage": "ulaan_chuluutayn_dugang"
      },
      {
        "code": 0,
        "type": "City",
        "enNameLanguage": "Han-Oyuut",
        "location": {
          "lat": 48.43716,
          "lng": 101.519402
        },
        "keyAccentLanguage": "han-oyuut"
      },
      {
        "code": 0,
        "type": "City",
        "enNameLanguage": "Ondor-Ulaan",
        "location": {
          "lat": 48.0402396,
          "lng": 100.5041843
        },
        "keyAccentLanguage": "ondor-ulaan"
      },
      {
        "code": 0,
        "type": "City",
        "enNameLanguage": "Horhoyn Hural",
        "location": {
          "lat": 47.7,
          "lng": 103.116667
        },
        "keyAccentLanguage": "horhoyn_hural"
      },
      {
        "code": 0,
        "type": "City",
        "enNameLanguage": "Ujigiin Talaiin Dugang",
        "location": {
          "lat": 23.1764665,
          "lng": 75.7885163
        },
        "keyAccentLanguage": "ujigiin_talaiin_dugang"
      }
    ],
    "enNameLanguage": "Arhangay",
    "keyAccentLanguage": "arhangay"
  },
  {
    "code": 0,
    "type": "State",
    "location": {
      "lat": 48.3983254,
      "lng": 89.66259149999999
    },
    "districtList": [
      {
        "code": 0,
        "type": "City",
        "enNameLanguage": "Jargalant",
        "location": {
          "lat": 46.9244104,
          "lng": 91.0837748
        },
        "keyAccentLanguage": "jargalant"
      },
      {
        "code": 0,
        "type": "City",
        "enNameLanguage": "Uujim",
        "location": {
          "lat": 48.90464619999999,
          "lng": 89.6511373
        },
        "keyAccentLanguage": "uujim"
      },
      {
        "code": 0,
        "type": "City",
        "enNameLanguage": "Hoshoot",
        "location": {
          "lat": 48.3983254,
          "lng": 89.66259149999999
        },
        "keyAccentLanguage": "hoshoot"
      },
      {
        "code": 0,
        "type": "City",
        "enNameLanguage": "Rashaant",
        "location": {
          "lat": 47.8677827,
          "lng": 90.6989929
        },
        "keyAccentLanguage": "rashaant"
      },
      {
        "code": 0,
        "type": "City",
        "enNameLanguage": "Khoilik",
        "location": {
          "lat": 48.3983254,
          "lng": 89.66259149999999
        },
        "keyAccentLanguage": "khoilik"
      },
      {
        "code": 0,
        "type": "City",
        "enNameLanguage": "Soog",
        "location": {
          "lat": 48.3983254,
          "lng": 89.66259149999999
        },
        "keyAccentLanguage": "soog"
      },
      {
        "code": 0,
        "type": "City",
        "enNameLanguage": "Hovd",
        "location": {
          "lat": 48.003783,
          "lng": 91.6413683
        },
        "keyAccentLanguage": "hovd"
      },
      {
        "code": 0,
        "type": "City",
        "enNameLanguage": "Bulgan",
        "location": {
          "lat": 48.3983254,
          "lng": 89.66259149999999
        },
        "keyAccentLanguage": "bulgan"
      },
      {
        "code": 0,
        "type": "City",
        "enNameLanguage": "Olgii",
        "location": {
          "lat": 48.9706758,
          "lng": 89.96783820000002
        },
        "keyAccentLanguage": "olgii"
      },
      {
        "code": 0,
        "type": "City",
        "enNameLanguage": "Chihertey",
        "location": {
          "lat": 48.3983254,
          "lng": 89.66259149999999
        },
        "keyAccentLanguage": "chihertey"
      },
      {
        "code": 0,
        "type": "City",
        "enNameLanguage": "Taylag Suma",
        "location": {
          "lat": 48.3983254,
          "lng": 89.66259149999999
        },
        "keyAccentLanguage": "taylag_suma"
      },
      {
        "code": 0,
        "type": "City",
        "enNameLanguage": "Sagsay",
        "location": {
          "lat": 48.90464619999999,
          "lng": 89.6511373
        },
        "keyAccentLanguage": "sagsay"
      },
      {
        "code": 0,
        "type": "City",
        "enNameLanguage": "Hurimiin Suma",
        "location": {
          "lat": 48.5,
          "lng": 88.966667
        },
        "keyAccentLanguage": "hurimiin_suma"
      },
      {
        "code": 0,
        "type": "City",
        "enNameLanguage": "Bayan-Enger",
        "location": {
          "lat": 48.4009592,
          "lng": 90.81107930000002
        },
        "keyAccentLanguage": "bayan-enger"
      },
      {
        "code": 0,
        "type": "City",
        "enNameLanguage": "Beleu",
        "location": {
          "lat": 48.3983254,
          "lng": 89.66259149999999
        },
        "keyAccentLanguage": "beleu"
      },
      {
        "code": 0,
        "type": "City",
        "enNameLanguage": "Bazar Kol Suma",
        "location": {
          "lat": 46.787621,
          "lng": 91.30336
        },
        "keyAccentLanguage": "bazar_kol_suma"
      },
      {
        "code": 0,
        "type": "City",
        "enNameLanguage": "Altantsogts",
        "location": {
          "lat": 48.9597959,
          "lng": 90.4305984
        },
        "keyAccentLanguage": "altantsogts"
      },
      {
        "code": 0,
        "type": "City",
        "enNameLanguage": "Dalayhol",
        "location": {
          "lat": 48.3983254,
          "lng": 89.66259149999999
        },
        "keyAccentLanguage": "dalayhol"
      },
      {
        "code": 0,
        "type": "City",
        "enNameLanguage": "Hujirt",
        "location": {
          "lat": 46.90638149999999,
          "lng": 102.7636515
        },
        "keyAccentLanguage": "hujirt"
      },
      {
        "code": 0,
        "type": "City",
        "enNameLanguage": "Boro Burgaasa",
        "location": {
          "lat": 48.3983254,
          "lng": 89.66259149999999
        },
        "keyAccentLanguage": "boro_burgaasa"
      },
      {
        "code": 0,
        "type": "City",
        "enNameLanguage": "Tsagaannuur",
        "location": {
          "lat": 49.5022399,
          "lng": 89.73166859999999
        },
        "keyAccentLanguage": "tsagaannuur"
      },
      {
        "code": 0,
        "type": "City",
        "enNameLanguage": "Buyant",
        "location": {
          "lat": 48.3983254,
          "lng": 89.66259149999999
        },
        "keyAccentLanguage": "buyant"
      },
      {
        "code": 0,
        "type": "City",
        "enNameLanguage": "Tolbo",
        "location": {
          "lat": 48.5487277,
          "lng": 90.05282530000001
        },
        "keyAccentLanguage": "tolbo"
      },
      {
        "code": 0,
        "type": "City",
        "enNameLanguage": "Tsagaantungi",
        "location": {
          "lat": 48.3983254,
          "lng": 89.66259149999999
        },
        "keyAccentLanguage": "tsagaantungi"
      },
      {
        "code": 0,
        "type": "City",
        "enNameLanguage": "Ak-Aral",
        "location": {
          "lat": 49.2151037,
          "lng": 90.8961684
        },
        "keyAccentLanguage": "ak-aral"
      },
      {
        "code": 0,
        "type": "City",
        "enNameLanguage": "Tarhatay",
        "location": {
          "lat": 48.3983254,
          "lng": 89.66259149999999
        },
        "keyAccentLanguage": "tarhatay"
      },
      {
        "code": 0,
        "type": "City",
        "enNameLanguage": "Bayannuur",
        "location": {
          "lat": 48.7956301,
          "lng": 90.9473798
        },
        "keyAccentLanguage": "bayannuur"
      },
      {
        "code": 0,
        "type": "City",
        "enNameLanguage": "Oygor",
        "location": {
          "lat": 49.17153200000001,
          "lng": 89.305313
        },
        "keyAccentLanguage": "oygor"
      },
      {
        "code": 0,
        "type": "City",
        "enNameLanguage": "Buga",
        "location": {
          "lat": 48.9479951,
          "lng": 90.0133872
        },
        "keyAccentLanguage": "buga"
      },
      {
        "code": 0,
        "type": "City",
        "enNameLanguage": "Bugat",
        "location": {
          "lat": 48.9479951,
          "lng": 90.0133872
        },
        "keyAccentLanguage": "bugat"
      },
      {
        "code": 0,
        "type": "City",
        "enNameLanguage": "Nogoonnuur",
        "location": {
          "lat": 49.6169133,
          "lng": 90.23910000000001
        },
        "keyAccentLanguage": "nogoonnuur"
      },
      {
        "code": 0,
        "type": "City",
        "enNameLanguage": "Ulaanhus",
        "location": {
          "lat": 49.0424573,
          "lng": 89.4350462
        },
        "keyAccentLanguage": "ulaanhus"
      },
      {
        "code": 0,
        "type": "City",
        "enNameLanguage": "Biluu",
        "location": {
          "lat": 49.0424573,
          "lng": 89.4350462
        },
        "keyAccentLanguage": "biluu"
      },
      {
        "code": 0,
        "type": "City",
        "enNameLanguage": "Cagaan Uul",
        "location": {
          "lat": 48.3983254,
          "lng": 89.66259149999999
        },
        "keyAccentLanguage": "cagaan_uul"
      },
      {
        "code": 0,
        "type": "City",
        "enNameLanguage": "Tsagaangol",
        "location": {
          "lat": 48.3983254,
          "lng": 89.66259149999999
        },
        "keyAccentLanguage": "tsagaangol"
      },
      {
        "code": 0,
        "type": "City",
        "enNameLanguage": "Tsagaan Tunheiin Huryee",
        "location": {
          "lat": 48.3983254,
          "lng": 89.66259149999999
        },
        "keyAccentLanguage": "tsagaan_tunheiin_huryee"
      },
      {
        "code": 0,
        "type": "City",
        "enNameLanguage": "Tsengel Hayrhan Suma",
        "location": {
          "lat": 48.746588,
          "lng": 88.9046493
        },
        "keyAccentLanguage": "tsengel_hayrhan_suma"
      },
      {
        "code": 0,
        "type": "City",
        "enNameLanguage": "Chzhirgalantu-Sagsay-Somon",
        "location": {
          "lat": 48.7630394,
          "lng": 89.90281499999999
        },
        "keyAccentLanguage": "chzhirgalantu-sagsay-somon"
      }
    ],
    "enNameLanguage": "Bayan-Ölgiy",
    "keyAccentLanguage": "bayan-ölgiy"
  },
  {
    "code": 0,
    "type": "State",
    "location": {
      "lat": 46.177215,
      "lng": 100.7118653
    },
    "districtList": [
      {
        "code": 0,
        "type": "City",
        "enNameLanguage": "Bayanhushuu",
        "location": {
          "lat": 46.177215,
          "lng": 100.7118653
        },
        "keyAccentLanguage": "bayanhushuu"
      },
      {
        "code": 0,
        "type": "City",
        "enNameLanguage": "Dzadgay",
        "location": {
          "lat": 46.177215,
          "lng": 100.7118653
        },
        "keyAccentLanguage": "dzadgay"
      },
      {
        "code": 0,
        "type": "City",
        "enNameLanguage": "Delgermoron",
        "location": {
          "lat": 46.51666700000001,
          "lng": 98.35000000000001
        },
        "keyAccentLanguage": "delgermoron"
      },
      {
        "code": 0,
        "type": "City",
        "enNameLanguage": "Buyant",
        "location": {
          "lat": 46.177215,
          "lng": 100.7118653
        },
        "keyAccentLanguage": "buyant"
      },
      {
        "code": 0,
        "type": "City",
        "enNameLanguage": "Bayankhongor",
        "location": {
          "lat": 46.177215,
          "lng": 100.7118653
        },
        "keyAccentLanguage": "bayankhongor"
      },
      {
        "code": 0,
        "type": "City",
        "enNameLanguage": "Bayanhongor",
        "location": {
          "lat": 46.177215,
          "lng": 100.7118653
        },
        "keyAccentLanguage": "bayanhongor"
      },
      {
        "code": 0,
        "type": "City",
        "enNameLanguage": "Bayan-Ovoo",
        "location": {
          "lat": 46.12278730000001,
          "lng": 100.3621588
        },
        "keyAccentLanguage": "bayan-ovoo"
      },
      {
        "code": 0,
        "type": "City",
        "enNameLanguage": "Baydrag",
        "location": {
          "lat": 47.025768,
          "lng": 99.468773
        },
        "keyAccentLanguage": "baydrag"
      },
      {
        "code": 0,
        "type": "City",
        "enNameLanguage": "Bodi",
        "location": {
          "lat": 46.177215,
          "lng": 100.7118653
        },
        "keyAccentLanguage": "bodi"
      },
      {
        "code": 0,
        "type": "City",
        "enNameLanguage": "Erdenetsogt",
        "location": {
          "lat": 46.4166699,
          "lng": 100.8183979
        },
        "keyAccentLanguage": "erdenetsogt"
      },
      {
        "code": 0,
        "type": "City",
        "enNameLanguage": "Mandal",
        "location": {
          "lat": 46.177215,
          "lng": 100.7118653
        },
        "keyAccentLanguage": "mandal"
      },
      {
        "code": 0,
        "type": "City",
        "enNameLanguage": "Bayanburd",
        "location": {
          "lat": 46.366667,
          "lng": 99.033333
        },
        "keyAccentLanguage": "bayanburd"
      },
      {
        "code": 0,
        "type": "City",
        "enNameLanguage": "Jargalant",
        "location": {
          "lat": 47.0197546,
          "lng": 99.47727189999999
        },
        "keyAccentLanguage": "jargalant"
      },
      {
        "code": 0,
        "type": "City",
        "enNameLanguage": "Baatsagaan",
        "location": {
          "lat": 45.55710190000001,
          "lng": 99.43038659999999
        },
        "keyAccentLanguage": "baatsagaan"
      },
      {
        "code": 0,
        "type": "City",
        "enNameLanguage": "Dayaan Hiid",
        "location": {
          "lat": 46.177215,
          "lng": 100.7118653
        },
        "keyAccentLanguage": "dayaan_hiid"
      },
      {
        "code": 0,
        "type": "City",
        "enNameLanguage": "Orgon",
        "location": {
          "lat": 46.177215,
          "lng": 100.7118653
        },
        "keyAccentLanguage": "orgon"
      },
      {
        "code": 0,
        "type": "City",
        "enNameLanguage": "Dzag",
        "location": {
          "lat": 46.9424419,
          "lng": 99.16491239999999
        },
        "keyAccentLanguage": "dzag"
      },
      {
        "code": 0,
        "type": "City",
        "enNameLanguage": "Bayan-Ondor",
        "location": {
          "lat": 43.6416566,
          "lng": 98.3088441
        },
        "keyAccentLanguage": "bayan-ondor"
      },
      {
        "code": 0,
        "type": "City",
        "enNameLanguage": "Bombogor",
        "location": {
          "lat": 46.1887244,
          "lng": 99.61270350000001
        },
        "keyAccentLanguage": "bombogor"
      },
      {
        "code": 0,
        "type": "City",
        "enNameLanguage": "Bayan Hoboriin Horshoo",
        "location": {
          "lat": 46.177215,
          "lng": 100.7118653
        },
        "keyAccentLanguage": "bayan_hoboriin_horshoo"
      },
      {
        "code": 0,
        "type": "City",
        "enNameLanguage": "Bulgan",
        "location": {
          "lat": 44.8011929,
          "lng": 98.65867689999999
        },
        "keyAccentLanguage": "bulgan"
      },
      {
        "code": 0,
        "type": "City",
        "enNameLanguage": "Uneen-Us",
        "location": {
          "lat": 46.177215,
          "lng": 100.7118653
        },
        "keyAccentLanguage": "uneen-us"
      },
      {
        "code": 0,
        "type": "City",
        "enNameLanguage": "Baydaragiin Huryee",
        "location": {
          "lat": 46.177215,
          "lng": 100.7118653
        },
        "keyAccentLanguage": "baydaragiin_huryee"
      },
      {
        "code": 0,
        "type": "City",
        "enNameLanguage": "Taygan",
        "location": {
          "lat": 46.177215,
          "lng": 100.7118653
        },
        "keyAccentLanguage": "taygan"
      },
      {
        "code": 0,
        "type": "City",
        "enNameLanguage": "Amar Buyantayn Huryee",
        "location": {
          "lat": 46.177215,
          "lng": 100.7118653
        },
        "keyAccentLanguage": "amar_buyantayn_huryee"
      },
      {
        "code": 0,
        "type": "City",
        "enNameLanguage": "Dzalaa",
        "location": {
          "lat": 44.533333,
          "lng": 99.266667
        },
        "keyAccentLanguage": "dzalaa"
      },
      {
        "code": 0,
        "type": "City",
        "enNameLanguage": "Ulaan-Uul",
        "location": {
          "lat": 50.6770215,
          "lng": 99.22679989999999
        },
        "keyAccentLanguage": "ulaan-uul"
      },
      {
        "code": 0,
        "type": "City",
        "enNameLanguage": "Hara Usanii Huryee",
        "location": {
          "lat": 46.177215,
          "lng": 100.7118653
        },
        "keyAccentLanguage": "hara_usanii_huryee"
      },
      {
        "code": 0,
        "type": "City",
        "enNameLanguage": "Hatansuudal",
        "location": {
          "lat": 42.9166667,
          "lng": 98.08333329999999
        },
        "keyAccentLanguage": "hatansuudal"
      },
      {
        "code": 0,
        "type": "City",
        "enNameLanguage": "Hoviyn Am",
        "location": {
          "lat": 54.1726798,
          "lng": -0.9783045999999999
        },
        "keyAccentLanguage": "hoviyn_am"
      },
      {
        "code": 0,
        "type": "City",
        "enNameLanguage": "Horiult",
        "location": {
          "lat": 46.177215,
          "lng": 100.7118653
        },
        "keyAccentLanguage": "horiult"
      },
      {
        "code": 0,
        "type": "City",
        "enNameLanguage": "Bayan Dzurihe Suma",
        "location": {
          "lat": 46.3,
          "lng": 101
        },
        "keyAccentLanguage": "bayan_dzurihe_suma"
      },
      {
        "code": 0,
        "type": "City",
        "enNameLanguage": "Choyiin Jisa",
        "location": {
          "lat": 46.4166669,
          "lng": 99.36666699999999
        },
        "keyAccentLanguage": "choyiin_jisa"
      },
      {
        "code": 0,
        "type": "City",
        "enNameLanguage": "Ulaan Tologoyn Jisa",
        "location": {
          "lat": 46.583333,
          "lng": 99.083333
        },
        "keyAccentLanguage": "ulaan_tologoyn_jisa"
      },
      {
        "code": 0,
        "type": "City",
        "enNameLanguage": "Yumiin Jisa",
        "location": {
          "lat": 46.177215,
          "lng": 100.7118653
        },
        "keyAccentLanguage": "yumiin_jisa"
      },
      {
        "code": 0,
        "type": "City",
        "enNameLanguage": "Bayansayr",
        "location": {
          "lat": 19.2990485,
          "lng": 72.8547727
        },
        "keyAccentLanguage": "bayansayr"
      },
      {
        "code": 0,
        "type": "City",
        "enNameLanguage": "Tsorjiin Huryee",
        "location": {
          "lat": 46.177215,
          "lng": 100.7118653
        },
        "keyAccentLanguage": "tsorjiin_huryee"
      },
      {
        "code": 0,
        "type": "City",
        "enNameLanguage": "Olon Bulagiin Bayshing",
        "location": {
          "lat": 46.177215,
          "lng": 100.7118653
        },
        "keyAccentLanguage": "olon_bulagiin_bayshing"
      },
      {
        "code": 0,
        "type": "City",
        "enNameLanguage": "Dara Eheiin Jisa",
        "location": {
          "lat": 46.177215,
          "lng": 100.7118653
        },
        "keyAccentLanguage": "dara_eheiin_jisa"
      },
      {
        "code": 0,
        "type": "City",
        "enNameLanguage": "Tegshin Bayantayn Huryee",
        "location": {
          "lat": 46.177215,
          "lng": 100.7118653
        },
        "keyAccentLanguage": "tegshin_bayantayn_huryee"
      },
      {
        "code": 0,
        "type": "City",
        "enNameLanguage": "Taryaanii Jisa",
        "location": {
          "lat": 46.05,
          "lng": 99.16666699999999
        },
        "keyAccentLanguage": "taryaanii_jisa"
      },
      {
        "code": 0,
        "type": "City",
        "enNameLanguage": "Narijnteel",
        "location": {
          "lat": 46.177215,
          "lng": 100.7118653
        },
        "keyAccentLanguage": "narijnteel"
      },
      {
        "code": 0,
        "type": "City",
        "enNameLanguage": "Dashi Galdan Jisa",
        "location": {
          "lat": 46.177215,
          "lng": 100.7118653
        },
        "keyAccentLanguage": "dashi_galdan_jisa"
      },
      {
        "code": 0,
        "type": "City",
        "enNameLanguage": "Ortoogiin Dugang",
        "location": {
          "lat": 46.177215,
          "lng": 100.7118653
        },
        "keyAccentLanguage": "ortoogiin_dugang"
      },
      {
        "code": 0,
        "type": "City",
        "enNameLanguage": "Hadatayn Huryee",
        "location": {
          "lat": 46.90000000000001,
          "lng": 98.16666699999999
        },
        "keyAccentLanguage": "hadatayn_huryee"
      },
      {
        "code": 0,
        "type": "City",
        "enNameLanguage": "Ulaan Chuluutayn Ortoo",
        "location": {
          "lat": 46.177215,
          "lng": 100.7118653
        },
        "keyAccentLanguage": "ulaan_chuluutayn_ortoo"
      },
      {
        "code": 0,
        "type": "City",
        "enNameLanguage": "Bayan Hongoriin",
        "location": {
          "lat": 46.583333,
          "lng": 97.64999999999999
        },
        "keyAccentLanguage": "bayan_hongoriin"
      },
      {
        "code": 0,
        "type": "City",
        "enNameLanguage": "Biluuteyn Goliin Hiid",
        "location": {
          "lat": 47.066667,
          "lng": 98.30000000000001
        },
        "keyAccentLanguage": "biluuteyn_goliin_hiid"
      },
      {
        "code": 0,
        "type": "City",
        "enNameLanguage": "Bayanbulag",
        "location": {
          "lat": 45,
          "lng": 98.917
        },
        "keyAccentLanguage": "bayanbulag"
      },
      {
        "code": 0,
        "type": "City",
        "enNameLanguage": "Lamaiin Gegeenii Huryee",
        "location": {
          "lat": 46.3,
          "lng": 100.983
        },
        "keyAccentLanguage": "lamaiin_gegeenii_huryee"
      },
      {
        "code": 0,
        "type": "City",
        "enNameLanguage": "Sumeiin Hiid",
        "location": {
          "lat": 45.167,
          "lng": 98.983
        },
        "keyAccentLanguage": "sumeiin_hiid"
      },
      {
        "code": 0,
        "type": "City",
        "enNameLanguage": "Mandaliin Jisa",
        "location": {
          "lat": 46.167,
          "lng": 98.833
        },
        "keyAccentLanguage": "mandaliin_jisa"
      },
      {
        "code": 0,
        "type": "City",
        "enNameLanguage": "Dzuun Jisa",
        "location": {
          "lat": 46.333,
          "lng": 99.083
        },
        "keyAccentLanguage": "dzuun_jisa"
      },
      {
        "code": 0,
        "type": "City",
        "enNameLanguage": "Tsagaan Tologoy",
        "location": {
          "lat": 44.533,
          "lng": 100.7
        },
        "keyAccentLanguage": "tsagaan_tologoy"
      },
      {
        "code": 0,
        "type": "City",
        "enNameLanguage": "Hohburd",
        "location": {
          "lat": 46.267,
          "lng": 100.467
        },
        "keyAccentLanguage": "hohburd"
      },
      {
        "code": 0,
        "type": "City",
        "enNameLanguage": "Darhan Guunii Huryee",
        "location": {
          "lat": 46.667,
          "lng": 100.333
        },
        "keyAccentLanguage": "darhan_guunii_huryee"
      },
      {
        "code": 0,
        "type": "City",
        "enNameLanguage": "Bogd",
        "location": {
          "lat": 45.199,
          "lng": 100.768
        },
        "keyAccentLanguage": "bogd"
      },
      {
        "code": 0,
        "type": "City",
        "enNameLanguage": "Tu-tzu-han-su-hai",
        "location": {
          "lat": 42.75,
          "lng": 98.8
        },
        "keyAccentLanguage": "tu-tzu-han-su-hai"
      },
      {
        "code": 0,
        "type": "City",
        "enNameLanguage": "Tuyin Goliin Huryee",
        "location": {
          "lat": 46.417,
          "lng": 100.8
        },
        "keyAccentLanguage": "tuyin_goliin_huryee"
      },
      {
        "code": 0,
        "type": "City",
        "enNameLanguage": "Oldzeyteyn Horshoo",
        "location": {
          "lat": 47.3,
          "lng": 98.583
        },
        "keyAccentLanguage": "oldzeyteyn_horshoo"
      },
      {
        "code": 0,
        "type": "City",
        "enNameLanguage": "Jargalan",
        "location": {
          "lat": 46.042,
          "lng": 100.331
        },
        "keyAccentLanguage": "jargalan"
      }
    ],
    "enNameLanguage": "Bayanhongor",
    "keyAccentLanguage": "bayanhongor"
  },
  {
    "code": 0,
    "type": "State",
    "location": {
      "lat": 48.9690913,
      "lng": 102.8831723
    },
    "districtList": [
      {
        "code": 0,
        "type": "City",
        "enNameLanguage": "Bulgan",
        "location": {
          "lat": 48.8231572,
          "lng": 103.5218199
        },
        "keyAccentLanguage": "bulgan"
      },
      {
        "code": 0,
        "type": "City",
        "enNameLanguage": "Jargalant",
        "location": {
          "lat": 48.38333300000001,
          "lng": 102.75
        },
        "keyAccentLanguage": "jargalant"
      },
      {
        "code": 0,
        "type": "City",
        "enNameLanguage": "Rashaant",
        "location": {
          "lat": 47.3735048,
          "lng": 103.9491709
        },
        "keyAccentLanguage": "rashaant"
      },
      {
        "code": 0,
        "type": "City",
        "enNameLanguage": "Bulagta",
        "location": {
          "lat": 48.8230498,
          "lng": 103.5200791
        },
        "keyAccentLanguage": "bulagta"
      },
      {
        "code": 0,
        "type": "City",
        "enNameLanguage": "Altan",
        "location": {
          "lat": 48.8230498,
          "lng": 103.5200791
        },
        "keyAccentLanguage": "altan"
      },
      {
        "code": 0,
        "type": "City",
        "enNameLanguage": "Burgaasata",
        "location": {
          "lat": 49.5,
          "lng": 102.916667
        },
        "keyAccentLanguage": "burgaasata"
      },
      {
        "code": 0,
        "type": "City",
        "enNameLanguage": "Hujirt",
        "location": {
          "lat": 49.75,
          "lng": 103.15
        },
        "keyAccentLanguage": "hujirt"
      },
      {
        "code": 0,
        "type": "City",
        "enNameLanguage": "Maanit",
        "location": {
          "lat": 48.8230498,
          "lng": 103.5200791
        },
        "keyAccentLanguage": "maanit"
      },
      {
        "code": 0,
        "type": "City",
        "enNameLanguage": "Sort",
        "location": {
          "lat": 48.8230498,
          "lng": 103.5200791
        },
        "keyAccentLanguage": "sort"
      },
      {
        "code": 0,
        "type": "City",
        "enNameLanguage": "Avdzaga",
        "location": {
          "lat": 47.87344,
          "lng": 103.408699
        },
        "keyAccentLanguage": "avdzaga"
      },
      {
        "code": 0,
        "type": "City",
        "enNameLanguage": "Dashinchilen",
        "location": {
          "lat": 47.8507363,
          "lng": 104.0421247
        },
        "keyAccentLanguage": "dashinchilen"
      },
      {
        "code": 0,
        "type": "City",
        "enNameLanguage": "Bayan Dzurhe",
        "location": {
          "lat": 48.8230498,
          "lng": 103.5200791
        },
        "keyAccentLanguage": "bayan_dzurhe"
      },
      {
        "code": 0,
        "type": "City",
        "enNameLanguage": "Delger Nuur Dugang",
        "location": {
          "lat": 48.8230498,
          "lng": 103.5200791
        },
        "keyAccentLanguage": "delger_nuur_dugang"
      },
      {
        "code": 0,
        "type": "City",
        "enNameLanguage": "Erhet",
        "location": {
          "lat": 48.8230498,
          "lng": 103.5200791
        },
        "keyAccentLanguage": "erhet"
      },
      {
        "code": 0,
        "type": "City",
        "enNameLanguage": "Suuj",
        "location": {
          "lat": 48.8230498,
          "lng": 103.5200791
        },
        "keyAccentLanguage": "suuj"
      },
      {
        "code": 0,
        "type": "City",
        "enNameLanguage": "Dalan Hural",
        "location": {
          "lat": 47.716667,
          "lng": 104.45
        },
        "keyAccentLanguage": "dalan_hural"
      },
      {
        "code": 0,
        "type": "City",
        "enNameLanguage": "Doloonhudag",
        "location": {
          "lat": 48.8230498,
          "lng": 103.5200791
        },
        "keyAccentLanguage": "doloonhudag"
      },
      {
        "code": 0,
        "type": "City",
        "enNameLanguage": "Shibirteyn Sume",
        "location": {
          "lat": 48.8230498,
          "lng": 103.5200791
        },
        "keyAccentLanguage": "shibirteyn_sume"
      },
      {
        "code": 0,
        "type": "City",
        "enNameLanguage": "Hotoliin Dugang",
        "location": {
          "lat": 48.8230498,
          "lng": 103.5200791
        },
        "keyAccentLanguage": "hotoliin_dugang"
      },
      {
        "code": 0,
        "type": "City",
        "enNameLanguage": "Namnang",
        "location": {
          "lat": 49.383333,
          "lng": 102.833333
        },
        "keyAccentLanguage": "namnang"
      },
      {
        "code": 0,
        "type": "City",
        "enNameLanguage": "Bayangol",
        "location": {
          "lat": 48.8230498,
          "lng": 103.5200791
        },
        "keyAccentLanguage": "bayangol"
      },
      {
        "code": 0,
        "type": "City",
        "enNameLanguage": "Hantay",
        "location": {
          "lat": 49.54855,
          "lng": 103.232002
        },
        "keyAccentLanguage": "hantay"
      },
      {
        "code": 0,
        "type": "City",
        "enNameLanguage": "Namnang Suma",
        "location": {
          "lat": 49.383333,
          "lng": 102.833333
        },
        "keyAccentLanguage": "namnang_suma"
      },
      {
        "code": 0,
        "type": "City",
        "enNameLanguage": "Bugat",
        "location": {
          "lat": 49.0664695,
          "lng": 103.6756502
        },
        "keyAccentLanguage": "bugat"
      },
      {
        "code": 0,
        "type": "City",
        "enNameLanguage": "Huntayn Haluun Usa",
        "location": {
          "lat": 48.8230498,
          "lng": 103.5200791
        },
        "keyAccentLanguage": "huntayn_haluun_usa"
      },
      {
        "code": 0,
        "type": "City",
        "enNameLanguage": "Sharga",
        "location": {
          "lat": 48.8230498,
          "lng": 103.5200791
        },
        "keyAccentLanguage": "sharga"
      },
      {
        "code": 0,
        "type": "City",
        "enNameLanguage": "Tsul-Ulaan",
        "location": {
          "lat": 48.94469309999999,
          "lng": 91.16067629999999
        },
        "keyAccentLanguage": "tsul-ulaan"
      },
      {
        "code": 0,
        "type": "City",
        "enNameLanguage": "Darhan",
        "location": {
          "lat": 48.8230498,
          "lng": 103.5200791
        },
        "keyAccentLanguage": "darhan"
      },
      {
        "code": 0,
        "type": "City",
        "enNameLanguage": "Ingettolgoy",
        "location": {
          "lat": 48.8230498,
          "lng": 103.5200791
        },
        "keyAccentLanguage": "ingettolgoy"
      },
      {
        "code": 0,
        "type": "City",
        "enNameLanguage": "Haylanta Hiid",
        "location": {
          "lat": 48.8230498,
          "lng": 103.5200791
        },
        "keyAccentLanguage": "haylanta_hiid"
      },
      {
        "code": 0,
        "type": "City",
        "enNameLanguage": "Haratayn Hural",
        "location": {
          "lat": 48.8230498,
          "lng": 103.5200791
        },
        "keyAccentLanguage": "haratayn_hural"
      },
      {
        "code": 0,
        "type": "City",
        "enNameLanguage": "Galdatay Dugang",
        "location": {
          "lat": 48.8230498,
          "lng": 103.5200791
        },
        "keyAccentLanguage": "galdatay_dugang"
      },
      {
        "code": 0,
        "type": "City",
        "enNameLanguage": "Babaiin Huryee",
        "location": {
          "lat": 48.4,
          "lng": 102.966667
        },
        "keyAccentLanguage": "babaiin_huryee"
      },
      {
        "code": 0,
        "type": "City",
        "enNameLanguage": "Toli Hural",
        "location": {
          "lat": 47.933333,
          "lng": 103.25
        },
        "keyAccentLanguage": "toli_hural"
      },
      {
        "code": 0,
        "type": "City",
        "enNameLanguage": "Nariin Dugang",
        "location": {
          "lat": 49.75,
          "lng": 102.8
        },
        "keyAccentLanguage": "nariin_dugang"
      },
      {
        "code": 0,
        "type": "City",
        "enNameLanguage": "Suujiin Horshoo",
        "location": {
          "lat": 48.8230498,
          "lng": 103.5200791
        },
        "keyAccentLanguage": "suujiin_horshoo"
      },
      {
        "code": 0,
        "type": "City",
        "enNameLanguage": "Luujin Huryee",
        "location": {
          "lat": 48.8230498,
          "lng": 103.5200791
        },
        "keyAccentLanguage": "luujin_huryee"
      },
      {
        "code": 0,
        "type": "City",
        "enNameLanguage": "Altatayn Dugang",
        "location": {
          "lat": 49.1666669,
          "lng": 103.116667
        },
        "keyAccentLanguage": "altatayn_dugang"
      },
      {
        "code": 0,
        "type": "City",
        "enNameLanguage": "Tsasaiin Horshoo",
        "location": {
          "lat": 48.8230498,
          "lng": 103.5200791
        },
        "keyAccentLanguage": "tsasaiin_horshoo"
      },
      {
        "code": 0,
        "type": "City",
        "enNameLanguage": "Tsagaan Burgaasatayn Dugang",
        "location": {
          "lat": 49.366667,
          "lng": 103
        },
        "keyAccentLanguage": "tsagaan_burgaasatayn_dugang"
      },
      {
        "code": 0,
        "type": "City",
        "enNameLanguage": "Setsengiin Dugang",
        "location": {
          "lat": 49.8,
          "lng": 102.65
        },
        "keyAccentLanguage": "setsengiin_dugang"
      },
      {
        "code": 0,
        "type": "City",
        "enNameLanguage": "Nariin Chingiliin Dugang",
        "location": {
          "lat": 48.833333,
          "lng": 104.2
        },
        "keyAccentLanguage": "nariin_chingiliin_dugang"
      },
      {
        "code": 0,
        "type": "City",
        "enNameLanguage": "Ordogoiin Dugang",
        "location": {
          "lat": 49.833333,
          "lng": 103.466667
        },
        "keyAccentLanguage": "ordogoiin_dugang"
      },
      {
        "code": 0,
        "type": "City",
        "enNameLanguage": "Jirgalantayn Dugang",
        "location": {
          "lat": 49.34999999999999,
          "lng": 103.366667
        },
        "keyAccentLanguage": "jirgalantayn_dugang"
      },
      {
        "code": 0,
        "type": "City",
        "enNameLanguage": "Hutag",
        "location": {
          "lat": 49.3962513,
          "lng": 102.6972588
        },
        "keyAccentLanguage": "hutag"
      },
      {
        "code": 0,
        "type": "City",
        "enNameLanguage": "Naringiin Huryee",
        "location": {
          "lat": 48.8230498,
          "lng": 103.5200791
        },
        "keyAccentLanguage": "naringiin_huryee"
      },
      {
        "code": 0,
        "type": "City",
        "enNameLanguage": "Ergiliin Dugang",
        "location": {
          "lat": 49.53333300000001,
          "lng": 104.433333
        },
        "keyAccentLanguage": "ergiliin_dugang"
      },
      {
        "code": 0,
        "type": "City",
        "enNameLanguage": "Dzoboiin Huryee",
        "location": {
          "lat": 48.38333300000001,
          "lng": 103.7
        },
        "keyAccentLanguage": "dzoboiin_huryee"
      },
      {
        "code": 0,
        "type": "City",
        "enNameLanguage": "Taryaatayn Otog Hural",
        "location": {
          "lat": 48.8230498,
          "lng": 103.5200791
        },
        "keyAccentLanguage": "taryaatayn_otog_hural"
      },
      {
        "code": 0,
        "type": "City",
        "enNameLanguage": "Erdeni Hamsan Huryee",
        "location": {
          "lat": 48.25,
          "lng": 103.7
        },
        "keyAccentLanguage": "erdeni_hamsan_huryee"
      },
      {
        "code": 0,
        "type": "City",
        "enNameLanguage": "Hambaiin Huryee",
        "location": {
          "lat": 48.8230498,
          "lng": 103.5200791
        },
        "keyAccentLanguage": "hambaiin_huryee"
      },
      {
        "code": 0,
        "type": "City",
        "enNameLanguage": "Tudeb Guunii Huryee",
        "location": {
          "lat": 48.8230498,
          "lng": 103.5200791
        },
        "keyAccentLanguage": "tudeb_guunii_huryee"
      },
      {
        "code": 0,
        "type": "City",
        "enNameLanguage": "Arshaantayn Huryee",
        "location": {
          "lat": 48.917,
          "lng": 102.5
        },
        "keyAccentLanguage": "arshaantayn_huryee"
      },
      {
        "code": 0,
        "type": "City",
        "enNameLanguage": "Bartayn Dugang",
        "location": {
          "lat": 49.867,
          "lng": 102.533
        },
        "keyAccentLanguage": "bartayn_dugang"
      },
      {
        "code": 0,
        "type": "City",
        "enNameLanguage": "Dzuun Guunii Huryee",
        "location": {
          "lat": 48.267,
          "lng": 103.833
        },
        "keyAccentLanguage": "dzuun_guunii_huryee"
      },
      {
        "code": 0,
        "type": "City",
        "enNameLanguage": "Doloon-Hudagiin-Hural",
        "location": {
          "lat": 47.883,
          "lng": 103.6
        },
        "keyAccentLanguage": "doloon-hudagiin-hural"
      },
      {
        "code": 0,
        "type": "City",
        "enNameLanguage": "Baatar Wang Huryee",
        "location": {
          "lat": 49.417,
          "lng": 102.7
        },
        "keyAccentLanguage": "baatar_wang_huryee"
      },
      {
        "code": 0,
        "type": "City",
        "enNameLanguage": "Hogono-Taranaiin-Huree",
        "location": {
          "lat": 47.4,
          "lng": 103.683
        },
        "keyAccentLanguage": "hogono-taranaiin-huree"
      },
      {
        "code": 0,
        "type": "City",
        "enNameLanguage": "Mogod",
        "location": {
          "lat": 48.304,
          "lng": 103.028
        },
        "keyAccentLanguage": "mogod"
      },
      {
        "code": 0,
        "type": "City",
        "enNameLanguage": "Hanuy",
        "location": {
          "lat": 49.024,
          "lng": 102.261
        },
        "keyAccentLanguage": "hanuy"
      },
      {
        "code": 0,
        "type": "City",
        "enNameLanguage": "Unit",
        "location": {
          "lat": 49.133,
          "lng": 102.817
        },
        "keyAccentLanguage": "unit"
      },
      {
        "code": 0,
        "type": "City",
        "enNameLanguage": "Uragiin Dugang",
        "location": {
          "lat": 49.667,
          "lng": 103.217
        },
        "keyAccentLanguage": "uragiin_dugang"
      },
      {
        "code": 0,
        "type": "City",
        "enNameLanguage": "Handagay Dugang",
        "location": {
          "lat": 49.45,
          "lng": 104.25
        },
        "keyAccentLanguage": "handagay_dugang"
      },
      {
        "code": 0,
        "type": "City",
        "enNameLanguage": "Hartsagay Dugang",
        "location": {
          "lat": 49.533,
          "lng": 104.1
        },
        "keyAccentLanguage": "hartsagay_dugang"
      },
      {
        "code": 0,
        "type": "City",
        "enNameLanguage": "Bilsigi Huryee",
        "location": {
          "lat": 49.5,
          "lng": 103.317
        },
        "keyAccentLanguage": "bilsigi_huryee"
      },
      {
        "code": 0,
        "type": "City",
        "enNameLanguage": "Tomoriin Dugang",
        "location": {
          "lat": 49.917,
          "lng": 103.083
        },
        "keyAccentLanguage": "tomoriin_dugang"
      },
      {
        "code": 0,
        "type": "City",
        "enNameLanguage": "Buhaiin Dugang",
        "location": {
          "lat": 49.333,
          "lng": 103.717
        },
        "keyAccentLanguage": "buhaiin_dugang"
      },
      {
        "code": 0,
        "type": "City",
        "enNameLanguage": "Hanjargalant",
        "location": {
          "lat": 48.957,
          "lng": 103.266
        },
        "keyAccentLanguage": "hanjargalant"
      },
      {
        "code": 0,
        "type": "City",
        "enNameLanguage": "Burga",
        "location": {
          "lat": 48.317,
          "lng": 103.8
        },
        "keyAccentLanguage": "burga"
      },
      {
        "code": 0,
        "type": "City",
        "enNameLanguage": "Mogodiin Huryee",
        "location": {
          "lat": 48.45,
          "lng": 102.7
        },
        "keyAccentLanguage": "mogodiin_huryee"
      },
      {
        "code": 0,
        "type": "City",
        "enNameLanguage": "Buuriin Hural",
        "location": {
          "lat": 47.633,
          "lng": 103.533
        },
        "keyAccentLanguage": "buuriin_hural"
      },
      {
        "code": 0,
        "type": "City",
        "enNameLanguage": "Bugseyn Dugang",
        "location": {
          "lat": 49.567,
          "lng": 103.3
        },
        "keyAccentLanguage": "bugseyn_dugang"
      },
      {
        "code": 0,
        "type": "City",
        "enNameLanguage": "Holtosoto Nugaiin Hiid",
        "location": {
          "lat": 49.65,
          "lng": 104.583
        },
        "keyAccentLanguage": "holtosoto_nugaiin_hiid"
      },
      {
        "code": 0,
        "type": "City",
        "enNameLanguage": "Mandal",
        "location": {
          "lat": 48.631,
          "lng": 103.529
        },
        "keyAccentLanguage": "mandal"
      },
      {
        "code": 0,
        "type": "City",
        "enNameLanguage": "Dzuun Dzagiin Huryee",
        "location": {
          "lat": 48.333,
          "lng": 103.95
        },
        "keyAccentLanguage": "dzuun_dzagiin_huryee"
      },
      {
        "code": 0,
        "type": "City",
        "enNameLanguage": "Hadasan",
        "location": {
          "lat": 47.86,
          "lng": 103.884
        },
        "keyAccentLanguage": "hadasan"
      },
      {
        "code": 0,
        "type": "City",
        "enNameLanguage": "Achuutaiin Dugang",
        "location": {
          "lat": 48.717,
          "lng": 103.667
        },
        "keyAccentLanguage": "achuutaiin_dugang"
      },
      {
        "code": 0,
        "type": "City",
        "enNameLanguage": "Bayan Dugang",
        "location": {
          "lat": 49.517,
          "lng": 103.617
        },
        "keyAccentLanguage": "bayan_dugang"
      },
      {
        "code": 0,
        "type": "City",
        "enNameLanguage": "Surte Dugang",
        "location": {
          "lat": 49.35,
          "lng": 104.45
        },
        "keyAccentLanguage": "surte_dugang"
      },
      {
        "code": 0,
        "type": "City",
        "enNameLanguage": "Hayrhan Suma",
        "location": {
          "lat": 48.3,
          "lng": 103.383
        },
        "keyAccentLanguage": "hayrhan_suma"
      },
      {
        "code": 0,
        "type": "City",
        "enNameLanguage": "Mogoyn Dugang",
        "location": {
          "lat": 49.267,
          "lng": 103.7
        },
        "keyAccentLanguage": "mogoyn_dugang"
      },
      {
        "code": 0,
        "type": "City",
        "enNameLanguage": "Tsulhur-Dugan",
        "location": {
          "lat": 49.5,
          "lng": 104.35
        },
        "keyAccentLanguage": "tsulhur-dugan"
      },
      {
        "code": 0,
        "type": "City",
        "enNameLanguage": "Shara Manhatay",
        "location": {
          "lat": 49.733,
          "lng": 104.75
        },
        "keyAccentLanguage": "shara_manhatay"
      },
      {
        "code": 0,
        "type": "City",
        "enNameLanguage": "Haliun",
        "location": {
          "lat": 48.817,
          "lng": 103.967
        },
        "keyAccentLanguage": "haliun"
      },
      {
        "code": 0,
        "type": "City",
        "enNameLanguage": "Tsonholong Suma",
        "location": {
          "lat": 49.3,
          "lng": 103.667
        },
        "keyAccentLanguage": "tsonholong_suma"
      },
      {
        "code": 0,
        "type": "City",
        "enNameLanguage": "Huremt",
        "location": {
          "lat": 48.663,
          "lng": 102.623
        },
        "keyAccentLanguage": "huremt"
      },
      {
        "code": 0,
        "type": "City",
        "enNameLanguage": "Shandanii Dugang",
        "location": {
          "lat": 48.833,
          "lng": 104.2
        },
        "keyAccentLanguage": "shandanii_dugang"
      },
      {
        "code": 0,
        "type": "City",
        "enNameLanguage": "Bayan-Agt",
        "location": {
          "lat": 49.034,
          "lng": 102.087
        },
        "keyAccentLanguage": "bayan-agt"
      },
      {
        "code": 0,
        "type": "City",
        "enNameLanguage": "Tsambaiin Hiid",
        "location": {
          "lat": 49.65,
          "lng": 102.9
        },
        "keyAccentLanguage": "tsambaiin_hiid"
      },
      {
        "code": 0,
        "type": "City",
        "enNameLanguage": "Teshig",
        "location": {
          "lat": 49.955,
          "lng": 102.613
        },
        "keyAccentLanguage": "teshig"
      },
      {
        "code": 0,
        "type": "City",
        "enNameLanguage": "Semchin Dugang",
        "location": {
          "lat": 49.25,
          "lng": 101.583
        },
        "keyAccentLanguage": "semchin_dugang"
      },
      {
        "code": 0,
        "type": "City",
        "enNameLanguage": "Tsasaiin Dugang",
        "location": {
          "lat": 49.767,
          "lng": 104.6
        },
        "keyAccentLanguage": "tsasaiin_dugang"
      },
      {
        "code": 0,
        "type": "City",
        "enNameLanguage": "Eringiin Dugang",
        "location": {
          "lat": 50.159,
          "lng": 102.658
        },
        "keyAccentLanguage": "eringiin_dugang"
      },
      {
        "code": 0,
        "type": "City",
        "enNameLanguage": "Dzultayn Dugang",
        "location": {
          "lat": 49.933,
          "lng": 102.6
        },
        "keyAccentLanguage": "dzultayn_dugang"
      },
      {
        "code": 0,
        "type": "City",
        "enNameLanguage": "Tarbagatayn Dugang",
        "location": {
          "lat": 49.767,
          "lng": 103.1
        },
        "keyAccentLanguage": "tarbagatayn_dugang"
      },
      {
        "code": 0,
        "type": "City",
        "enNameLanguage": "Terete",
        "location": {
          "lat": 49.433,
          "lng": 103.983
        },
        "keyAccentLanguage": "terete"
      },
      {
        "code": 0,
        "type": "City",
        "enNameLanguage": "Selenge Suma",
        "location": {
          "lat": 49.133,
          "lng": 102.983
        },
        "keyAccentLanguage": "selenge_suma"
      },
      {
        "code": 0,
        "type": "City",
        "enNameLanguage": "Selenger",
        "location": {
          "lat": 49.117,
          "lng": 103.133
        },
        "keyAccentLanguage": "selenger"
      },
      {
        "code": 0,
        "type": "City",
        "enNameLanguage": "Baligiin Huryee",
        "location": {
          "lat": 49.165,
          "lng": 101.943
        },
        "keyAccentLanguage": "baligiin_huryee"
      },
      {
        "code": 0,
        "type": "City",
        "enNameLanguage": "Avdzaga",
        "location": {
          "lat": 47.87344,
          "lng": 103.408699
        },
        "keyAccentLanguage": "avdzaga"
      }
    ],
    "enNameLanguage": "Bulgan",
    "keyAccentLanguage": "bulgan"
  },
  {
    "code": 0,
    "type": "State",
    "location": {
      "lat": 49.448929,
      "lng": 106.2325245
    },
    "districtList": [
      {
        "code": 0,
        "type": "City",
        "enNameLanguage": "Darkhan",
        "location": {
          "lat": 49.4640476,
          "lng": 105.9687948
        },
        "keyAccentLanguage": "darkhan"
      },
      {
        "code": 0,
        "type": "City",
        "enNameLanguage": "Orhon",
        "location": {
          "lat": 49.833,
          "lng": 106.136
        },
        "keyAccentLanguage": "orhon"
      },
      {
        "code": 0,
        "type": "City",
        "enNameLanguage": "Hicheegiin Dugang",
        "location": {
          "lat": 49.917,
          "lng": 106.25
        },
        "keyAccentLanguage": "hicheegiin_dugang"
      },
      {
        "code": 0,
        "type": "City",
        "enNameLanguage": "Dulaanhaan",
        "location": {
          "lat": 49.903,
          "lng": 106.175
        },
        "keyAccentLanguage": "dulaanhaan"
      }
    ],
    "enNameLanguage": "Darhan uul",
    "keyAccentLanguage": "darhan_uul"
  },
  {
    "code": 0,
    "type": "State",
    "location": {
      "lat": 47.4658154,
      "lng": 115.392712
    },
    "districtList": [
      {
        "code": 0,
        "type": "City",
        "enNameLanguage": "Dashbalbar",
        "location": {
          "lat": 49.5411146,
          "lng": 114.4001216
        },
        "keyAccentLanguage": "dashbalbar"
      },
      {
        "code": 0,
        "type": "City",
        "enNameLanguage": "Sergelen",
        "location": {
          "lat": 48.5081363,
          "lng": 114.0373195
        },
        "keyAccentLanguage": "sergelen"
      },
      {
        "code": 0,
        "type": "City",
        "enNameLanguage": "Gurvan Bayan",
        "location": {
          "lat": 48.616667,
          "lng": 115.233333
        },
        "keyAccentLanguage": "gurvan_bayan"
      },
      {
        "code": 0,
        "type": "City",
        "enNameLanguage": "Han-Uul",
        "location": {
          "lat": 48.016667,
          "lng": 114.666667
        },
        "keyAccentLanguage": "han-uul"
      },
      {
        "code": 0,
        "type": "City",
        "enNameLanguage": "Olon Bayshing",
        "location": {
          "lat": 48.2227684,
          "lng": 115.0389646
        },
        "keyAccentLanguage": "olon_bayshing"
      },
      {
        "code": 0,
        "type": "City",
        "enNameLanguage": "Hoshuu Sume",
        "location": {
          "lat": 48.2227684,
          "lng": 115.0389646
        },
        "keyAccentLanguage": "hoshuu_sume"
      },
      {
        "code": 0,
        "type": "City",
        "enNameLanguage": "Hujirtayn Dugang",
        "location": {
          "lat": 48.2227684,
          "lng": 115.0389646
        },
        "keyAccentLanguage": "hujirtayn_dugang"
      },
      {
        "code": 0,
        "type": "City",
        "enNameLanguage": "Dzalaa",
        "location": {
          "lat": 48.467,
          "lng": 115.75
        },
        "keyAccentLanguage": "dzalaa"
      },
      {
        "code": 0,
        "type": "City",
        "enNameLanguage": "Chavirga",
        "location": {
          "lat": 49.074,
          "lng": 115.363
        },
        "keyAccentLanguage": "chavirga"
      },
      {
        "code": 0,
        "type": "City",
        "enNameLanguage": "Bulagan Suma",
        "location": {
          "lat": 48.05,
          "lng": 113.483
        },
        "keyAccentLanguage": "bulagan_suma"
      },
      {
        "code": 0,
        "type": "City",
        "enNameLanguage": "Bayan Bulag",
        "location": {
          "lat": 48.117,
          "lng": 114.317
        },
        "keyAccentLanguage": "bayan_bulag"
      },
      {
        "code": 0,
        "type": "City",
        "enNameLanguage": "Dzuunbulag",
        "location": {
          "lat": 47.15,
          "lng": 115.533
        },
        "keyAccentLanguage": "dzuunbulag"
      },
      {
        "code": 0,
        "type": "City",
        "enNameLanguage": "Badmashin",
        "location": {
          "lat": 47.283,
          "lng": 116.65
        },
        "keyAccentLanguage": "badmashin"
      },
      {
        "code": 0,
        "type": "City",
        "enNameLanguage": "Gegeen Hiid",
        "location": {
          "lat": 48.2,
          "lng": 114.75
        },
        "keyAccentLanguage": "gegeen_hiid"
      },
      {
        "code": 0,
        "type": "City",
        "enNameLanguage": "Dabasan Suma",
        "location": {
          "lat": 48.467,
          "lng": 114.767
        },
        "keyAccentLanguage": "dabasan_suma"
      },
      {
        "code": 0,
        "type": "City",
        "enNameLanguage": "Halha Horoo",
        "location": {
          "lat": 46.669,
          "lng": 117.223
        },
        "keyAccentLanguage": "halha_horoo"
      },
      {
        "code": 0,
        "type": "City",
        "enNameLanguage": "Ondorhushuu",
        "location": {
          "lat": 47.994,
          "lng": 113.955
        },
        "keyAccentLanguage": "ondorhushuu"
      },
      {
        "code": 0,
        "type": "City",
        "enNameLanguage": "Teregen Bayan Sume",
        "location": {
          "lat": 46.873,
          "lng": 115.56
        },
        "keyAccentLanguage": "teregen_bayan_sume"
      },
      {
        "code": 0,
        "type": "City",
        "enNameLanguage": "Hoshoo Sume",
        "location": {
          "lat": 47.3,
          "lng": 119.05
        },
        "keyAccentLanguage": "hoshoo_sume"
      },
      {
        "code": 0,
        "type": "City",
        "enNameLanguage": "Guunii Hiid",
        "location": {
          "lat": 48,
          "lng": 114.5
        },
        "keyAccentLanguage": "guunii_hiid"
      },
      {
        "code": 0,
        "type": "City",
        "enNameLanguage": "Yehe Burham Sum",
        "location": {
          "lat": 47.867,
          "lng": 118.45
        },
        "keyAccentLanguage": "yehe_burham_sum"
      },
      {
        "code": 0,
        "type": "City",
        "enNameLanguage": "Ugtamiin Hiid",
        "location": {
          "lat": 49.3,
          "lng": 113.783
        },
        "keyAccentLanguage": "ugtamiin_hiid"
      },
      {
        "code": 0,
        "type": "City",
        "enNameLanguage": "Tsagaannuur",
        "location": {
          "lat": 47.58,
          "lng": 118.566
        },
        "keyAccentLanguage": "tsagaannuur"
      },
      {
        "code": 0,
        "type": "City",
        "enNameLanguage": "Tsagaan Usanii Ortoo",
        "location": {
          "lat": 47.617,
          "lng": 115.4
        },
        "keyAccentLanguage": "tsagaan_usanii_ortoo"
      },
      {
        "code": 0,
        "type": "City",
        "enNameLanguage": "Bayandun",
        "location": {
          "lat": 49.241,
          "lng": 113.373
        },
        "keyAccentLanguage": "bayandun"
      },
      {
        "code": 0,
        "type": "City",
        "enNameLanguage": "Enger-Shand",
        "location": {
          "lat": 48.817,
          "lng": 115.2
        },
        "keyAccentLanguage": "enger-shand"
      },
      {
        "code": 0,
        "type": "City",
        "enNameLanguage": "Hulstay",
        "location": {
          "lat": 48.433,
          "lng": 114.867
        },
        "keyAccentLanguage": "hulstay"
      },
      {
        "code": 0,
        "type": "City",
        "enNameLanguage": "Choybalsan",
        "location": {
          "lat": 48.067,
          "lng": 114.5
        },
        "keyAccentLanguage": "choybalsan"
      },
      {
        "code": 0,
        "type": "City",
        "enNameLanguage": "Ara Jirgalanta Hiid",
        "location": {
          "lat": 47.05,
          "lng": 115.05
        },
        "keyAccentLanguage": "ara_jirgalanta_hiid"
      },
      {
        "code": 0,
        "type": "City",
        "enNameLanguage": "Halhgol",
        "location": {
          "lat": 48.186,
          "lng": 114.9
        },
        "keyAccentLanguage": "halhgol"
      },
      {
        "code": 0,
        "type": "City",
        "enNameLanguage": "Alata",
        "location": {
          "lat": 48.683,
          "lng": 115.967
        },
        "keyAccentLanguage": "alata"
      },
      {
        "code": 0,
        "type": "City",
        "enNameLanguage": "Onon",
        "location": {
          "lat": 49.117,
          "lng": 112.667
        },
        "keyAccentLanguage": "onon"
      },
      {
        "code": 0,
        "type": "City",
        "enNameLanguage": "Ereentsav",
        "location": {
          "lat": 49.7,
          "lng": 114.3
        },
        "keyAccentLanguage": "ereentsav"
      },
      {
        "code": 0,
        "type": "City",
        "enNameLanguage": "Hoho Usanay Bayshing",
        "location": {
          "lat": 47.333,
          "lng": 115.85
        },
        "keyAccentLanguage": "hoho_usanay_bayshing"
      },
      {
        "code": 0,
        "type": "City",
        "enNameLanguage": "Hujirta",
        "location": {
          "lat": 49.367,
          "lng": 112.7
        },
        "keyAccentLanguage": "hujirta"
      },
      {
        "code": 0,
        "type": "City",
        "enNameLanguage": "Bayan",
        "location": {
          "lat": 47.917,
          "lng": 112.95
        },
        "keyAccentLanguage": "bayan"
      },
      {
        "code": 0,
        "type": "City",
        "enNameLanguage": "Matad",
        "location": {
          "lat": 47.128,
          "lng": 115.643
        },
        "keyAccentLanguage": "matad"
      },
      {
        "code": 0,
        "type": "City",
        "enNameLanguage": "Under",
        "location": {
          "lat": 47.817,
          "lng": 115.067
        },
        "keyAccentLanguage": "under"
      },
      {
        "code": 0,
        "type": "City",
        "enNameLanguage": "Bayan Don",
        "location": {
          "lat": 48.733,
          "lng": 114.55
        },
        "keyAccentLanguage": "bayan_don"
      },
      {
        "code": 0,
        "type": "City",
        "enNameLanguage": "Ulhanii Mayhan",
        "location": {
          "lat": 49.45,
          "lng": 112.533
        },
        "keyAccentLanguage": "ulhanii_mayhan"
      },
      {
        "code": 0,
        "type": "City",
        "enNameLanguage": "Chogno",
        "location": {
          "lat": 48.315,
          "lng": 114.311
        },
        "keyAccentLanguage": "chogno"
      },
      {
        "code": 0,
        "type": "City",
        "enNameLanguage": "Herlenbayan",
        "location": {
          "lat": 48.367,
          "lng": 114.117
        },
        "keyAccentLanguage": "herlenbayan"
      },
      {
        "code": 0,
        "type": "City",
        "enNameLanguage": "Dzahachi Ortoo",
        "location": {
          "lat": 47.833,
          "lng": 114.283
        },
        "keyAccentLanguage": "dzahachi_ortoo"
      },
      {
        "code": 0,
        "type": "City",
        "enNameLanguage": "Halyuutayn Holboo Ortoo",
        "location": {
          "lat": 49.05,
          "lng": 113.533
        },
        "keyAccentLanguage": "halyuutayn_holboo_ortoo"
      },
      {
        "code": 0,
        "type": "City",
        "enNameLanguage": "Dochgol",
        "location": {
          "lat": 49.717,
          "lng": 114.283
        },
        "keyAccentLanguage": "dochgol"
      },
      {
        "code": 0,
        "type": "City",
        "enNameLanguage": "Chajcin Ocha",
        "location": {
          "lat": 47.828,
          "lng": 116.17
        },
        "keyAccentLanguage": "chajcin_ocha"
      },
      {
        "code": 0,
        "type": "City",
        "enNameLanguage": "Tamsagbulag",
        "location": {
          "lat": 47.243,
          "lng": 117.311
        },
        "keyAccentLanguage": "tamsagbulag"
      },
      {
        "code": 0,
        "type": "City",
        "enNameLanguage": "Ulan-Tsereg",
        "location": {
          "lat": 47.45,
          "lng": 115.6
        },
        "keyAccentLanguage": "ulan-tsereg"
      },
      {
        "code": 0,
        "type": "City",
        "enNameLanguage": "Hogshin Hiid",
        "location": {
          "lat": 48.267,
          "lng": 114.933
        },
        "keyAccentLanguage": "hogshin_hiid"
      },
      {
        "code": 0,
        "type": "City",
        "enNameLanguage": "Gurbanii Ortoo",
        "location": {
          "lat": 48.317,
          "lng": 114.3
        },
        "keyAccentLanguage": "gurbanii_ortoo"
      },
      {
        "code": 0,
        "type": "City",
        "enNameLanguage": "Naranbulag",
        "location": {
          "lat": 49.233,
          "lng": 113.367
        },
        "keyAccentLanguage": "naranbulag"
      },
      {
        "code": 0,
        "type": "City",
        "enNameLanguage": "Obor Urtaiin Ortoo",
        "location": {
          "lat": 47.583,
          "lng": 114.083
        },
        "keyAccentLanguage": "obor_urtaiin_ortoo"
      },
      {
        "code": 0,
        "type": "City",
        "enNameLanguage": "Buhinhashiten Hudag",
        "location": {
          "lat": 47.169,
          "lng": 116.164
        },
        "keyAccentLanguage": "buhinhashiten_hudag"
      },
      {
        "code": 0,
        "type": "City",
        "enNameLanguage": "Jirgalantayn Suma",
        "location": {
          "lat": 48.217,
          "lng": 114.9
        },
        "keyAccentLanguage": "jirgalantayn_suma"
      },
      {
        "code": 0,
        "type": "City",
        "enNameLanguage": "Shara Oboonii Bayshing",
        "location": {
          "lat": 47.083,
          "lng": 115.667
        },
        "keyAccentLanguage": "shara_oboonii_bayshing"
      },
      {
        "code": 0,
        "type": "City",
        "enNameLanguage": "Ereentsay",
        "location": {
          "lat": 49.864,
          "lng": 115.692
        },
        "keyAccentLanguage": "ereentsay"
      },
      {
        "code": 0,
        "type": "City",
        "enNameLanguage": "Jaraahayn Ortoo",
        "location": {
          "lat": 49.467,
          "lng": 114.133
        },
        "keyAccentLanguage": "jaraahayn_ortoo"
      },
      {
        "code": 0,
        "type": "City",
        "enNameLanguage": "Bayan Delgeruulegchi Sume",
        "location": {
          "lat": 46.85,
          "lng": 115.533
        },
        "keyAccentLanguage": "bayan_delgeruulegchi_sume"
      },
      {
        "code": 0,
        "type": "City",
        "enNameLanguage": "Teegiin Sume",
        "location": {
          "lat": 47,
          "lng": 115.75
        },
        "keyAccentLanguage": "teegiin_sume"
      },
      {
        "code": 0,
        "type": "City",
        "enNameLanguage": "Tsagaanders",
        "location": {
          "lat": 48.06,
          "lng": 114.506
        },
        "keyAccentLanguage": "tsagaanders"
      },
      {
        "code": 0,
        "type": "City",
        "enNameLanguage": "Sumiyn Bulag",
        "location": {
          "lat": 49.146,
          "lng": 114.865
        },
        "keyAccentLanguage": "sumiyn_bulag"
      },
      {
        "code": 0,
        "type": "City",
        "enNameLanguage": "Erdeni Guunii Hiid",
        "location": {
          "lat": 48.367,
          "lng": 112.617
        },
        "keyAccentLanguage": "erdeni_guunii_hiid"
      },
      {
        "code": 0,
        "type": "City",
        "enNameLanguage": "Sumber",
        "location": {
          "lat": 47.659,
          "lng": 118.51
        },
        "keyAccentLanguage": "sumber"
      },
      {
        "code": 0,
        "type": "City",
        "enNameLanguage": "Ovor-Ereen",
        "location": {
          "lat": 49.267,
          "lng": 112.483
        },
        "keyAccentLanguage": "ovor-ereen"
      },
      {
        "code": 0,
        "type": "City",
        "enNameLanguage": "Ugtamiin Araiin Ortoo",
        "location": {
          "lat": 49.4,
          "lng": 113.767
        },
        "keyAccentLanguage": "ugtamiin_araiin_ortoo"
      },
      {
        "code": 0,
        "type": "City",
        "enNameLanguage": "Hogno",
        "location": {
          "lat": 48.65,
          "lng": 113.946
        },
        "keyAccentLanguage": "hogno"
      },
      {
        "code": 0,
        "type": "City",
        "enNameLanguage": "Hoovor",
        "location": {
          "lat": 48.41,
          "lng": 113.408
        },
        "keyAccentLanguage": "hoovor"
      },
      {
        "code": 0,
        "type": "City",
        "enNameLanguage": "Subsal Burideiin Horshoo",
        "location": {
          "lat": 49.317,
          "lng": 114.317
        },
        "keyAccentLanguage": "subsal_burideiin_horshoo"
      },
      {
        "code": 0,
        "type": "City",
        "enNameLanguage": "Tugiin Sume",
        "location": {
          "lat": 47.983,
          "lng": 113.417
        },
        "keyAccentLanguage": "tugiin_sume"
      },
      {
        "code": 0,
        "type": "City",
        "enNameLanguage": "Damba Daraja Hiid",
        "location": {
          "lat": 49.417,
          "lng": 113.433
        },
        "keyAccentLanguage": "damba_daraja_hiid"
      },
      {
        "code": 0,
        "type": "City",
        "enNameLanguage": "Moroks Shoroo Ayl",
        "location": {
          "lat": 47.267,
          "lng": 119.067
        },
        "keyAccentLanguage": "moroks_shoroo_ayl"
      },
      {
        "code": 0,
        "type": "City",
        "enNameLanguage": "Naydanii Hural",
        "location": {
          "lat": 47.983,
          "lng": 113.917
        },
        "keyAccentLanguage": "naydanii_hural"
      },
      {
        "code": 0,
        "type": "City",
        "enNameLanguage": "Jargalant",
        "location": {
          "lat": 46.95,
          "lng": 115.283
        },
        "keyAccentLanguage": "jargalant"
      },
      {
        "code": 0,
        "type": "City",
        "enNameLanguage": "Lunii Bayshing",
        "location": {
          "lat": 47.983,
          "lng": 113.8
        },
        "keyAccentLanguage": "lunii_bayshing"
      },
      {
        "code": 0,
        "type": "City",
        "enNameLanguage": "Suujiin Ortoo",
        "location": {
          "lat": 47.833,
          "lng": 114.8
        },
        "keyAccentLanguage": "suujiin_ortoo"
      },
      {
        "code": 0,
        "type": "City",
        "enNameLanguage": "Lamaiin Hiid",
        "location": {
          "lat": 48.233,
          "lng": 114.867
        },
        "keyAccentLanguage": "lamaiin_hiid"
      },
      {
        "code": 0,
        "type": "City",
        "enNameLanguage": "Javarthushuu",
        "location": {
          "lat": 49.123,
          "lng": 112.67
        },
        "keyAccentLanguage": "javarthushuu"
      },
      {
        "code": 0,
        "type": "City",
        "enNameLanguage": "Sudzhiyn-Urto",
        "location": {
          "lat": 47.9,
          "lng": 114.733
        },
        "keyAccentLanguage": "sudzhiyn-urto"
      },
      {
        "code": 0,
        "type": "City",
        "enNameLanguage": "Sabangiin Ortoo",
        "location": {
          "lat": 48.283,
          "lng": 113.233
        },
        "keyAccentLanguage": "sabangiin_ortoo"
      },
      {
        "code": 0,
        "type": "City",
        "enNameLanguage": "Hushuu Sume",
        "location": {
          "lat": 46.792,
          "lng": 115.318
        },
        "keyAccentLanguage": "hushuu_sume"
      },
      {
        "code": 0,
        "type": "City",
        "enNameLanguage": "Tamsagiin Hiid",
        "location": {
          "lat": 47.2,
          "lng": 117.35
        },
        "keyAccentLanguage": "tamsagiin_hiid"
      },
      {
        "code": 0,
        "type": "City",
        "enNameLanguage": "Hunta Suma",
        "location": {
          "lat": 47.133,
          "lng": 117.467
        },
        "keyAccentLanguage": "hunta_suma"
      },
      {
        "code": 0,
        "type": "City",
        "enNameLanguage": "Ulaan Tolgoy",
        "location": {
          "lat": 48.733,
          "lng": 115.667
        },
        "keyAccentLanguage": "ulaan_tolgoy"
      },
      {
        "code": 0,
        "type": "City",
        "enNameLanguage": "Ulaan Dzuleg",
        "location": {
          "lat": 47.5,
          "lng": 115.333
        },
        "keyAccentLanguage": "ulaan_dzuleg"
      },
      {
        "code": 0,
        "type": "City",
        "enNameLanguage": "Hara Erginii Ortoo",
        "location": {
          "lat": 48.067,
          "lng": 113.933
        },
        "keyAccentLanguage": "hara_erginii_ortoo"
      },
      {
        "code": 0,
        "type": "City",
        "enNameLanguage": "Mongolryba",
        "location": {
          "lat": 47.907,
          "lng": 117.867
        },
        "keyAccentLanguage": "mongolryba"
      },
      {
        "code": 0,
        "type": "City",
        "enNameLanguage": "Galuut",
        "location": {
          "lat": 48.686,
          "lng": 113.118
        },
        "keyAccentLanguage": "galuut"
      },
      {
        "code": 0,
        "type": "City",
        "enNameLanguage": "Jirgalanta Horshoo",
        "location": {
          "lat": 48.667,
          "lng": 113.617
        },
        "keyAccentLanguage": "jirgalanta_horshoo"
      },
      {
        "code": 0,
        "type": "City",
        "enNameLanguage": "Hahatay",
        "location": {
          "lat": 46.933,
          "lng": 118.95
        },
        "keyAccentLanguage": "hahatay"
      },
      {
        "code": 0,
        "type": "City",
        "enNameLanguage": "Halhgol",
        "location": {
          "lat": 48.186,
          "lng": 114.9
        },
        "keyAccentLanguage": "halhgol"
      },
      {
        "code": 0,
        "type": "City",
        "enNameLanguage": "Hushuu Sume",
        "location": {
          "lat": 46.792,
          "lng": 115.318
        },
        "keyAccentLanguage": "hushuu_sume"
      }
    ],
    "enNameLanguage": "Dornod",
    "keyAccentLanguage": "dornod"
  },
  {
    "code": 0,
    "type": "State",
    "location": {
      "lat": 0,
      "lng": 0
    },
    "districtList": [
      {
        "code": 0,
        "type": "City",
        "enNameLanguage": "Nuden-hudag",
        "location": {
          "lat": 43.8333333,
          "lng": 110.4166667
        },
        "keyAccentLanguage": "nuden-hudag"
      },
      {
        "code": 0,
        "type": "City",
        "enNameLanguage": "Seeriin Hiid",
        "location": {
          "lat": 43.9653889,
          "lng": 109.1773459
        },
        "keyAccentLanguage": "seeriin_hiid"
      },
      {
        "code": 0,
        "type": "City",
        "enNameLanguage": "Buuraliin Hiid",
        "location": {
          "lat": 44.583,
          "lng": 108.8
        },
        "keyAccentLanguage": "buuraliin_hiid"
      },
      {
        "code": 0,
        "type": "City",
        "enNameLanguage": "Arsayn-shand",
        "location": {
          "lat": 44.967,
          "lng": 110.083
        },
        "keyAccentLanguage": "arsayn-shand"
      },
      {
        "code": 0,
        "type": "City",
        "enNameLanguage": "Abarahaiin Hiid",
        "location": {
          "lat": 45.767,
          "lng": 111.2
        },
        "keyAccentLanguage": "abarahaiin_hiid"
      },
      {
        "code": 0,
        "type": "City",
        "enNameLanguage": "Boro Hamar",
        "location": {
          "lat": 43.6,
          "lng": 109.7
        },
        "keyAccentLanguage": "boro_hamar"
      },
      {
        "code": 0,
        "type": "City",
        "enNameLanguage": "Bayan Monhoiin Hiid",
        "location": {
          "lat": 45.2,
          "lng": 111.467
        },
        "keyAccentLanguage": "bayan_monhoiin_hiid"
      },
      {
        "code": 0,
        "type": "City",
        "enNameLanguage": "Chindamani Suma",
        "location": {
          "lat": 44.75,
          "lng": 109.667
        },
        "keyAccentLanguage": "chindamani_suma"
      },
      {
        "code": 0,
        "type": "City",
        "enNameLanguage": "Hatanbulag",
        "location": {
          "lat": 43.185,
          "lng": 109.219
        },
        "keyAccentLanguage": "hatanbulag"
      },
      {
        "code": 0,
        "type": "City",
        "enNameLanguage": "Aylbayan",
        "location": {
          "lat": 43.633,
          "lng": 108.9
        },
        "keyAccentLanguage": "aylbayan"
      },
      {
        "code": 0,
        "type": "City",
        "enNameLanguage": "Choylingiin Hiid",
        "location": {
          "lat": 44.75,
          "lng": 110.033
        },
        "keyAccentLanguage": "choylingiin_hiid"
      },
      {
        "code": 0,
        "type": "City",
        "enNameLanguage": "Bumbata",
        "location": {
          "lat": 43.5,
          "lng": 109.75
        },
        "keyAccentLanguage": "bumbata"
      },
      {
        "code": 0,
        "type": "City",
        "enNameLanguage": "Deresenii Bulagiin Hiid",
        "location": {
          "lat": 45.25,
          "lng": 110.2
        },
        "keyAccentLanguage": "deresenii_bulagiin_hiid"
      },
      {
        "code": 0,
        "type": "City",
        "enNameLanguage": "Bayan Oboo Hiid",
        "location": {
          "lat": 42.667,
          "lng": 109.917
        },
        "keyAccentLanguage": "bayan_oboo_hiid"
      },
      {
        "code": 0,
        "type": "City",
        "enNameLanguage": "Obor Ulaan Haylan",
        "location": {
          "lat": 46.083,
          "lng": 110.167
        },
        "keyAccentLanguage": "obor_ulaan_haylan"
      },
      {
        "code": 0,
        "type": "City",
        "enNameLanguage": "Bayan Hiid",
        "location": {
          "lat": 44.917,
          "lng": 108.917
        },
        "keyAccentLanguage": "bayan_hiid"
      },
      {
        "code": 0,
        "type": "City",
        "enNameLanguage": "Hoboriin Hiid",
        "location": {
          "lat": 43.25,
          "lng": 110.467
        },
        "keyAccentLanguage": "hoboriin_hiid"
      },
      {
        "code": 0,
        "type": "City",
        "enNameLanguage": "Bata Oldzeyte Hural",
        "location": {
          "lat": 43.117,
          "lng": 110.35
        },
        "keyAccentLanguage": "bata_oldzeyte_hural"
      },
      {
        "code": 0,
        "type": "City",
        "enNameLanguage": "Bayan",
        "location": {
          "lat": 46.25,
          "lng": 110.167
        },
        "keyAccentLanguage": "bayan"
      },
      {
        "code": 0,
        "type": "City",
        "enNameLanguage": "Dzalaata",
        "location": {
          "lat": 44.317,
          "lng": 107.9
        },
        "keyAccentLanguage": "dzalaata"
      },
      {
        "code": 0,
        "type": "City",
        "enNameLanguage": "Dalan Turuu",
        "location": {
          "lat": 44.367,
          "lng": 110.05
        },
        "keyAccentLanguage": "dalan_turuu"
      },
      {
        "code": 0,
        "type": "City",
        "enNameLanguage": "Senj",
        "location": {
          "lat": 44.717,
          "lng": 110.767
        },
        "keyAccentLanguage": "senj"
      },
      {
        "code": 0,
        "type": "City",
        "enNameLanguage": "Delgereh",
        "location": {
          "lat": 45.803,
          "lng": 111.219
        },
        "keyAccentLanguage": "delgereh"
      },
      {
        "code": 0,
        "type": "City",
        "enNameLanguage": "Ulaanbadrah",
        "location": {
          "lat": 44.195,
          "lng": 111.225
        },
        "keyAccentLanguage": "ulaanbadrah"
      },
      {
        "code": 0,
        "type": "City",
        "enNameLanguage": "Oldziyt",
        "location": {
          "lat": 44.696,
          "lng": 109.023
        },
        "keyAccentLanguage": "oldziyt"
      },
      {
        "code": 0,
        "type": "City",
        "enNameLanguage": "Jisa Hural",
        "location": {
          "lat": 46.167,
          "lng": 109.05
        },
        "keyAccentLanguage": "jisa_hural"
      },
      {
        "code": 0,
        "type": "City",
        "enNameLanguage": "Hongor",
        "location": {
          "lat": 45.8,
          "lng": 111.2
        },
        "keyAccentLanguage": "hongor"
      },