[
  {
    "code": 0,
    "type": "State",
    "location": {
      "lat": 17.0342125,
      "lng": 95.22666749999999
    },
    "districtList": [
      {
        "code": 0,
        "type": "City",
        "enNameLanguage": "Bant Bway Kone",
        "location": {
          "lat": 17.98,
          "lng": 95.114
        },
        "keyAccentLanguage": "bant_bway_kone"
      },
      {
        "code": 0,
        "type": "City",
        "enNameLanguage": "Ahtaung",
        "location": {
          "lat": 17.347,
          "lng": 95.335
        },
        "keyAccentLanguage": "ahtaung"
      },
      {
        "code": 0,
        "type": "City",
        "enNameLanguage": "Bogale",
        "location": {
          "lat": 16.291,
          "lng": 95.398
        },
        "keyAccentLanguage": "bogale"
      },
      {
        "code": 0,
        "type": "City",
        "enNameLanguage": "Daunggyi",
        "location": {
          "lat": 17.531,
          "lng": 95.539
        },
        "keyAccentLanguage": "daunggyi"
      },
      {
        "code": 0,
        "type": "City",
        "enNameLanguage": "Dar Ka",
        "location": {
          "lat": 16.97,
          "lng": 94.986
        },
        "keyAccentLanguage": "dar_ka"
      },
      {
        "code": 0,
        "type": "City",
        "enNameLanguage": "Danubyu",
        "location": {
          "lat": 17.257,
          "lng": 95.59
        },
        "keyAccentLanguage": "danubyu"
      },
      {
        "code": 0,
        "type": "City",
        "enNameLanguage": "Hay Man",
        "location": {
          "lat": 16.198,
          "lng": 95.468
        },
        "keyAccentLanguage": "hay_man"
      },
      {
        "code": 0,
        "type": "City",
        "enNameLanguage": "Auk Htone",
        "location": {
          "lat": 16.788,
          "lng": 95.481
        },
        "keyAccentLanguage": "auk_htone"
      },
      {
        "code": 0,
        "type": "City",
        "enNameLanguage": "Chaung Wa",
        "location": {
          "lat": 16.009,
          "lng": 94.403
        },
        "keyAccentLanguage": "chaung_wa"
      },
      {
        "code": 0,
        "type": "City",
        "enNameLanguage": "Chaung Twin",
        "location": {
          "lat": 16.307,
          "lng": 95.679
        },
        "keyAccentLanguage": "chaung_twin"
      },
      {
        "code": 0,
        "type": "City",
        "enNameLanguage": "Ingapu",
        "location": {
          "lat": 17.81,
          "lng": 95.269
        },
        "keyAccentLanguage": "ingapu"
      },
      {
        "code": 0,
        "type": "City",
        "enNameLanguage": "Ka Nyin Chaung",
        "location": {
          "lat": 16.035,
          "lng": 94.302
        },
        "keyAccentLanguage": "ka_nyin_chaung"
      },
      {
        "code": 0,
        "type": "City",
        "enNameLanguage": "Gon Hnyin Tan",
        "location": {
          "lat": 16.22,
          "lng": 94.942
        },
        "keyAccentLanguage": "gon_hnyin_tan"
      },
      {
        "code": 0,
        "type": "City",
        "enNameLanguage": "Htoogyi",
        "location": {
          "lat": 17.973,
          "lng": 95.259
        },
        "keyAccentLanguage": "htoogyi"
      },
      {
        "code": 0,
        "type": "City",
        "enNameLanguage": "Aing Tha Pyu",
        "location": {
          "lat": 17.538,
          "lng": 95.171
        },
        "keyAccentLanguage": "aing_tha_pyu"
      },
      {
        "code": 0,
        "type": "City",
        "enNameLanguage": "Bone Gyi Kone",
        "location": {
          "lat": 16.058,
          "lng": 95.04
        },
        "keyAccentLanguage": "bone_gyi_kone"
      },
      {
        "code": 0,
        "type": "City",
        "enNameLanguage": "Day Da Lu",
        "location": {
          "lat": 16.009,
          "lng": 95.66
        },
        "keyAccentLanguage": "day_da_lu"
      },
      {
        "code": 0,
        "type": "City",
        "enNameLanguage": "Eya",
        "location": {
          "lat": 15.805,
          "lng": 95.132
        },
        "keyAccentLanguage": "eya"
      },
      {
        "code": 0,
        "type": "City",
        "enNameLanguage": "Lay Ein Su",
        "location": {
          "lat": 16.71,
          "lng": 95.762
        },
        "keyAccentLanguage": "lay_ein_su"
      },
      {
        "code": 0,
        "type": "City",
        "enNameLanguage": "Hlay Gyi Tet",
        "location": {
          "lat": 17.039,
          "lng": 94.778
        },
        "keyAccentLanguage": "hlay_gyi_tet"
      },
      {
        "code": 0,
        "type": "City",
        "enNameLanguage": "Ah Pyaung",
        "location": {
          "lat": 16.278,
          "lng": 95.678
        },
        "keyAccentLanguage": "ah_pyaung"
      },
      {
        "code": 0,
        "type": "City",
        "enNameLanguage": "Ah Su Gyi",
        "location": {
          "lat": 17.151,
          "lng": 95.282
        },
        "keyAccentLanguage": "ah_su_gyi"
      },
      {
        "code": 0,
        "type": "City",
        "enNameLanguage": "Aye Yar",
        "location": {
          "lat": 15.802,
          "lng": 95.12
        },
        "keyAccentLanguage": "aye_yar"
      },
      {
        "code": 0,
        "type": "City",
        "enNameLanguage": "Htein Ku Lar Kone",
        "location": {
          "lat": 16.828,
          "lng": 95.507
        },
        "keyAccentLanguage": "htein_ku_lar_kone"
      },
      {
        "code": 0,
        "type": "City",
        "enNameLanguage": "Ba Wa Thit",
        "location": {
          "lat": 15.77,
          "lng": 95.469
        },
        "keyAccentLanguage": "ba_wa_thit"
      },
      {
        "code": 0,
        "type": "City",
        "enNameLanguage": "Ka Don Ka Ni",
        "location": {
          "lat": 15.822,
          "lng": 95.217
        },
        "keyAccentLanguage": "ka_don_ka_ni"
      },
      {
        "code": 0,
        "type": "City",
        "enNameLanguage": "Chaung Thar",
        "location": {
          "lat": 16.957,
          "lng": 94.443
        },
        "keyAccentLanguage": "chaung_thar"
      },
      {
        "code": 0,
        "type": "City",
        "enNameLanguage": "Ma Gu",
        "location": {
          "lat": 16.161,
          "lng": 95.293
        },
        "keyAccentLanguage": "ma_gu"
      },
      {
        "code": 0,
        "type": "City",
        "enNameLanguage": "Chaung Ka Lay",
        "location": {
          "lat": 17.006,
          "lng": 95.322
        },
        "keyAccentLanguage": "chaung_ka_lay"
      },
      {
        "code": 0,
        "type": "City",
        "enNameLanguage": "Ba Waing",
        "location": {
          "lat": 17.009,
          "lng": 95.512
        },
        "keyAccentLanguage": "ba_waing"
      },
      {
        "code": 0,
        "type": "City",
        "enNameLanguage": "Let Kyar Gyi",
        "location": {
          "lat": 16.643,
          "lng": 95.814
        },
        "keyAccentLanguage": "let_kyar_gyi"
      },
      {
        "code": 0,
        "type": "City",
        "enNameLanguage": "Ka Zin Ngu",
        "location": {
          "lat": 16.987,
          "lng": 95.467
        },
        "keyAccentLanguage": "ka_zin_ngu"
      },
      {
        "code": 0,
        "type": "City",
        "enNameLanguage": "Bu Din Kwin",
        "location": {
          "lat": 16.359,
          "lng": 94.742
        },
        "keyAccentLanguage": "bu_din_kwin"
      },
      {
        "code": 0,
        "type": "City",
        "enNameLanguage": "Chaungtha",
        "location": {
          "lat": 16.954,
          "lng": 94.459
        },
        "keyAccentLanguage": "chaungtha"
      },
      {
        "code": 0,
        "type": "City",
        "enNameLanguage": "Kyonpyaw",
        "location": {
          "lat": 17.302,
          "lng": 95.195
        },
        "keyAccentLanguage": "kyonpyaw"
      },
      {
        "code": 0,
        "type": "City",
        "enNameLanguage": "Bi Tut",
        "location": {
          "lat": 16.105,
          "lng": 94.869
        },
        "keyAccentLanguage": "bi_tut"
      },
      {
        "code": 0,
        "type": "City",
        "enNameLanguage": "Ama",
        "location": {
          "lat": 15.804,
          "lng": 95.288
        },
        "keyAccentLanguage": "ama"
      },
      {
        "code": 0,
        "type": "City",
        "enNameLanguage": "Pantanaw",
        "location": {
          "lat": 16.982,
          "lng": 95.466
        },
        "keyAccentLanguage": "pantanaw"
      },
      {
        "code": 0,
        "type": "City",
        "enNameLanguage": "Baing Daunt Chaung",
        "location": {
          "lat": 16.059,
          "lng": 94.731
        },
        "keyAccentLanguage": "baing_daunt_chaung"
      },
      {
        "code": 0,
        "type": "City",
        "enNameLanguage": "Kha Yae Gan",
        "location": {
          "lat": 17.118,
          "lng": 95.336
        },
        "keyAccentLanguage": "kha_yae_gan"
      },
      {
        "code": 0,
        "type": "City",
        "enNameLanguage": "Ah Wa Beik",
        "location": {
          "lat": 16.294,
          "lng": 94.568
        },
        "keyAccentLanguage": "ah_wa_beik"
      },
      {
        "code": 0,
        "type": "City",
        "enNameLanguage": "Shauk Chaung",
        "location": {
          "lat": 16.334,
          "lng": 95.182
        },
        "keyAccentLanguage": "shauk_chaung"
      },
      {
        "code": 0,
        "type": "City",
        "enNameLanguage": "Da Ni Seik",
        "location": {
          "lat": 15.948,
          "lng": 95.061
        },
        "keyAccentLanguage": "da_ni_seik"
      },
      {
        "code": 0,
        "type": "City",
        "enNameLanguage": "Hinthada",
        "location": {
          "lat": 17.638,
          "lng": 95.458
        },
        "keyAccentLanguage": "hinthada"
      },
      {
        "code": 0,
        "type": "City",
        "enNameLanguage": "Khway Lay Gyi",
        "location": {
          "lat": 16.534,
          "lng": 94.804
        },
        "keyAccentLanguage": "khway_lay_gyi"
      },
      {
        "code": 0,
        "type": "City",
        "enNameLanguage": "Hlaing Bone",
        "location": {
          "lat": 16.173,
          "lng": 95.083
        },
        "keyAccentLanguage": "hlaing_bone"
      },
      {
        "code": 0,
        "type": "City",
        "enNameLanguage": "Set San",
        "location": {
          "lat": 16.058,
          "lng": 95.372
        },
        "keyAccentLanguage": "set_san"
      },
      {
        "code": 0,
        "type": "City",
        "enNameLanguage": "Ahthoke",
        "location": {
          "lat": 17.202,
          "lng": 95.08
        },
        "keyAccentLanguage": "ahthoke"
      },
      {
        "code": 0,
        "type": "City",
        "enNameLanguage": "In Pin",
        "location": {
          "lat": 18.094,
          "lng": 95.269
        },
        "keyAccentLanguage": "in_pin"
      },
      {
        "code": 0,
        "type": "City",
        "enNameLanguage": "Ah Lel Yae Kyaw",
        "location": {
          "lat": 16.195,
          "lng": 95.052
        },
        "keyAccentLanguage": "ah_lel_yae_kyaw"
      },
      {
        "code": 0,
        "type": "City",
        "enNameLanguage": "Ma Let To",
        "location": {
          "lat": 16.824,
          "lng": 95.721
        },
        "keyAccentLanguage": "ma_let_to"
      },
      {
        "code": 0,
        "type": "City",
        "enNameLanguage": "Tha Pyay Kone (2)/ Tha Pyay Kone",
        "location": {
          "lat": 17.95,
          "lng": 95.408
        },
        "keyAccentLanguage": "tha_pyay_kone_(2)/_tha_pyay_kone"
      },
      {
        "code": 0,
        "type": "City",
        "enNameLanguage": "Ka Ka Yan",
        "location": {
          "lat": 16.243,
          "lng": 95.002
        },
        "keyAccentLanguage": "ka_ka_yan"
      },
      {
        "code": 0,
        "type": "City",
        "enNameLanguage": "Auk Kwin Gyi",
        "location": {
          "lat": 16.273,
          "lng": 95.681
        },
        "keyAccentLanguage": "auk_kwin_gyi"
      },
      {
        "code": 0,
        "type": "City",
        "enNameLanguage": "Daunt Gyi",
        "location": {
          "lat": 15.997,
          "lng": 95.442
        },
        "keyAccentLanguage": "daunt_gyi"
      },
      {
        "code": 0,
        "type": "City",
        "enNameLanguage": "Kyangin",
        "location": {
          "lat": 18.337,
          "lng": 95.249
        },
        "keyAccentLanguage": "kyangin"
      },
      {
        "code": 0,
        "type": "City",
        "enNameLanguage": "Kha Mauk Su",
        "location": {
          "lat": 17.516,
          "lng": 95.253
        },
        "keyAccentLanguage": "kha_mauk_su"
      },
      {
        "code": 0,
        "type": "City",
        "enNameLanguage": "Einme",
        "location": {
          "lat": 16.893,
          "lng": 95.181
        },
        "keyAccentLanguage": "einme"
      },
      {
        "code": 0,
        "type": "City",
        "enNameLanguage": "Nyaungdon",
        "location": {
          "lat": 17.05,
          "lng": 95.639
        },
        "keyAccentLanguage": "nyaungdon"
      },
      {
        "code": 0,
        "type": "City",
        "enNameLanguage": "Kyaunggon",
        "location": {
          "lat": 17.101,
          "lng": 95.186
        },
        "keyAccentLanguage": "kyaunggon"
      },
      {
        "code": 0,
        "type": "City",
        "enNameLanguage": "Kan Bet",
        "location": {
          "lat": 16.223,
          "lng": 94.936
        },
        "keyAccentLanguage": "kan_bet"
      },
      {
        "code": 0,
        "type": "City",
        "enNameLanguage": "Dee Du Kone",
        "location": {
          "lat": 15.879,
          "lng": 94.418
        },
        "keyAccentLanguage": "dee_du_kone"
      },
      {
        "code": 0,
        "type": "City",
        "enNameLanguage": "Hainggyikyun",
        "location": {
          "lat": 16.014,
          "lng": 94.344
        },
        "keyAccentLanguage": "hainggyikyun"
      },
      {
        "code": 0,
        "type": "City",
        "enNameLanguage": "Htan Ta Pin (Du Yar)",
        "location": {
          "lat": 17.56,
          "lng": 95.48
        },
        "keyAccentLanguage": "htan_ta_pin_(du_yar)"
      },
      {
        "code": 0,
        "type": "City",
        "enNameLanguage": "Dedaye",
        "location": {
          "lat": 16.41,
          "lng": 95.887
        },
        "keyAccentLanguage": "dedaye"
      },
      {
        "code": 0,
        "type": "City",
        "enNameLanguage": "Kangyaing",
        "location": {
          "lat": 15.969,
          "lng": 94.26
        },
        "keyAccentLanguage": "kangyaing"
      },
      {
        "code": 0,
        "type": "City",
        "enNameLanguage": "Daw Nyein",
        "location": {
          "lat": 15.909,
          "lng": 95.608
        },
        "keyAccentLanguage": "daw_nyein"
      },
      {
        "code": 0,
        "type": "City",
        "enNameLanguage": "Htone Ta Po",
        "location": {
          "lat": 17.484,
          "lng": 95.67
        },
        "keyAccentLanguage": "htone_ta_po"
      },
      {
        "code": 0,
        "type": "City",
        "enNameLanguage": "Gway Tauk Chaung",
        "location": {
          "lat": 17.92,
          "lng": 95.44
        },
        "keyAccentLanguage": "gway_tauk_chaung"
      },
      {
        "code": 0,
        "type": "City",
        "enNameLanguage": "Hnget Pyaw Kyun",
        "location": {
          "lat": 16.885,
          "lng": 95.793
        },
        "keyAccentLanguage": "hnget_pyaw_kyun"
      },
      {
        "code": 0,
        "type": "City",
        "enNameLanguage": "Ngwesaung",
        "location": {
          "lat": 16.857,
          "lng": 94.389
        },
        "keyAccentLanguage": "ngwesaung"
      },
      {
        "code": 0,
        "type": "City",
        "enNameLanguage": "Ngathaingchaung",
        "location": {
          "lat": 17.393,
          "lng": 95.069
        },
        "keyAccentLanguage": "ngathaingchaung"
      },
      {
        "code": 0,
        "type": "City",
        "enNameLanguage": "Kyun Thar Yar",
        "location": {
          "lat": 15.883,
          "lng": 95.112
        },
        "keyAccentLanguage": "kyun_thar_yar"
      },
      {
        "code": 0,
        "type": "City",
        "enNameLanguage": "Kyein Chaung Gyi",
        "location": {
          "lat": 16.052,
          "lng": 95.189
        },
        "keyAccentLanguage": "kyein_chaung_gyi"
      },
      {
        "code": 0,
        "type": "City",
        "enNameLanguage": "Kyaiklat",
        "location": {
          "lat": 16.444,
          "lng": 95.721
        },
        "keyAccentLanguage": "kyaiklat"
      },
      {
        "code": 0,
        "type": "City",
        "enNameLanguage": "Kan Chaing",
        "location": {
          "lat": 15.997,
          "lng": 94.275
        },
        "keyAccentLanguage": "kan_chaing"
      },
      {
        "code": 0,
        "type": "City",
        "enNameLanguage": "Ka Nyin Kauk Gyi",
        "location": {
          "lat": 16.933,
          "lng": 95.591
        },
        "keyAccentLanguage": "ka_nyin_kauk_gyi"
      },
      {
        "code": 0,
        "type": "City",
        "enNameLanguage": "Kha Yin War Chaung",
        "location": {
          "lat": 16.337,
          "lng": 94.522
        },
        "keyAccentLanguage": "kha_yin_war_chaung"
      },
      {
        "code": 0,
        "type": "City",
        "enNameLanguage": "Hpa Yar Chaung",
        "location": {
          "lat": 16.839,
          "lng": 95.325
        },
        "keyAccentLanguage": "hpa_yar_chaung"
      },
      {
        "code": 0,
        "type": "City",
        "enNameLanguage": "Inn Ga Yan",
        "location": {
          "lat": 17.724,
          "lng": 95.259
        },
        "keyAccentLanguage": "inn_ga_yan"
      },
      {
        "code": 0,
        "type": "City",
        "enNameLanguage": "Yegyi",
        "location": {
          "lat": 17.344,
          "lng": 95.117
        },
        "keyAccentLanguage": "yegyi"
      },
      {
        "code": 0,
        "type": "City",
        "enNameLanguage": "Kat Tha Win",
        "location": {
          "lat": 16.873,
          "lng": 95.553
        },
        "keyAccentLanguage": "kat_tha_win"
      },
      {
        "code": 0,
        "type": "City",
        "enNameLanguage": "Myaungmya",
        "location": {
          "lat": 16.604,
          "lng": 94.923
        },
        "keyAccentLanguage": "myaungmya"
      },
      {
        "code": 0,
        "type": "City",
        "enNameLanguage": "Hinogyaung",
        "location": {
          "lat": 16.615,
          "lng": 94.633
        },
        "keyAccentLanguage": "hinogyaung"
      },
      {
        "code": 0,
        "type": "City",
        "enNameLanguage": "Tei Pin Seik",
        "location": {
          "lat": 15.857,
          "lng": 95.425
        },
        "keyAccentLanguage": "tei_pin_seik"
      },
      {
        "code": 0,
        "type": "City",
        "enNameLanguage": "Mezaligon",
        "location": {
          "lat": 17.895,
          "lng": 95.229
        },
        "keyAccentLanguage": "mezaligon"
      },
      {
        "code": 0,
        "type": "City",
        "enNameLanguage": "Hlwa Zar",
        "location": {
          "lat": 15.981,
          "lng": 94.8
        },
        "keyAccentLanguage": "hlwa_zar"
      },
      {
        "code": 0,
        "type": "City",
        "enNameLanguage": "Wakema",
        "location": {
          "lat": 16.606,
          "lng": 95.173
        },
        "keyAccentLanguage": "wakema"
      },
      {
        "code": 0,
        "type": "City",
        "enNameLanguage": "Hta Nee",
        "location": {
          "lat": 16.731,
          "lng": 95.748
        },
        "keyAccentLanguage": "hta_nee"
      },
      {
        "code": 0,
        "type": "City",
        "enNameLanguage": "Pathein",
        "location": {
          "lat": 16.782,
          "lng": 94.735
        },
        "keyAccentLanguage": "pathein"
      },
      {
        "code": 0,
        "type": "City",
        "enNameLanguage": "Kangyidaunt",
        "location": {
          "lat": 16.932,
          "lng": 94.893
        },
        "keyAccentLanguage": "kangyidaunt"
      },
      {
        "code": 0,
        "type": "City",
        "enNameLanguage": "Maubin",
        "location": {
          "lat": 16.73,
          "lng": 95.651
        },
        "keyAccentLanguage": "maubin"
      },
      {
        "code": 0,
        "type": "City",
        "enNameLanguage": "Labutta",
        "location": {
          "lat": 16.146,
          "lng": 94.759
        },
        "keyAccentLanguage": "labutta"
      },
      {
        "code": 0,
        "type": "City",
        "enNameLanguage": "Zalun",
        "location": {
          "lat": 17.476,
          "lng": 95.551
        },
        "keyAccentLanguage": "zalun"
      },
      {
        "code": 0,
        "type": "City",
        "enNameLanguage": "Pyapon",
        "location": {
          "lat": 16.292,
          "lng": 95.681
        },
        "keyAccentLanguage": "pyapon"
      },
      {
        "code": 0,
        "type": "City",
        "enNameLanguage": "Kant Ba Lar (Htein Tan)",
        "location": {
          "lat": 16.266,
          "lng": 94.534
        },
        "keyAccentLanguage": "kant_ba_lar_(htein_tan)"
      },
      {
        "code": 0,
        "type": "City",
        "enNameLanguage": "Ka Wet Kin",
        "location": {
          "lat": 16.642,
          "lng": 95.828
        },
        "keyAccentLanguage": "ka_wet_kin"
      },
      {
        "code": 0,
        "type": "City",
        "enNameLanguage": "Ngapudaw",
        "location": {
          "lat": 16.545,
          "lng": 94.692
        },
        "keyAccentLanguage": "ngapudaw"
      },
      {
        "code": 0,
        "type": "City",
        "enNameLanguage": "Myanaung",
        "location": {
          "lat": 18.281,
          "lng": 95.324
        },
        "keyAccentLanguage": "myanaung"
      },
      {
        "code": 0,
        "type": "City",
        "enNameLanguage": "Mawlamyinegyun",
        "location": {
          "lat": 16.379,
          "lng": 95.266
        },
        "keyAccentLanguage": "mawlamyinegyun"
      }
    ],
    "enNameLanguage": "Ayeyarwady",
    "keyAccentLanguage": "ayeyarwady"
  },
  {
    "code": 0,
    "type": "State",
    "location": {
      "lat": 44.0214004,
      "lng": -88.51760860000002
    },
    "districtList": [
      {
        "code": 0,
        "type": "City",
        "enNameLanguage": "Letpadan",
        "location": {
          "lat": 17.7917146,
          "lng": 95.7563151
        },
        "keyAccentLanguage": "letpadan"
      },
      {
        "code": 0,
        "type": "City",
        "enNameLanguage": "Paungde",
        "location": {
          "lat": 18.4931618,
          "lng": 95.50662419999999
        },
        "keyAccentLanguage": "paungde"
      },
      {
        "code": 0,
        "type": "City",
        "enNameLanguage": "Yedashe",
        "location": {
          "lat": 19.1588302,
          "lng": 96.3465379
        },
        "keyAccentLanguage": "yedashe"
      },
      {
        "code": 0,
        "type": "City",
        "enNameLanguage": "Kawa",
        "location": {
          "lat": 17.0885228,
          "lng": 96.45966759999999
        },
        "keyAccentLanguage": "kawa"
      },
      {
        "code": 0,
        "type": "City",
        "enNameLanguage": "Thanatpin",
        "location": {
          "lat": 17.292049,
          "lng": 96.57566949999999
        },
        "keyAccentLanguage": "thanatpin"
      },
      {
        "code": 0,
        "type": "City",
        "enNameLanguage": "Aing Ta Loke",
        "location": {
          "lat": 17.737,
          "lng": 95.467
        },
        "keyAccentLanguage": "aing_ta_loke"
      },
      {
        "code": 0,
        "type": "City",
        "enNameLanguage": "Dabeinzu",
        "location": {
          "lat": 17.767,
          "lng": 96.698
        },
        "keyAccentLanguage": "dabeinzu"
      },
      {
        "code": 0,
        "type": "City",
        "enNameLanguage": "Kanyutkwin",
        "location": {
          "lat": 18.341,
          "lng": 96.489
        },
        "keyAccentLanguage": "kanyutkwin"
      },
      {
        "code": 0,
        "type": "City",
        "enNameLanguage": "Gyobingauk",
        "location": {
          "lat": 18.23,
          "lng": 95.653
        },
        "keyAccentLanguage": "gyobingauk"
      },
      {
        "code": 0,
        "type": "City",
        "enNameLanguage": "Aye Mya Thar Yar",
        "location": {
          "lat": 18.079,
          "lng": 95.731
        },
        "keyAccentLanguage": "aye_mya_thar_yar"
      },
      {
        "code": 0,
        "type": "City",
        "enNameLanguage": "Aung Myanmar (2)",
        "location": {
          "lat": 18.619,
          "lng": 95.797
        },
        "keyAccentLanguage": "aung_myanmar_(2)"
      },
      {
        "code": 0,
        "type": "City",
        "enNameLanguage": "Htan Ma Kauk",
        "location": {
          "lat": 18.906,
          "lng": 95.27
        },
        "keyAccentLanguage": "htan_ma_kauk"
      },
      {
        "code": 0,
        "type": "City",
        "enNameLanguage": "Oakshitpin",
        "location": {
          "lat": 18.683,
          "lng": 95.01
        },
        "keyAccentLanguage": "oakshitpin"
      },
      {
        "code": 0,
        "type": "City",
        "enNameLanguage": "Kywe Pwe",
        "location": {
          "lat": 18.698,
          "lng": 96.414
        },
        "keyAccentLanguage": "kywe_pwe"
      },
      {
        "code": 0,
        "type": "City",
        "enNameLanguage": "Pyuntasa",
        "location": {
          "lat": 17.872,
          "lng": 96.717
        },
        "keyAccentLanguage": "pyuntasa"
      },
      {
        "code": 0,
        "type": "City",
        "enNameLanguage": "Don Za Yit",
        "location": {
          "lat": 17.774,
          "lng": 96.888
        },
        "keyAccentLanguage": "don_za_yit"
      },
      {
        "code": 0,
        "type": "City",
        "enNameLanguage": "Kyauktaga",
        "location": {
          "lat": 18.156,
          "lng": 96.619
        },
        "keyAccentLanguage": "kyauktaga"
      },
      {
        "code": 0,
        "type": "City",
        "enNameLanguage": "Ga Net",
        "location": {
          "lat": 18.142,
          "lng": 96.613
        },
        "keyAccentLanguage": "ga_net"
      },
      {
        "code": 0,
        "type": "City",
        "enNameLanguage": "Pyay",
        "location": {
          "lat": 18.821,
          "lng": 95.232
        },
        "keyAccentLanguage": "pyay"
      },
      {
        "code": 0,
        "type": "City",
        "enNameLanguage": "Ah Me Khaung",
        "location": {
          "lat": 18.593,
          "lng": 96.489
        },
        "keyAccentLanguage": "ah_me_khaung"
      },
      {
        "code": 0,
        "type": "City",
        "enNameLanguage": "Kywebwe",
        "location": {
          "lat": 18.7,
          "lng": 96.411
        },
        "keyAccentLanguage": "kywebwe"
      },
      {
        "code": 0,
        "type": "City",
        "enNameLanguage": "Ka Mar Nat",
        "location": {
          "lat": 17.325,
          "lng": 96.502
        },
        "keyAccentLanguage": "ka_mar_nat"
      },
      {
        "code": 0,
        "type": "City",
        "enNameLanguage": "Seik Hpu (South)",
        "location": {
          "lat": 18.966,
          "lng": 96.495
        },
        "keyAccentLanguage": "seik_hpu_(south)"
      },
      {
        "code": 0,
        "type": "City",
        "enNameLanguage": "Paukkhaung",
        "location": {
          "lat": 18.91,
          "lng": 95.553
        },
        "keyAccentLanguage": "paukkhaung"
      },
      {
        "code": 0,
        "type": "City",
        "enNameLanguage": "Kyaukkyi",
        "location": {
          "lat": 18.327,
          "lng": 96.769
        },
        "keyAccentLanguage": "kyaukkyi"
      },
      {
        "code": 0,
        "type": "City",
        "enNameLanguage": "Nattalin",
        "location": {
          "lat": 18.429,
          "lng": 95.552
        },
        "keyAccentLanguage": "nattalin"
      },
      {
        "code": 0,
        "type": "City",
        "enNameLanguage": "Ein Chay Lay Se",
        "location": {
          "lat": 17.773,
          "lng": 96.646
        },
        "keyAccentLanguage": "ein_chay_lay_se"
      },
      {
        "code": 0,
        "type": "City",
        "enNameLanguage": "Hpa Do",
        "location": {
          "lat": 18.036,
          "lng": 96.556
        },
        "keyAccentLanguage": "hpa_do"
      },
      {
        "code": 0,
        "type": "City",
        "enNameLanguage": "Bogyisakkan",
        "location": {
          "lat": 18.62,
          "lng": 95.775
        },
        "keyAccentLanguage": "bogyisakkan"
      },
      {
        "code": 0,
        "type": "City",
        "enNameLanguage": "Htone Bo",
        "location": {
          "lat": 18.515,
          "lng": 95.085
        },
        "keyAccentLanguage": "htone_bo"
      },
      {
        "code": 0,
        "type": "City",
        "enNameLanguage": "Yae Ni",
        "location": {
          "lat": 19.475,
          "lng": 96.267
        },
        "keyAccentLanguage": "yae_ni"
      },
      {
        "code": 0,
        "type": "City",
        "enNameLanguage": "Daik-U",
        "location": {
          "lat": 17.79,
          "lng": 96.668
        },
        "keyAccentLanguage": "daik-u"
      },
      {
        "code": 0,
        "type": "City",
        "enNameLanguage": "Nyaung Pin Thar",
        "location": {
          "lat": 18.403,
          "lng": 96.466
        },
        "keyAccentLanguage": "nyaung_pin_thar"
      },
      {
        "code": 0,
        "type": "City",
        "enNameLanguage": "Chaung Wa",
        "location": {
          "lat": 18.899,
          "lng": 96.509
        },
        "keyAccentLanguage": "chaung_wa"
      },
      {
        "code": 0,
        "type": "City",
        "enNameLanguage": "Gyaung Tar",
        "location": {
          "lat": 17.812,
          "lng": 96.867
        },
        "keyAccentLanguage": "gyaung_tar"
      },
      {
        "code": 0,
        "type": "City",
        "enNameLanguage": "Ah Tha Yaw",
        "location": {
          "lat": 17.678,
          "lng": 95.656
        },
        "keyAccentLanguage": "ah_tha_yaw"
      },
      {
        "code": 0,
        "type": "City",
        "enNameLanguage": "Doe Thaung",
        "location": {
          "lat": 18.915,
          "lng": 96.51
        },
        "keyAccentLanguage": "doe_thaung"
      },
      {
        "code": 0,
        "type": "City",
        "enNameLanguage": "Hle Seik",
        "location": {
          "lat": 17.827,
          "lng": 96.788
        },
        "keyAccentLanguage": "hle_seik"
      },
      {
        "code": 0,
        "type": "City",
        "enNameLanguage": "Inntakaw",
        "location": {
          "lat": 17.183,
          "lng": 96.381
        },
        "keyAccentLanguage": "inntakaw"
      },
      {
        "code": 0,
        "type": "City",
        "enNameLanguage": "Aukchin",
        "location": {
          "lat": 17.732,
          "lng": 96.959
        },
        "keyAccentLanguage": "aukchin"
      },
      {
        "code": 0,
        "type": "City",
        "enNameLanguage": "Bago",
        "location": {
          "lat": 17.332,
          "lng": 96.481
        },
        "keyAccentLanguage": "bago"
      },
      {
        "code": 0,
        "type": "City",
        "enNameLanguage": "Shwegyin",
        "location": {
          "lat": 17.92,
          "lng": 96.874
        },
        "keyAccentLanguage": "shwegyin"
      },
      {
        "code": 0,
        "type": "City",
        "enNameLanguage": "Hpyu Ah Shey",
        "location": {
          "lat": 18.465,
          "lng": 96.436
        },
        "keyAccentLanguage": "hpyu_ah_shey"
      },
      {
        "code": 0,
        "type": "City",
        "enNameLanguage": "Hswar",
        "location": {
          "lat": 19.265,
          "lng": 96.289
        },
        "keyAccentLanguage": "hswar"
      },
      {
        "code": 0,
        "type": "City",
        "enNameLanguage": "Zayyawadi",
        "location": {
          "lat": 18.535,
          "lng": 96.429
        },
        "keyAccentLanguage": "zayyawadi"
      },
      {
        "code": 0,
        "type": "City",
        "enNameLanguage": "Hmaw Inn",
        "location": {
          "lat": 17.792,
          "lng": 95.84
        },
        "keyAccentLanguage": "hmaw_inn"
      },
      {
        "code": 0,
        "type": "City",
        "enNameLanguage": "Hpyu Su",
        "location": {
          "lat": 18.138,
          "lng": 96.551
        },
        "keyAccentLanguage": "hpyu_su"
      },
      {
        "code": 0,
        "type": "City",
        "enNameLanguage": "Pauk Taw",
        "location": {
          "lat": 18.827,
          "lng": 96.339
        },
        "keyAccentLanguage": "pauk_taw"
      },
      {
        "code": 0,
        "type": "City",
        "enNameLanguage": "Htein Taw",
        "location": {
          "lat": 17.866,
          "lng": 95.549
        },
        "keyAccentLanguage": "htein_taw"
      },
      {
        "code": 0,
        "type": "City",
        "enNameLanguage": "Ah Byar Hnget Chay Win",
        "location": {
          "lat": 17.536,
          "lng": 96.771
        },
        "keyAccentLanguage": "ah_byar_hnget_chay_win"
      },
      {
        "code": 0,
        "type": "City",
        "enNameLanguage": "Htantabin",
        "location": {
          "lat": 18.843,
          "lng": 96.481
        },
        "keyAccentLanguage": "htantabin"
      },
      {
        "code": 0,
        "type": "City",
        "enNameLanguage": "Hpayargyi",
        "location": {
          "lat": 17.475,
          "lng": 96.527
        },
        "keyAccentLanguage": "hpayargyi"
      },
      {
        "code": 0,
        "type": "City",
        "enNameLanguage": "Hle Lan Ku",
        "location": {
          "lat": 17.696,
          "lng": 95.911
        },
        "keyAccentLanguage": "hle_lan_ku"
      },
      {
        "code": 0,
        "type": "City",
        "enNameLanguage": "Eik La Har",
        "location": {
          "lat": 17.639,
          "lng": 95.667
        },
        "keyAccentLanguage": "eik_la_har"
      },
      {
        "code": 0,
        "type": "City",
        "enNameLanguage": "Kanna Banlaung",
        "location": {
          "lat": 18.479,
          "lng": 96.601
        },
        "keyAccentLanguage": "kanna_banlaung"
      },
      {
        "code": 0,
        "type": "City",
        "enNameLanguage": "Gwayt Gyi",
        "location": {
          "lat": 17.596,
          "lng": 96.814
        },
        "keyAccentLanguage": "gwayt_gyi"
      },
      {
        "code": 0,
        "type": "City",
        "enNameLanguage": "Ka Toke Ywar Ma",
        "location": {
          "lat": 17.688,
          "lng": 96.601
        },
        "keyAccentLanguage": "ka_toke_ywar_ma"
      },
      {
        "code": 0,
        "type": "City",
        "enNameLanguage": "Hpaung Taw Thi",
        "location": {
          "lat": 17.728,
          "lng": 96.638
        },
        "keyAccentLanguage": "hpaung_taw_thi"
      },
      {
        "code": 0,
        "type": "City",
        "enNameLanguage": "Kamase",
        "location": {
          "lat": 17.216,
          "lng": 96.632
        },
        "keyAccentLanguage": "kamase"
      },
      {
        "code": 0,
        "type": "City",
        "enNameLanguage": "Zaung Tu",
        "location": {
          "lat": 17.816,
          "lng": 96.285
        },
        "keyAccentLanguage": "zaung_tu"
      },
      {
        "code": 0,
        "type": "City",
        "enNameLanguage": "Okpho",
        "location": {
          "lat": 18.13,
          "lng": 95.672
        },
        "keyAccentLanguage": "okpho"
      },
      {
        "code": 0,
        "type": "City",
        "enNameLanguage": "Chaung Yin",
        "location": {
          "lat": 17.857,
          "lng": 96.725
        },
        "keyAccentLanguage": "chaung_yin"
      },
      {
        "code": 0,
        "type": "City",
        "enNameLanguage": "Onhne",
        "location": {
          "lat": 17.1,
          "lng": 96.579
        },
        "keyAccentLanguage": "onhne"
      },
      {
        "code": 0,
        "type": "City",
        "enNameLanguage": "Gon Min Kwin",
        "location": {
          "lat": 18.133,
          "lng": 96.53
        },
        "keyAccentLanguage": "gon_min_kwin"
      },
      {
        "code": 0,
        "type": "City",
        "enNameLanguage": "Hpa Yar Ka Lay",
        "location": {
          "lat": 17.507,
          "lng": 96.531
        },
        "keyAccentLanguage": "hpa_yar_ka_lay"
      },
      {
        "code": 0,
        "type": "City",
        "enNameLanguage": "Thonse",
        "location": {
          "lat": 17.623,
          "lng": 95.791
        },
        "keyAccentLanguage": "thonse"
      },
      {
        "code": 0,
        "type": "City",
        "enNameLanguage": "Paungdawthi",
        "location": {
          "lat": 17.724,
          "lng": 96.628
        },
        "keyAccentLanguage": "paungdawthi"
      },
      {
        "code": 0,
        "type": "City",
        "enNameLanguage": "Oktwin",
        "location": {
          "lat": 18.83,
          "lng": 96.413
        },
        "keyAccentLanguage": "oktwin"
      },
      {
        "code": 0,
        "type": "City",
        "enNameLanguage": "Madauk",
        "location": {
          "lat": 17.904,
          "lng": 96.845
        },
        "keyAccentLanguage": "madauk"
      },
      {
        "code": 0,
        "type": "City",
        "enNameLanguage": "Sin Te",
        "location": {
          "lat": 18.777,
          "lng": 95.204
        },
        "keyAccentLanguage": "sin_te"
      },
      {
        "code": 0,
        "type": "City",
        "enNameLanguage": "Nyaungashe",
        "location": {
          "lat": 17.452,
          "lng": 96.84
        },
        "keyAccentLanguage": "nyaungashe"
      },
      {
        "code": 0,
        "type": "City",
        "enNameLanguage": "Chinyakyun",
        "location": {
          "lat": 18.649,
          "lng": 95.068
        },
        "keyAccentLanguage": "chinyakyun"
      },
      {
        "code": 0,
        "type": "City",
        "enNameLanguage": "Hle Ku",
        "location": {
          "lat": 18.547,
          "lng": 94.993
        },
        "keyAccentLanguage": "hle_ku"
      },
      {
        "code": 0,
        "type": "City",
        "enNameLanguage": "Abya Thaiktugon",
        "location": {
          "lat": 17.494,
          "lng": 96.775
        },
        "keyAccentLanguage": "abya_thaiktugon"
      },
      {
        "code": 0,
        "type": "City",
        "enNameLanguage": "Taw Kywe Inn",
        "location": {
          "lat": 18.278,
          "lng": 96.523
        },
        "keyAccentLanguage": "taw_kywe_inn"
      },
      {
        "code": 0,
        "type": "City",
        "enNameLanguage": "Phyu",
        "location": {
          "lat": 18.48,
          "lng": 96.432
        },
        "keyAccentLanguage": "phyu"
      },
      {
        "code": 0,
        "type": "City",
        "enNameLanguage": "Bee Lin",
        "location": {
          "lat": 17.717,
          "lng": 95.679
        },
        "keyAccentLanguage": "bee_lin"
      },
      {
        "code": 0,
        "type": "City",
        "enNameLanguage": "Ka Toke Hpa Yar Gyi",
        "location": {
          "lat": 17.67,
          "lng": 96.599
        },
        "keyAccentLanguage": "ka_toke_hpa_yar_gyi"
      },
      {
        "code": 0,
        "type": "City",
        "enNameLanguage": "Penwegon",
        "location": {
          "lat": 18.223,
          "lng": 96.571
        },
        "keyAccentLanguage": "penwegon"
      },
      {
        "code": 0,
        "type": "City",
        "enNameLanguage": "Thar Ga Ya",
        "location": {
          "lat": 19.316,
          "lng": 96.281
        },
        "keyAccentLanguage": "thar_ga_ya"
      },
      {
        "code": 0,
        "type": "City",
        "enNameLanguage": "Har Ree",
        "location": {
          "lat": 18.115,
          "lng": 96.629
        },
        "keyAccentLanguage": "har_ree"
      },
      {
        "code": 0,
        "type": "City",
        "enNameLanguage": "Waw",
        "location": {
          "lat": 17.477,
          "lng": 96.679
        },
        "keyAccentLanguage": "waw"
      },
      {
        "code": 0,
        "type": "City",
        "enNameLanguage": "Thar Yar Kone",
        "location": {
          "lat": 17.184,
          "lng": 96.341
        },
        "keyAccentLanguage": "thar_yar_kone"
      },
      {
        "code": 0,
        "type": "City",
        "enNameLanguage": "Thayarwady",
        "location": {
          "lat": 17.649,
          "lng": 95.785
        },
        "keyAccentLanguage": "thayarwady"
      },
      {
        "code": 0,
        "type": "City",
        "enNameLanguage": "Kawbyin",
        "location": {
          "lat": 18.553,
          "lng": 96.703
        },
        "keyAccentLanguage": "kawbyin"
      },
      {
        "code": 0,
        "type": "City",
        "enNameLanguage": "Inn Ma",
        "location": {
          "lat": 18.529,
          "lng": 95.351
        },
        "keyAccentLanguage": "inn_ma"
      },
      {
        "code": 0,
        "type": "City",
        "enNameLanguage": "Nyaunglebin",
        "location": {
          "lat": 17.955,
          "lng": 96.723
        },
        "keyAccentLanguage": "nyaunglebin"
      },
      {
        "code": 0,
        "type": "City",
        "enNameLanguage": "Kaytumati",
        "location": {
          "lat": 19.088,
          "lng": 96.365
        },
        "keyAccentLanguage": "kaytumati"
      },
      {
        "code": 0,
        "type": "City",
        "enNameLanguage": "Thagaya",
        "location": {
          "lat": 19.316,
          "lng": 96.289
        },
        "keyAccentLanguage": "thagaya"
      },
      {
        "code": 0,
        "type": "City",
        "enNameLanguage": "Shwedaung",
        "location": {
          "lat": 18.701,
          "lng": 95.209
        },
        "keyAccentLanguage": "shwedaung"
      },
      {
        "code": 0,
        "type": "City",
        "enNameLanguage": "Hlwa Zin",
        "location": {
          "lat": 19.016,
          "lng": 95.442
        },
        "keyAccentLanguage": "hlwa_zin"
      },
      {
        "code": 0,
        "type": "City",
        "enNameLanguage": "Kalachaung",
        "location": {
          "lat": 17.695,
          "lng": 95.483
        },
        "keyAccentLanguage": "kalachaung"
      },
      {
        "code": 0,
        "type": "City",
        "enNameLanguage": "Taungoo",
        "location": {
          "lat": 18.92,
          "lng": 96.443
        },
        "keyAccentLanguage": "taungoo"
      },
      {
        "code": 0,
        "type": "City",
        "enNameLanguage": "Hpa Yon Kar",
        "location": {
          "lat": 18.578,
          "lng": 94.879
        },
        "keyAccentLanguage": "hpa_yon_kar"
      },
      {
        "code": 0,
        "type": "City",
        "enNameLanguage": "Za Yat Gyi",
        "location": {
          "lat": 18.715,
          "lng": 96.568
        },
        "keyAccentLanguage": "za_yat_gyi"
      },
      {
        "code": 0,
        "type": "City",
        "enNameLanguage": "Mone",
        "location": {
          "lat": 18.528,
          "lng": 96.653
        },
        "keyAccentLanguage": "mone"
      },
      {
        "code": 0,
        "type": "City",
        "enNameLanguage": "Minhla",
        "location": {
          "lat": 17.98,
          "lng": 95.706
        },
        "keyAccentLanguage": "minhla"
      },
      {
        "code": 0,
        "type": "City",
        "enNameLanguage": "Zigon",
        "location": {
          "lat": 18.335,
          "lng": 95.624
        },
        "keyAccentLanguage": "zigon"
      },
      {
        "code": 0,
        "type": "City",
        "enNameLanguage": "Kalachaung",
        "location": {
          "lat": 17.695,
          "lng": 95.483
        },
        "keyAccentLanguage": "kalachaung"
      },
      {
        "code": 0,
        "type": "City",
        "enNameLanguage": "Zigon",
        "location": {
          "lat": 18.335,
          "lng": 95.624
        },
        "keyAccentLanguage": "zigon"
      }
    ],
    "enNameLanguage": "Bago",
    "keyAccentLanguage": "bago"
  },
  {
    "code": 0,
    "type": "State",
    "location": {
      "lat": 22.0086978,
      "lng": 93.5812692
    },
    "districtList": [
      {
        "code": 0,
        "type": "City",
        "enNameLanguage": "Falam",
        "location": {
          "lat": 22.9141928,
          "lng": 93.6750005
        },
        "keyAccentLanguage": "falam"
      },
      {
        "code": 0,
        "type": "City",
        "enNameLanguage": "Mindat",
        "location": {
          "lat": 21.3748075,
          "lng": 93.9725378
        },
        "keyAccentLanguage": "mindat"
      },
      {
        "code": 0,
        "type": "City",
        "enNameLanguage": "Aibur",
        "location": {
          "lat": 22.378,
          "lng": 93.423
        },
        "keyAccentLanguage": "aibur"
      },
      {
        "code": 0,
        "type": "City",
        "enNameLanguage": "Angthaw",
        "location": {
          "lat": 21.682,
          "lng": 93.311
        },
        "keyAccentLanguage": "angthaw"
      },
      {
        "code": 0,
        "type": "City",
        "enNameLanguage": "Awkla",
        "location": {
          "lat": 21.619,
          "lng": 93.362
        },
        "keyAccentLanguage": "awkla"
      },
      {
        "code": 0,
        "type": "City",
        "enNameLanguage": "Aiktar",
        "location": {
          "lat": 22.159,
          "lng": 93.595
        },
        "keyAccentLanguage": "aiktar"
      },
      {
        "code": 0,
        "type": "City",
        "enNameLanguage": "Congkua",
        "location": {
          "lat": 22.939,
          "lng": 93.778
        },
        "keyAccentLanguage": "congkua"
      },
      {
        "code": 0,
        "type": "City",
        "enNameLanguage": "Duhmang",
        "location": {
          "lat": 23.097,
          "lng": 93.801
        },
        "keyAccentLanguage": "duhmang"
      },
      {
        "code": 0,
        "type": "City",
        "enNameLanguage": "Ridwi",
        "location": {
          "lat": 21.698,
          "lng": 93.895
        },
        "keyAccentLanguage": "ridwi"
      },
      {
        "code": 0,
        "type": "City",
        "enNameLanguage": "Cingpikot",
        "location": {
          "lat": 23.415,
          "lng": 93.572
        },
        "keyAccentLanguage": "cingpikot"
      },
      {
        "code": 0,
        "type": "City",
        "enNameLanguage": "Amsoi",
        "location": {
          "lat": 21.464,
          "lng": 93.448
        },
        "keyAccentLanguage": "amsoi"
      },
      {
        "code": 0,
        "type": "City",
        "enNameLanguage": "Auk Chaing",
        "location": {
          "lat": 21.376,
          "lng": 93.565
        },
        "keyAccentLanguage": "auk_chaing"
      },
      {
        "code": 0,
        "type": "City",
        "enNameLanguage": "Dampi",
        "location": {
          "lat": 23.457,
          "lng": 93.456
        },
        "keyAccentLanguage": "dampi"
      },
      {
        "code": 0,
        "type": "City",
        "enNameLanguage": "Baw",
        "location": {
          "lat": 21.668,
          "lng": 93.934
        },
        "keyAccentLanguage": "baw"
      },
      {
        "code": 0,
        "type": "City",
        "enNameLanguage": "Anlangh",
        "location": {
          "lat": 23.509,
          "lng": 93.637
        },
        "keyAccentLanguage": "anlangh"
      },
      {
        "code": 0,
        "type": "City",
        "enNameLanguage": "Khreum",
        "location": {
          "lat": 21.463,
          "lng": 93.703
        },
        "keyAccentLanguage": "khreum"
      },
      {
        "code": 0,
        "type": "City",
        "enNameLanguage": "Seksih",
        "location": {
          "lat": 23.642,
          "lng": 93.901
        },
        "keyAccentLanguage": "seksih"
      },
      {
        "code": 0,
        "type": "City",
        "enNameLanguage": "Congthe",
        "location": {
          "lat": 22.91,
          "lng": 93.721
        },
        "keyAccentLanguage": "congthe"
      },
      {
        "code": 0,
        "type": "City",
        "enNameLanguage": "Chuncung",
        "location": {
          "lat": 22.769,
          "lng": 93.567
        },
        "keyAccentLanguage": "chuncung"
      },
      {
        "code": 0,
        "type": "City",
        "enNameLanguage": "Dongva",
        "location": {
          "lat": 22.421,
          "lng": 93.522
        },
        "keyAccentLanguage": "dongva"
      },
      {
        "code": 0,
        "type": "City",
        "enNameLanguage": "Chaing Sa Nu",
        "location": {
          "lat": 21.048,
          "lng": 93.515
        },
        "keyAccentLanguage": "chaing_sa_nu"
      },
      {
        "code": 0,
        "type": "City",
        "enNameLanguage": "Cangceh",
        "location": {
          "lat": 21.841,
          "lng": 93.743
        },
        "keyAccentLanguage": "cangceh"
      },
      {
        "code": 0,
        "type": "City",
        "enNameLanguage": "Cangva",
        "location": {
          "lat": 22.281,
          "lng": 93.955
        },
        "keyAccentLanguage": "cangva"
      },
      {
        "code": 0,
        "type": "City",
        "enNameLanguage": "Cangtak",
        "location": {
          "lat": 21.5,
          "lng": 93.318
        },
        "keyAccentLanguage": "cangtak"
      },
      {
        "code": 0,
        "type": "City",
        "enNameLanguage": "Doim",
        "location": {
          "lat": 21.416,
          "lng": 93.856
        },
        "keyAccentLanguage": "doim"
      },
      {
        "code": 0,
        "type": "City",
        "enNameLanguage": "Topui",
        "location": {
          "lat": 21.483,
          "lng": 92.652
        },
        "keyAccentLanguage": "topui"
      },
      {
        "code": 0,
        "type": "City",
        "enNameLanguage": "Anigai",
        "location": {
          "lat": 21.491,
          "lng": 94.035
        },
        "keyAccentLanguage": "anigai"
      },
      {
        "code": 0,
        "type": "City",
        "enNameLanguage": "Airebual",
        "location": {
          "lat": 23.015,
          "lng": 93.53
        },
        "keyAccentLanguage": "airebual"
      },
      {
        "code": 0,
        "type": "City",
        "enNameLanguage": "Baung Bin",
        "location": {
          "lat": 21.085,
          "lng": 94.027
        },
        "keyAccentLanguage": "baung_bin"
      },
      {
        "code": 0,
        "type": "City",
        "enNameLanguage": "Ah Htet Ba Laing",
        "location": {
          "lat": 21.682,
          "lng": 92.869
        },
        "keyAccentLanguage": "ah_htet_ba_laing"
      },
      {
        "code": 0,
        "type": "City",
        "enNameLanguage": "Be Don",
        "location": {
          "lat": 21.114,
          "lng": 92.858
        },
        "keyAccentLanguage": "be_don"
      },
      {
        "code": 0,
        "type": "City",
        "enNameLanguage": "Bualmin",
        "location": {
          "lat": 23.077,
          "lng": 93.627
        },
        "keyAccentLanguage": "bualmin"
      },
      {
        "code": 0,
        "type": "City",
        "enNameLanguage": "Nabung",
        "location": {
          "lat": 22.024,
          "lng": 93.8
        },
        "keyAccentLanguage": "nabung"
      },
      {
        "code": 0,
        "type": "City",
        "enNameLanguage": "Bapi",
        "location": {
          "lat": 23.728,
          "lng": 93.448
        },
        "keyAccentLanguage": "bapi"
      },
      {
        "code": 0,
        "type": "City",
        "enNameLanguage": "Bualtak",
        "location": {
          "lat": 22.589,
          "lng": 93.627
        },
        "keyAccentLanguage": "bualtak"
      },
      {
        "code": 0,
        "type": "City",
        "enNameLanguage": "Baung Kone",
        "location": {
          "lat": 21.245,
          "lng": 93.193
        },
        "keyAccentLanguage": "baung_kone"
      },
      {
        "code": 0,
        "type": "City",
        "enNameLanguage": "Cawhte",
        "location": {
          "lat": 23.364,
          "lng": 93.391
        },
        "keyAccentLanguage": "cawhte"
      },
      {
        "code": 0,
        "type": "City",
        "enNameLanguage": "Bawisih",
        "location": {
          "lat": 21.6,
          "lng": 93.627
        },
        "keyAccentLanguage": "bawisih"
      },
      {
        "code": 0,
        "type": "City",
        "enNameLanguage": "Banhtwei",
        "location": {
          "lat": 21.265,
          "lng": 93.637
        },
        "keyAccentLanguage": "banhtwei"
      },
      {
        "code": 0,
        "type": "City",
        "enNameLanguage": "Dumva",
        "location": {
          "lat": 22.154,
          "lng": 93.762
        },
        "keyAccentLanguage": "dumva"
      },
      {
        "code": 0,
        "type": "City",
        "enNameLanguage": "Kongtal",
        "location": {
          "lat": 23.962,
          "lng": 93.719
        },
        "keyAccentLanguage": "kongtal"
      },
      {
        "code": 0,
        "type": "City",
        "enNameLanguage": "Auk Ba Lai",
        "location": {
          "lat": 21.6,
          "lng": 92.754
        },
        "keyAccentLanguage": "auk_ba_lai"
      },
      {
        "code": 0,
        "type": "City",
        "enNameLanguage": "Daidin",
        "location": {
          "lat": 21.797,
          "lng": 93.896
        },
        "keyAccentLanguage": "daidin"
      },
      {
        "code": 0,
        "type": "City",
        "enNameLanguage": "Fanthen",
        "location": {
          "lat": 22.276,
          "lng": 93.501
        },
        "keyAccentLanguage": "fanthen"
      },
      {
        "code": 0,
        "type": "City",
        "enNameLanguage": "Dauchim",
        "location": {
          "lat": 22.611,
          "lng": 93.732
        },
        "keyAccentLanguage": "dauchim"
      },
      {
        "code": 0,
        "type": "City",
        "enNameLanguage": "Anlun",
        "location": {
          "lat": 23.727,
          "lng": 93.759
        },
        "keyAccentLanguage": "anlun"
      },
      {
        "code": 0,
        "type": "City",
        "enNameLanguage": "Ahr Ki Kone",
        "location": {
          "lat": 21.416,
          "lng": 93.24
        },
        "keyAccentLanguage": "ahr_ki_kone"
      },
      {
        "code": 0,
        "type": "City",
        "enNameLanguage": "Baung Pee",
        "location": {
          "lat": 21.395,
          "lng": 92.886
        },
        "keyAccentLanguage": "baung_pee"
      },
      {
        "code": 0,
        "type": "City",
        "enNameLanguage": "Aht Sa",
        "location": {
          "lat": 21.153,
          "lng": 93.358
        },
        "keyAccentLanguage": "aht_sa"
      },
      {
        "code": 0,
        "type": "City",
        "enNameLanguage": "Farkhawm",
        "location": {
          "lat": 23.091,
          "lng": 93.747
        },
        "keyAccentLanguage": "farkhawm"
      },
      {
        "code": 0,
        "type": "City",
        "enNameLanguage": "Matupi",
        "location": {
          "lat": 21.609,
          "lng": 93.439
        },
        "keyAccentLanguage": "matupi"
      },
      {
        "code": 0,
        "type": "City",
        "enNameLanguage": "Hakha",
        "location": {
          "lat": 22.637,
          "lng": 93.604
        },
        "keyAccentLanguage": "hakha"
      },
      {
        "code": 0,
        "type": "City",
        "enNameLanguage": "Darteti",
        "location": {
          "lat": 23.015,
          "lng": 93.493
        },
        "keyAccentLanguage": "darteti"
      },
      {
        "code": 0,
        "type": "City",
        "enNameLanguage": "Paihang",
        "location": {
          "lat": 21.606,
          "lng": 93.278
        },
        "keyAccentLanguage": "paihang"
      },
      {
        "code": 0,
        "type": "City",
        "enNameLanguage": "Da Let May",
        "location": {
          "lat": 21.605,
          "lng": 92.775
        },
        "keyAccentLanguage": "da_let_may"
      },
      {
        "code": 0,
        "type": "City",
        "enNameLanguage": "Atet Than Htaung",
        "location": {
          "lat": 20.815,
          "lng": 93.313
        },
        "keyAccentLanguage": "atet_than_htaung"
      },
      {
        "code": 0,
        "type": "City",
        "enNameLanguage": "Klangklang",
        "location": {
          "lat": 22.682,
          "lng": 93.44
        },
        "keyAccentLanguage": "klangklang"
      },
      {
        "code": 0,
        "type": "City",
        "enNameLanguage": "Cerhmun",
        "location": {
          "lat": 22.92,
          "lng": 93.573
        },
        "keyAccentLanguage": "cerhmun"
      },
      {
        "code": 0,
        "type": "City",
        "enNameLanguage": "Bungtuah",
        "location": {
          "lat": 22.404,
          "lng": 93.762
        },
        "keyAccentLanguage": "bungtuah"
      },
      {
        "code": 0,
        "type": "City",
        "enNameLanguage": "Meilangtlang",
        "location": {
          "lat": 22.086,
          "lng": 92.721
        },
        "keyAccentLanguage": "meilangtlang"
      },
      {
        "code": 0,
        "type": "City",
        "enNameLanguage": "Buanli",
        "location": {
          "lat": 23.523,
          "lng": 93.518
        },
        "keyAccentLanguage": "buanli"
      },
      {
        "code": 0,
        "type": "City",
        "enNameLanguage": "Dimpi",
        "location": {
          "lat": 23.295,
          "lng": 93.689
        },
        "keyAccentLanguage": "dimpi"
      },
      {
        "code": 0,
        "type": "City",
        "enNameLanguage": "Buan",
        "location": {
          "lat": 23.212,
          "lng": 93.674
        },
        "keyAccentLanguage": "buan"
      },
      {
        "code": 0,
        "type": "City",
        "enNameLanguage": "Buanman",
        "location": {
          "lat": 23.188,
          "lng": 93.742
        },
        "keyAccentLanguage": "buanman"
      },
      {
        "code": 0,
        "type": "City",
        "enNameLanguage": "Bukphil",
        "location": {
          "lat": 23.498,
          "lng": 93.445
        },
        "keyAccentLanguage": "bukphil"
      },
      {
        "code": 0,
        "type": "City",
        "enNameLanguage": "Kilan",
        "location": {
          "lat": 21.446,
          "lng": 92.808
        },
        "keyAccentLanguage": "kilan"
      },
      {
        "code": 0,
        "type": "City",
        "enNameLanguage": "Singgel",
        "location": {
          "lat": 23.76,
          "lng": 93.556
        },
        "keyAccentLanguage": "singgel"
      },
      {
        "code": 0,
        "type": "City",
        "enNameLanguage": "Dolluang",
        "location": {
          "lat": 23.347,
          "lng": 93.996
        },
        "keyAccentLanguage": "dolluang"
      },
      {
        "code": 0,
        "type": "City",
        "enNameLanguage": "Ah Baung Thar",
        "location": {
          "lat": 21.284,
          "lng": 92.811
        },
        "keyAccentLanguage": "ah_baung_thar"
      },
      {
        "code": 0,
        "type": "City",
        "enNameLanguage": "Thantlang",
        "location": {
          "lat": 22.696,
          "lng": 93.427
        },
        "keyAccentLanguage": "thantlang"
      },
      {
        "code": 0,
        "type": "City",
        "enNameLanguage": "Ah Lel Dein Kin",
        "location": {
          "lat": 20.809,
          "lng": 93.417
        },
        "keyAccentLanguage": "ah_lel_dein_kin"
      },
      {
        "code": 0,
        "type": "City",
        "enNameLanguage": "Conghoih",
        "location": {
          "lat": 23.181,
          "lng": 93.495
        },
        "keyAccentLanguage": "conghoih"
      },
      {
        "code": 0,
        "type": "City",
        "enNameLanguage": "Duk",
        "location": {
          "lat": 21.342,
          "lng": 93.673
        },
        "keyAccentLanguage": "duk"
      },
      {
        "code": 0,
        "type": "City",
        "enNameLanguage": "Keiyowa",
        "location": {
          "lat": 21.667,
          "lng": 92.693
        },
        "keyAccentLanguage": "keiyowa"
      },
      {
        "code": 0,
        "type": "City",
        "enNameLanguage": "Bumzang",
        "location": {
          "lat": 23.461,
          "lng": 93.715
        },
        "keyAccentLanguage": "bumzang"
      },
      {
        "code": 0,
        "type": "City",
        "enNameLanguage": "Dai Hnan",
        "location": {
          "lat": 21.617,
          "lng": 93.234
        },
        "keyAccentLanguage": "dai_hnan"
      },
      {
        "code": 0,
        "type": "City",
        "enNameLanguage": "Darkhai (A)",
        "location": {
          "lat": 23.627,
          "lng": 93.459
        },
        "keyAccentLanguage": "darkhai_(a)"
      },
      {
        "code": 0,
        "type": "City",
        "enNameLanguage": "Belhar",
        "location": {
          "lat": 22.516,
          "lng": 93.175
        },
        "keyAccentLanguage": "belhar"
      },
      {
        "code": 0,
        "type": "City",
        "enNameLanguage": "Bungtlang",
        "location": {
          "lat": 22.788,
          "lng": 93.126
        },
        "keyAccentLanguage": "bungtlang"
      },
      {
        "code": 0,
        "type": "City",
        "enNameLanguage": "Congthia",
        "location": {
          "lat": 21.686,
          "lng": 93.423
        },
        "keyAccentLanguage": "congthia"
      },
      {
        "code": 0,
        "type": "City",
        "enNameLanguage": "Dawn",
        "location": {
          "lat": 23.008,
          "lng": 93.181
        },
        "keyAccentLanguage": "dawn"
      },
      {
        "code": 0,
        "type": "City",
        "enNameLanguage": "Bocung",
        "location": {
          "lat": 23.154,
          "lng": 93.551
        },
        "keyAccentLanguage": "bocung"
      },
      {
        "code": 0,
        "type": "City",
        "enNameLanguage": "Calthawng",
        "location": {
          "lat": 22.108,
          "lng": 93.491
        },
        "keyAccentLanguage": "calthawng"
      },
      {
        "code": 0,
        "type": "City",
        "enNameLanguage": "Siatlai",
        "location": {
          "lat": 22.106,
          "lng": 93.599
        },
        "keyAccentLanguage": "siatlai"
      },
      {
        "code": 0,
        "type": "City",
        "enNameLanguage": "Cikha",
        "location": {
          "lat": 23.892,
          "lng": 93.534
        },
        "keyAccentLanguage": "cikha"
      },
      {
        "code": 0,
        "type": "City",
        "enNameLanguage": "Du Ri Taung",
        "location": {
          "lat": 21.974,
          "lng": 92.808
        },
        "keyAccentLanguage": "du_ri_taung"
      },
      {
        "code": 0,
        "type": "City",
        "enNameLanguage": "E-tang",
        "location": {
          "lat": 21.97,
          "lng": 93.363
        },
        "keyAccentLanguage": "e-tang"
      },
      {
        "code": 0,
        "type": "City",
        "enNameLanguage": "Darling",
        "location": {
          "lat": 22.158,
          "lng": 93.169
        },
        "keyAccentLanguage": "darling"
      },
      {
        "code": 0,
        "type": "City",
        "enNameLanguage": "Bualkhua",
        "location": {
          "lat": 23.072,
          "lng": 93.678
        },
        "keyAccentLanguage": "bualkhua"
      },
      {
        "code": 0,
        "type": "City",
        "enNameLanguage": "Buanlung",
        "location": {
          "lat": 22.498,
          "lng": 93.538
        },
        "keyAccentLanguage": "buanlung"
      },
      {
        "code": 0,
        "type": "City",
        "enNameLanguage": "C. Zamual",
        "location": {
          "lat": 22.912,
          "lng": 93.678
        },
        "keyAccentLanguage": "c._zamual"
      },
      {
        "code": 0,
        "type": "City",
        "enNameLanguage": "Balei",
        "location": {
          "lat": 22,
          "lng": 93.569
        },
        "keyAccentLanguage": "balei"
      },
      {
        "code": 0,
        "type": "City",
        "enNameLanguage": "Auk Kant",
        "location": {
          "lat": 20.91,
          "lng": 93.841
        },
        "keyAccentLanguage": "auk_kant"
      },
      {
        "code": 0,
        "type": "City",
        "enNameLanguage": "Di Laung Kone",
        "location": {
          "lat": 21.496,
          "lng": 93.229
        },
        "keyAccentLanguage": "di_laung_kone"
      },
      {
        "code": 0,
        "type": "City",
        "enNameLanguage": "Paletwa",
        "location": {
          "lat": 21.304,
          "lng": 92.855
        },
        "keyAccentLanguage": "paletwa"
      },
      {
        "code": 0,
        "type": "City",
        "enNameLanguage": "Tedim",
        "location": {
          "lat": 23.365,
          "lng": 93.65
        },
        "keyAccentLanguage": "tedim"
      },
      {
        "code": 0,
        "type": "City",
        "enNameLanguage": "Balbil",
        "location": {
          "lat": 23.778,
          "lng": 94.041
        },
        "keyAccentLanguage": "balbil"
      },
      {
        "code": 0,
        "type": "City",
        "enNameLanguage": "Chaung-yung",
        "location": {
          "lat": 21.186,
          "lng": 93.743
        },
        "keyAccentLanguage": "chaung-yung"
      },
      {
        "code": 0,
        "type": "City",
        "enNameLanguage": "Khuisah",
        "location": {
          "lat": 21.446,
          "lng": 93.467
        },
        "keyAccentLanguage": "khuisah"
      },
      {
        "code": 0,
        "type": "City",
        "enNameLanguage": "Congthia",
        "location": {
          "lat": 21.686,
          "lng": 93.423
        },
        "keyAccentLanguage": "congthia"
      }
    ],
    "enNameLanguage": "Chin",
    "keyAccentLanguage": "chin"
  },
  {
    "code": 0,
    "type": "State",
    "location": {
      "lat": 25.850904,
      "lng": 97.4381355
    },
    "districtList": [
      {
        "code": 0,
        "type": "City",
        "enNameLanguage": "Mohnyin",
        "location": {
          "lat": 24.7753065,
          "lng": 96.3598367
        },
        "keyAccentLanguage": "mohnyin"
      },
      {
        "code": 0,
        "type": "City",
        "enNameLanguage": "Myitkyina",
        "location": {
          "lat": 25.3867687,
          "lng": 97.39392240000001
        },
        "keyAccentLanguage": "myitkyina"
      },
      {
        "code": 0,
        "type": "City",
        "enNameLanguage": "Hopin",
        "location": {
          "lat": 24.984,
          "lng": 96.522
        },
        "keyAccentLanguage": "hopin"
      },
      {
        "code": 0,
        "type": "City",
        "enNameLanguage": "Aung Myay (1)",
        "location": {
          "lat": 25.248,
          "lng": 97.437
        },
        "keyAccentLanguage": "aung_myay_(1)"
      },
      {
        "code": 0,
        "type": "City",
        "enNameLanguage": "Hpawngtut Gahtawng",
        "location": {
          "lat": 25.883,
          "lng": 96.267
        },
        "keyAccentLanguage": "hpawngtut_gahtawng"
      },
      {
        "code": 0,
        "type": "City",
        "enNameLanguage": "Dumsu Yang",
        "location": {
          "lat": 24.619,
          "lng": 97.232
        },
        "keyAccentLanguage": "dumsu_yang"
      },
      {
        "code": 0,
        "type": "City",
        "enNameLanguage": "Lone Khin",
        "location": {
          "lat": 25.653,
          "lng": 96.359
        },
        "keyAccentLanguage": "lone_khin"
      },
      {
        "code": 0,
        "type": "City",
        "enNameLanguage": "Kadung Ga",
        "location": {
          "lat": 26.239,
          "lng": 96.99
        },
        "keyAccentLanguage": "kadung_ga"
      },
      {
        "code": 0,
        "type": "City",
        "enNameLanguage": "Ma Kaw",
        "location": {
          "lat": 26.363,
          "lng": 96.716
        },
        "keyAccentLanguage": "ma_kaw"
      },
      {
        "code": 0,
        "type": "City",
        "enNameLanguage": "Bhamo",
        "location": {
          "lat": 24.259,
          "lng": 97.246
        },
        "keyAccentLanguage": "bhamo"
      },
      {
        "code": 0,
        "type": "City",
        "enNameLanguage": "Layawng Ga",
        "location": {
          "lat": 25.855,
          "lng": 97.305
        },
        "keyAccentLanguage": "layawng_ga"
      },
      {
        "code": 0,
        "type": "City",
        "enNameLanguage": "Han Te",
        "location": {
          "lat": 24.227,
          "lng": 97.243
        },
        "keyAccentLanguage": "han_te"
      },
      {
        "code": 0,
        "type": "City",
        "enNameLanguage": "Pin Baw",
        "location": {
          "lat": 25.111,
          "lng": 96.586
        },
        "keyAccentLanguage": "pin_baw"
      },
      {
        "code": 0,
        "type": "City",
        "enNameLanguage": "He Lon",
        "location": {
          "lat": 24.783,
          "lng": 96.344
        },
        "keyAccentLanguage": "he_lon"
      },
      {
        "code": 0,
        "type": "City",
        "enNameLanguage": "Htingnu",
        "location": {
          "lat": 25.834,
          "lng": 97.609
        },
        "keyAccentLanguage": "htingnu"
      },
      {
        "code": 0,
        "type": "City",
        "enNameLanguage": "Maw Han",
        "location": {
          "lat": 24.642,
          "lng": 96.219
        },
        "keyAccentLanguage": "maw_han"
      },
      {
        "code": 0,
        "type": "City",
        "enNameLanguage": "Sengnai",
        "location": {
          "lat": 27.508,
          "lng": 98.114
        },
        "keyAccentLanguage": "sengnai"
      },
      {
        "code": 0,
        "type": "City",
        "enNameLanguage": "Maingkwan",
        "location": {
          "lat": 26.309,
          "lng": 96.59
        },
        "keyAccentLanguage": "maingkwan"
      },
      {
        "code": 0,
        "type": "City",
        "enNameLanguage": "Mudong",
        "location": {
          "lat": 27.375,
          "lng": 97.427
        },
        "keyAccentLanguage": "mudong"
      },
      {
        "code": 0,
        "type": "City",
        "enNameLanguage": "He Pu",
        "location": {
          "lat": 25.106,
          "lng": 96.366
        },
        "keyAccentLanguage": "he_pu"
      },
      {
        "code": 0,
        "type": "City",
        "enNameLanguage": "Mu La Shi Di",
        "location": {
          "lat": 27.256,
          "lng": 97.427
        },
        "keyAccentLanguage": "mu_la_shi_di"
      },
      {
        "code": 0,
        "type": "City",
        "enNameLanguage": "Mai Na",
        "location": {
          "lat": 25.415,
          "lng": 97.429
        },
        "keyAccentLanguage": "mai_na"
      },
      {
        "code": 0,
        "type": "City",
        "enNameLanguage": "Hkat Cho",
        "location": {
          "lat": 25.325,
          "lng": 97.401
        },
        "keyAccentLanguage": "hkat_cho"
      },
      {
        "code": 0,
        "type": "City",
        "enNameLanguage": "Puta-O",
        "location": {
          "lat": 27.339,
          "lng": 97.398
        },
        "keyAccentLanguage": "puta-o"
      },
      {
        "code": 0,
        "type": "City",
        "enNameLanguage": "Nawng Kaing Htaw",
        "location": {
          "lat": 25.299,
          "lng": 96.947
        },
        "keyAccentLanguage": "nawng_kaing_htaw"
      },
      {
        "code": 0,
        "type": "City",
        "enNameLanguage": "Kadonyat",
        "location": {
          "lat": 25.468,
          "lng": 96.262
        },
        "keyAccentLanguage": "kadonyat"
      },
      {
        "code": 0,
        "type": "City",
        "enNameLanguage": "Meza",
        "location": {
          "lat": 24.859,
          "lng": 95.922
        },
        "keyAccentLanguage": "meza"
      },
      {
        "code": 0,
        "type": "City",
        "enNameLanguage": "Lachang",
        "location": {
          "lat": 24.559,
          "lng": 96.453
        },
        "keyAccentLanguage": "lachang"
      },
      {
        "code": 0,
        "type": "City",
        "enNameLanguage": "Nam Koi",
        "location": {
          "lat": 25.371,
          "lng": 97.291
        },
        "keyAccentLanguage": "nam_koi"
      },
      {
        "code": 0,
        "type": "City",
        "enNameLanguage": "Chakrai Gahtawng",
        "location": {
          "lat": 26.332,
          "lng": 96.928
        },
        "keyAccentLanguage": "chakrai_gahtawng"
      },
      {
        "code": 0,
        "type": "City",
        "enNameLanguage": "Maw Hpawng",
        "location": {
          "lat": 25.351,
          "lng": 97.291
        },
        "keyAccentLanguage": "maw_hpawng"
      },
      {
        "code": 0,
        "type": "City",
        "enNameLanguage": "Hka-u",
        "location": {
          "lat": 24.825,
          "lng": 97.28
        },
        "keyAccentLanguage": "hka-u"
      },
      {
        "code": 0,
        "type": "City",
        "enNameLanguage": "Waw Shung",
        "location": {
          "lat": 25.452,
          "lng": 98.065
        },
        "keyAccentLanguage": "waw_shung"
      },
      {
        "code": 0,
        "type": "City",
        "enNameLanguage": "Lauhkang",
        "location": {
          "lat": 25.903,
          "lng": 98.152
        },
        "keyAccentLanguage": "lauhkang"
      },
      {
        "code": 0,
        "type": "City",
        "enNameLanguage": "Hpakant",
        "location": {
          "lat": 25.612,
          "lng": 96.287
        },
        "keyAccentLanguage": "hpakant"
      },
      {
        "code": 0,
        "type": "City",
        "enNameLanguage": "Lan Gwa",
        "location": {
          "lat": 25.481,
          "lng": 96.992
        },
        "keyAccentLanguage": "lan_gwa"
      },
      {
        "code": 0,
        "type": "City",
        "enNameLanguage": "Kangfang",
        "location": {
          "lat": 26.139,
          "lng": 98.569
        },
        "keyAccentLanguage": "kangfang"
      },
      {
        "code": 0,
        "type": "City",
        "enNameLanguage": "Sezin",
        "location": {
          "lat": 25.32,
          "lng": 95.97
        },
        "keyAccentLanguage": "sezin"
      },
      {
        "code": 0,
        "type": "City",
        "enNameLanguage": "Bi Lu",
        "location": {
          "lat": 24.839,
          "lng": 96.35
        },
        "keyAccentLanguage": "bi_lu"
      },
      {
        "code": 0,
        "type": "City",
        "enNameLanguage": "Lel Mee",
        "location": {
          "lat": 24.936,
          "lng": 96.444
        },
        "keyAccentLanguage": "lel_mee"
      },
      {
        "code": 0,
        "type": "City",
        "enNameLanguage": "Hkyenhpa",
        "location": {
          "lat": 27.712,
          "lng": 97.405
        },
        "keyAccentLanguage": "hkyenhpa"
      },
      {
        "code": 0,
        "type": "City",
        "enNameLanguage": "Man Thar (Mansi)",
        "location": {
          "lat": 24.007,
          "lng": 97.124
        },
        "keyAccentLanguage": "man_thar_(mansi)"
      },
      {
        "code": 0,
        "type": "City",
        "enNameLanguage": "Tanai",
        "location": {
          "lat": 26.358,
          "lng": 96.717
        },
        "keyAccentLanguage": "tanai"
      },
      {
        "code": 0,
        "type": "City",
        "enNameLanguage": "Auche",
        "location": {
          "lat": 25.565,
          "lng": 97.134
        },
        "keyAccentLanguage": "auche"
      },
      {
        "code": 0,
        "type": "City",
        "enNameLanguage": "Haung Par",
        "location": {
          "lat": 25.486,
          "lng": 96.259
        },
        "keyAccentLanguage": "haung_par"
      },
      {
        "code": 0,
        "type": "City",
        "enNameLanguage": "Hkada Ga",
        "location": {
          "lat": 25.933,
          "lng": 97.033
        },
        "keyAccentLanguage": "hkada_ga"
      },
      {
        "code": 0,
        "type": "City",
        "enNameLanguage": "Kumhtat",
        "location": {
          "lat": 24.878,
          "lng": 96.785
        },
        "keyAccentLanguage": "kumhtat"
      },
      {
        "code": 0,
        "type": "City",
        "enNameLanguage": "Ta Law Gyi",
        "location": {
          "lat": 25.074,
          "lng": 97.306
        },
        "keyAccentLanguage": "ta_law_gyi"
      },
      {
        "code": 0,
        "type": "City",
        "enNameLanguage": "Shwegu",
        "location": {
          "lat": 24.209,
          "lng": 96.804
        },
        "keyAccentLanguage": "shwegu"
      },
      {
        "code": 0,
        "type": "City",
        "enNameLanguage": "Shin Bway Yang",
        "location": {
          "lat": 26.696,
          "lng": 96.207
        },
        "keyAccentLanguage": "shin_bway_yang"
      },
      {
        "code": 0,
        "type": "City",
        "enNameLanguage": "Kamaing",
        "location": {
          "lat": 25.516,
          "lng": 96.712
        },
        "keyAccentLanguage": "kamaing"
      },
      {
        "code": 0,
        "type": "City",
        "enNameLanguage": "Mansi",
        "location": {
          "lat": 24.12,
          "lng": 97.297
        },
        "keyAccentLanguage": "mansi"
      },
      {
        "code": 0,
        "type": "City",
        "enNameLanguage": "Mawhun",
        "location": {
          "lat": 24.64,
          "lng": 96.217
        },
        "keyAccentLanguage": "mawhun"
      },
      {
        "code": 0,
        "type": "City",
        "enNameLanguage": "Nalong",
        "location": {
          "lat": 24.739,
          "lng": 97.456
        },
        "keyAccentLanguage": "nalong"
      },
      {
        "code": 0,
        "type": "City",
        "enNameLanguage": "Nam Mun",
        "location": {
          "lat": 25.003,
          "lng": 96.351
        },
        "keyAccentLanguage": "nam_mun"
      },
      {
        "code": 0,
        "type": "City",
        "enNameLanguage": "Lahksakawng",
        "location": {
          "lat": 26.217,
          "lng": 97.4
        },
        "keyAccentLanguage": "lahksakawng"
      },
      {
        "code": 0,
        "type": "City",
        "enNameLanguage": "Magawng",
        "location": {
          "lat": 26.534,
          "lng": 97.709
        },
        "keyAccentLanguage": "magawng"
      },
      {
        "code": 0,
        "type": "City",
        "enNameLanguage": "Momauk",
        "location": {
          "lat": 24.254,
          "lng": 97.348
        },
        "keyAccentLanguage": "momauk"
      },
      {
        "code": 0,
        "type": "City",
        "enNameLanguage": "Nam Mar",
        "location": {
          "lat": 24.884,
          "lng": 96.447
        },
        "keyAccentLanguage": "nam_mar"
      },
      {
        "code": 0,
        "type": "City",
        "enNameLanguage": "Pa La Na Sa Khan Myar",
        "location": {
          "lat": 25.49,
          "lng": 97.443
        },
        "keyAccentLanguage": "pa_la_na_sa_khan_myar"
      },
      {
        "code": 0,
        "type": "City",
        "enNameLanguage": "Ngawapaka",
        "location": {
          "lat": 26.227,
          "lng": 98.552
        },
        "keyAccentLanguage": "ngawapaka"
      },
      {
        "code": 0,
        "type": "City",
        "enNameLanguage": "Nawng Nang",
        "location": {
          "lat": 25.543,
          "lng": 97.488
        },
        "keyAccentLanguage": "nawng_nang"
      },
      {
        "code": 0,
        "type": "City",
        "enNameLanguage": "Lwegel",
        "location": {
          "lat": 24.2,
          "lng": 97.721
        },
        "keyAccentLanguage": "lwegel"
      },
      {
        "code": 0,
        "type": "City",
        "enNameLanguage": "Man Wein",
        "location": {
          "lat": 23.83,
          "lng": 97.591
        },
        "keyAccentLanguage": "man_wein"
      },
      {
        "code": 0,
        "type": "City",
        "enNameLanguage": "Tunghkung",
        "location": {
          "lat": 25.423,
          "lng": 96.368
        },
        "keyAccentLanguage": "tunghkung"
      },
      {
        "code": 0,
        "type": "City",
        "enNameLanguage": "Kangkung",
        "location": {
          "lat": 26.601,
          "lng": 98.576
        },
        "keyAccentLanguage": "kangkung"
      },
      {
        "code": 0,
        "type": "City",
        "enNameLanguage": "Kyenpalawn",
        "location": {
          "lat": 27.337,
          "lng": 97.188
        },
        "keyAccentLanguage": "kyenpalawn"
      },
      {
        "code": 0,
        "type": "City",
        "enNameLanguage": "Ndumzup",
        "location": {
          "lat": 26.574,
          "lng": 97.268
        },
        "keyAccentLanguage": "ndumzup"
      },
      {
        "code": 0,
        "type": "City",
        "enNameLanguage": "Man Ming",
        "location": {
          "lat": 25.496,
          "lng": 97.748
        },
        "keyAccentLanguage": "man_ming"
      },
      {
        "code": 0,
        "type": "City",
        "enNameLanguage": "Shatahkung",
        "location": {
          "lat": 26.963,
          "lng": 98.372
        },
        "keyAccentLanguage": "shatahkung"
      },
      {
        "code": 0,
        "type": "City",
        "enNameLanguage": "Ma Mon Kaing",
        "location": {
          "lat": 25.021,
          "lng": 96.286
        },
        "keyAccentLanguage": "ma_mon_kaing"
      },
      {
        "code": 0,
        "type": "City",
        "enNameLanguage": "Taw Pone",
        "location": {
          "lat": 24.226,
          "lng": 96.786
        },
        "keyAccentLanguage": "taw_pone"
      },
      {
        "code": 0,
        "type": "City",
        "enNameLanguage": "Mahkyetkawng",
        "location": {
          "lat": 25.825,
          "lng": 96.876
        },
        "keyAccentLanguage": "mahkyetkawng"
      },
      {
        "code": 0,
        "type": "City",
        "enNameLanguage": "Pan Ma Ti",
        "location": {
          "lat": 27.395,
          "lng": 97.432
        },
        "keyAccentLanguage": "pan_ma_ti"
      },
      {
        "code": 0,
        "type": "City",
        "enNameLanguage": "Wu Yang",
        "location": {
          "lat": 25.366,
          "lng": 97.5
        },
        "keyAccentLanguage": "wu_yang"
      },
      {
        "code": 0,
        "type": "City",
        "enNameLanguage": "Rawngtsaw",
        "location": {
          "lat": 26.315,
          "lng": 98.33
        },
        "keyAccentLanguage": "rawngtsaw"
      },
      {
        "code": 0,
        "type": "City",
        "enNameLanguage": "Songhpe",
        "location": {
          "lat": 25.687,
          "lng": 96.939
        },
        "keyAccentLanguage": "songhpe"
      },
      {
        "code": 0,
        "type": "City",
        "enNameLanguage": "Ta Kwin",
        "location": {
          "lat": 24.975,
          "lng": 96.501
        },
        "keyAccentLanguage": "ta_kwin"
      },
      {
        "code": 0,
        "type": "City",
        "enNameLanguage": "Langtao",
        "location": {
          "lat": 27.265,
          "lng": 97.582
        },
        "keyAccentLanguage": "langtao"
      },
      {
        "code": 0,
        "type": "City",
        "enNameLanguage": "Sin Hkan",
        "location": {
          "lat": 24.136,
          "lng": 97.013
        },
        "keyAccentLanguage": "sin_hkan"
      },
      {
        "code": 0,
        "type": "City",
        "enNameLanguage": "Tumbukut",
        "location": {
          "lat": 25.03,
          "lng": 97.414
        },
        "keyAccentLanguage": "tumbukut"
      },
      {
        "code": 0,
        "type": "City",
        "enNameLanguage": "Nam Ma Hpyit",
        "location": {
          "lat": 25.599,
          "lng": 96.307
        },
        "keyAccentLanguage": "nam_ma_hpyit"
      },
      {
        "code": 0,
        "type": "City",
        "enNameLanguage": "Kawang",
        "location": {
          "lat": 27.656,
          "lng": 97.627
        },
        "keyAccentLanguage": "kawang"
      },
      {
        "code": 0,
        "type": "City",
        "enNameLanguage": "Seik Mu",
        "location": {
          "lat": 25.569,
          "lng": 96.283
        },
        "keyAccentLanguage": "seik_mu"
      },
      {
        "code": 0,
        "type": "City",
        "enNameLanguage": "Mogaung",
        "location": {
          "lat": 25.3,
          "lng": 96.94
        },
        "keyAccentLanguage": "mogaung"
      },
      {
        "code": 0,
        "type": "City",
        "enNameLanguage": "Shaduzup",
        "location": {
          "lat": 25.911,
          "lng": 96.653
        },
        "keyAccentLanguage": "shaduzup"
      },
      {
        "code": 0,
        "type": "City",
        "enNameLanguage": "Waingmaw",
        "location": {
          "lat": 25.353,
          "lng": 97.441
        },
        "keyAccentLanguage": "waingmaw"
      },
      {
        "code": 0,
        "type": "City",
        "enNameLanguage": "Welatam",
        "location": {
          "lat": 26.614,
          "lng": 98.369
        },
        "keyAccentLanguage": "welatam"
      },
      {
        "code": 0,
        "type": "City",
        "enNameLanguage": "Thamainggyi",
        "location": {
          "lat": 24.449,
          "lng": 97.134
        },
        "keyAccentLanguage": "thamainggyi"
      },
      {
        "code": 0,
        "type": "City",
        "enNameLanguage": "Nantan",
        "location": {
          "lat": 24.395,
          "lng": 97.018
        },
        "keyAccentLanguage": "nantan"
      },
      {
        "code": 0,
        "type": "City",
        "enNameLanguage": "Ma Dang Yang",
        "location": {
          "lat": 23.95,
          "lng": 97.397
        },
        "keyAccentLanguage": "ma_dang_yang"
      },
      {
        "code": 0,
        "type": "City",
        "enNameLanguage": "Namzir",
        "location": {
          "lat": 27.337,
          "lng": 98.179
        },
        "keyAccentLanguage": "namzir"
      },
      {
        "code": 0,
        "type": "City",
        "enNameLanguage": "Wa Ra Zut",
        "location": {
          "lat": 25.856,
          "lng": 96.656
        },
        "keyAccentLanguage": "wa_ra_zut"
      },
      {
        "code": 0,
        "type": "City",
        "enNameLanguage": "Sar Hmaw",
        "location": {
          "lat": 25.225,
          "lng": 96.797
        },
        "keyAccentLanguage": "sar_hmaw"
      },
      {
        "code": 0,
        "type": "City",
        "enNameLanguage": "Tahona",
        "location": {
          "lat": 24.934,
          "lng": 97.076
        },
        "keyAccentLanguage": "tahona"
      },
      {
        "code": 0,
        "type": "City",
        "enNameLanguage": "Panpa",
        "location": {
          "lat": 25.293,
          "lng": 97.283
        },
        "keyAccentLanguage": "panpa"
      },
      {
        "code": 0,
        "type": "City",
        "enNameLanguage": "Shingbwiyang",
        "location": {
          "lat": 26.681,
          "lng": 96.201
        },
        "keyAccentLanguage": "shingbwiyang"
      },
      {
        "code": 0,
        "type": "City",
        "enNameLanguage": "Wuning",
        "location": {
          "lat": 27.034,
          "lng": 98.351
        },
        "keyAccentLanguage": "wuning"
      },
      {
        "code": 0,
        "type": "City",
        "enNameLanguage": "Sinlung Ga",
        "location": {
          "lat": 26.526,
          "lng": 96.614
        },
        "keyAccentLanguage": "sinlung_ga"
      },
      {
        "code": 0,
        "type": "City",
        "enNameLanguage": "Man Say",
        "location": {
          "lat": 27.403,
          "lng": 97.338
        },
        "keyAccentLanguage": "man_say"
      }
    ],
    "enNameLanguage": "Kachin",
    "keyAccentLanguage": "kachin"
  },
  {
    "code": 0,
    "type": "State",
    "location": {
      "lat": 19.2342061,
      "lng": 97.26528580000002
    },
    "districtList": [
      {
        "code": 0,
        "type": "City",
        "enNameLanguage": "Chi Kweit",
        "location": {
          "lat": 19.019,
          "lng": 97.353
        },
        "keyAccentLanguage": "chi_kweit"
      },
      {
        "code": 0,
        "type": "City",
        "enNameLanguage": "Chi Kei",
        "location": {
          "lat": 19.683,
          "lng": 97.224
        },
        "keyAccentLanguage": "chi_kei"
      },
      {
        "code": 0,
        "type": "City",
        "enNameLanguage": "Daw Ka Dwee",
        "location": {
          "lat": 18.711,
          "lng": 97.676
        },
        "keyAccentLanguage": "daw_ka_dwee"
      },
      {
        "code": 0,
        "type": "City",
        "enNameLanguage": "Demoso",
        "location": {
          "lat": 19.542,
          "lng": 97.161
        },
        "keyAccentLanguage": "demoso"
      },
      {
        "code": 0,
        "type": "City",
        "enNameLanguage": "Bankom",
        "location": {
          "lat": 18.833,
          "lng": 97.383
        },
        "keyAccentLanguage": "bankom"
      },
      {
        "code": 0,
        "type": "City",
        "enNameLanguage": "Loikaw",
        "location": {
          "lat": 19.674,
          "lng": 97.215
        },
        "keyAccentLanguage": "loikaw"
      },
      {
        "code": 0,
        "type": "City",
        "enNameLanguage": "Doe Lar Saw",
        "location": {
          "lat": 19.269,
          "lng": 97.088
        },
        "keyAccentLanguage": "doe_lar_saw"
      },
      {
        "code": 0,
        "type": "City",
        "enNameLanguage": "Oh Kay",
        "location": {
          "lat": 19.647,
          "lng": 97.113
        },
        "keyAccentLanguage": "oh_kay"
      },
      {
        "code": 0,
        "type": "City",
        "enNameLanguage": "Raw Daw Khaw",
        "location": {
          "lat": 19.249,
          "lng": 96.887
        },
        "keyAccentLanguage": "raw_daw_khaw"
      },
      {
        "code": 0,
        "type": "City",
        "enNameLanguage": "Bawla-hke",
        "location": {
          "lat": 19.249,
          "lng": 97.633
        },
        "keyAccentLanguage": "bawla-hke"
      },
      {
        "code": 0,
        "type": "City",
        "enNameLanguage": "Bu Khu",
        "location": {
          "lat": 19.26,
          "lng": 97.223
        },
        "keyAccentLanguage": "bu_khu"
      },
      {
        "code": 0,
        "type": "City",
        "enNameLanguage": "Kwar Khee",
        "location": {
          "lat": 18.959,
          "lng": 97.018
        },
        "keyAccentLanguage": "kwar_khee"
      },
      {
        "code": 0,
        "type": "City",
        "enNameLanguage": "Ngwedaung",
        "location": {
          "lat": 19.517,
          "lng": 97.15
        },
        "keyAccentLanguage": "ngwedaung"
      },
      {
        "code": 0,
        "type": "City",
        "enNameLanguage": "Kay Kaw",
        "location": {
          "lat": 19.175,
          "lng": 96.949
        },
        "keyAccentLanguage": "kay_kaw"
      },
      {
        "code": 0,
        "type": "City",
        "enNameLanguage": "Belako",
        "location": {
          "lat": 18.983,
          "lng": 97.017
        },
        "keyAccentLanguage": "belako"
      },
      {
        "code": 0,
        "type": "City",
        "enNameLanguage": "Shadaw (South)",
        "location": {
          "lat": 19.673,
          "lng": 97.437
        },
        "keyAccentLanguage": "shadaw_(south)"
      },
      {
        "code": 0,
        "type": "City",
        "enNameLanguage": "Doe Pa Rei",
        "location": {
          "lat": 19.325,
          "lng": 97.128
        },
        "keyAccentLanguage": "doe_pa_rei"
      },
      {
        "code": 0,
        "type": "City",
        "enNameLanguage": "Lwei Waing",
        "location": {
          "lat": 19.031,
          "lng": 97.477
        },
        "keyAccentLanguage": "lwei_waing"
      },
      {
        "code": 0,
        "type": "City",
        "enNameLanguage": "Naung Pale",
        "location": {
          "lat": 19.547,
          "lng": 97.116
        },
        "keyAccentLanguage": "naung_pale"
      },
      {
        "code": 0,
        "type": "City",
        "enNameLanguage": "Nwar La Woe",
        "location": {
          "lat": 19.764,
          "lng": 97.224
        },
        "keyAccentLanguage": "nwar_la_woe"
      },
      {
        "code": 0,
        "type": "City",
        "enNameLanguage": "Kay Hlar (Kyae Hpoe Gyi)",
        "location": {
          "lat": 19.359,
          "lng": 97.235
        },
        "keyAccentLanguage": "kay_hlar_(kyae_hpoe_gyi)"
      },
      {
        "code": 0,
        "type": "City",
        "enNameLanguage": "Pasawn",
        "location": {
          "lat": 18.871,
          "lng": 97.309
        },
        "keyAccentLanguage": "pasawn"
      },
      {
        "code": 0,
        "type": "City",
        "enNameLanguage": "Wan Hwe-un",
        "location": {
          "lat": 19.161,
          "lng": 97.733
        },
        "keyAccentLanguage": "wan_hwe-un"
      },
      {
        "code": 0,
        "type": "City",
        "enNameLanguage": "Mya Le",
        "location": {
          "lat": 19.562,
          "lng": 97.034
        },
        "keyAccentLanguage": "mya_le"
      },
      {
        "code": 0,
        "type": "City",
        "enNameLanguage": "Saw Lon",
        "location": {
          "lat": 19.191,
          "lng": 97.391
        },
        "keyAccentLanguage": "saw_lon"
      },
      {
        "code": 0,
        "type": "City",
        "enNameLanguage": "Htee Se Khar",
        "location": {
          "lat": 19.877,
          "lng": 97.231
        },
        "keyAccentLanguage": "htee_se_khar"
      },
      {
        "code": 0,
        "type": "City",
        "enNameLanguage": "Noe Koe",
        "location": {
          "lat": 19.749,
          "lng": 97.119
        },
        "keyAccentLanguage": "noe_koe"
      },
      {
        "code": 0,
        "type": "City",
        "enNameLanguage": "Daw Paw Ka Le",
        "location": {
          "lat": 19.699,
          "lng": 97.186
        },
        "keyAccentLanguage": "daw_paw_ka_le"
      },
      {
        "code": 0,
        "type": "City",
        "enNameLanguage": "Pan Pet",
        "location": {
          "lat": 19.604,
          "lng": 96.983
        },
        "keyAccentLanguage": "pan_pet"
      },
      {
        "code": 0,
        "type": "City",
        "enNameLanguage": "Lo Pu",
        "location": {
          "lat": 19.574,
          "lng": 96.954
        },
        "keyAccentLanguage": "lo_pu"
      },
      {
        "code": 0,
        "type": "City",
        "enNameLanguage": "Nan Hpe",
        "location": {
          "lat": 19.171,
          "lng": 97.241
        },
        "keyAccentLanguage": "nan_hpe"
      },
      {
        "code": 0,
        "type": "City",
        "enNameLanguage": "Thay Su Le",
        "location": {
          "lat": 19.61,
          "lng": 97.135
        },
        "keyAccentLanguage": "thay_su_le"
      },
      {
        "code": 0,
        "type": "City",
        "enNameLanguage": "Ban Yang Pu Kang Toe",
        "location": {
          "lat": 19.067,
          "lng": 97.75
        },
        "keyAccentLanguage": "ban_yang_pu_kang_toe"
      },
      {
        "code": 0,
        "type": "City",
        "enNameLanguage": "Hawhkam",
        "location": {
          "lat": 19.217,
          "lng": 97.417
        },
        "keyAccentLanguage": "hawhkam"
      },
      {
        "code": 0,
        "type": "City",
        "enNameLanguage": "Hpruso",
        "location": {
          "lat": 19.41,
          "lng": 97.125
        },
        "keyAccentLanguage": "hpruso"
      },
      {
        "code": 0,
        "type": "City",
        "enNameLanguage": "Daw Hpu",
        "location": {
          "lat": 19.407,
          "lng": 97.38
        },
        "keyAccentLanguage": "daw_hpu"
      },
      {
        "code": 0,
        "type": "City",
        "enNameLanguage": "Bi-hku",
        "location": {
          "lat": 19.111,
          "lng": 97.228
        },
        "keyAccentLanguage": "bi-hku"
      },
      {
        "code": 0,
        "type": "City",
        "enNameLanguage": "Dawhku-li",
        "location": {
          "lat": 19.516,
          "lng": 97.359
        },
        "keyAccentLanguage": "dawhku-li"
      },
      {
        "code": 0,
        "type": "City",
        "enNameLanguage": "Ho Gyit",
        "location": {
          "lat": 18.598,
          "lng": 97.655
        },
        "keyAccentLanguage": "ho_gyit"
      },
      {
        "code": 0,
        "type": "City",
        "enNameLanguage": "War Thaw Kho Ywar Thit",
        "location": {
          "lat": 19.63,
          "lng": 97.057
        },
        "keyAccentLanguage": "war_thaw_kho_ywar_thit"
      },
      {
        "code": 0,
        "type": "City",
        "enNameLanguage": "Bekoki",
        "location": {
          "lat": 18.75,
          "lng": 97.217
        },
        "keyAccentLanguage": "bekoki"
      },
      {
        "code": 0,
        "type": "City",
        "enNameLanguage": "Mo So",
        "location": {
          "lat": 19.419,
          "lng": 97.096
        },
        "keyAccentLanguage": "mo_so"
      },
      {
        "code": 0,
        "type": "City",
        "enNameLanguage": "Ba Han Lawt",
        "location": {
          "lat": 18.951,
          "lng": 97.121
        },
        "keyAccentLanguage": "ba_han_lawt"
      },
      {
        "code": 0,
        "type": "City",
        "enNameLanguage": "Htee Paw So",
        "location": {
          "lat": 19.488,
          "lng": 97.139
        },
        "keyAccentLanguage": "htee_paw_so"
      },
      {
        "code": 0,
        "type": "City",
        "enNameLanguage": "Banawn Auk",
        "location": {
          "lat": 18.85,
          "lng": 97.333
        },
        "keyAccentLanguage": "banawn_auk"
      },
      {
        "code": 0,
        "type": "City",
        "enNameLanguage": "Bimaku",
        "location": {
          "lat": 18.917,
          "lng": 97.017
        },
        "keyAccentLanguage": "bimaku"
      },
      {
        "code": 0,
        "type": "City",
        "enNameLanguage": "Ho Yar",
        "location": {
          "lat": 19.341,
          "lng": 96.935
        },